var st={
"type":"FeatureCollection",
"features":[
{
"type":"Feature",
"properties":{
"Name":"阿寒湖小学校",
"Jusho":"北海道釧路市阿寒町阿寒湖温泉5-6",
"Capacity":"5391",
"la":"43.43630400000",
"ln":"144.08585000000"
},
"geometry":{
"type":"Point",
"coordinates":[
144.08585,
43.436304
]
}
},
{
"type":"Feature",
"properties":{
"Name":"阿寒小学校",
"Jusho":"北海道釧路市阿寒町富士見1－7",
"Capacity":"11421",
"la":"43.10574600000",
"ln":"144.12682800000"
},
"geometry":{
"type":"Point",
"coordinates":[
144.126828,
43.105746
]
}
},
{
"type":"Feature",
"properties":{
"Name":"愛国小学校",
"Jusho":"北海道釧路市愛国西1-25",
"Capacity":"4669",
"la":"43.01208200000",
"ln":"144.38635300000"
},
"geometry":{
"type":"Point",
"coordinates":[
144.386353,
43.012082
]
}
},
{
"type":"Feature",
"properties":{
"Name":"芦野小学校",
"Jusho":"北海道釧路市芦野1－3",
"Capacity":"5249",
"la":"43.01172100000",
"ln":"144.39963000000"
},
"geometry":{
"type":"Point",
"coordinates":[
144.39963,
43.011721
]
}
},
{
"type":"Feature",
"properties":{
"Name":"音別小学校",
"Jusho":"北海道釧路市音別町中園2－",
"Capacity":"9370",
"la":"42.89278700000",
"ln":"143.92505500000"
},
"geometry":{
"type":"Point",
"coordinates":[
143.925055,
42.892787
]
}
},
{
"type":"Feature",
"properties":{
"Name":"旧阿寒小学校グランド",
"Jusho":"北海道釧路市阿寒町富士見2-5",
"Capacity":"3450",
"la":"43.10704832900",
"ln":"144.12010826000"
},
"geometry":{
"type":"Point",
"coordinates":[
144.12010826,
43.107048329
]
}
},
{
"type":"Feature",
"properties":{
"Name":"旧桂恋小学校",
"Jusho":"北海道釧路市桂恋172",
"Capacity":"3674",
"la":"42.94702852060",
"ln":"144.45199689000"
},
"geometry":{
"type":"Point",
"coordinates":[
144.45199689,
42.9470285206
]
}
},
{
"type":"Feature",
"properties":{
"Name":"旧東栄小学校",
"Jusho":"北海道釧路市弥生2－",
"Capacity":"5865",
"la":"42.97305800000",
"ln":"144.37974500000"
},
"geometry":{
"type":"Point",
"coordinates":[
144.379745,
42.973058
]
}
},
{
"type":"Feature",
"properties":{
"Name":"旧柏木小学校グランド",
"Jusho":"北海道釧路市柏木町11－5",
"Capacity":"5090",
"la":"42.97192000000",
"ln":"144.39479900000"
},
"geometry":{
"type":"Point",
"coordinates":[
144.394799,
42.97192
]
}
},
{
"type":"Feature",
"properties":{
"Name":"共栄小学校",
"Jusho":"北海道釧路市双葉町4－7",
"Capacity":"5610",
"la":"42.99622200000",
"ln":"144.39057600000"
},
"geometry":{
"type":"Point",
"coordinates":[
144.390576,
42.996222
]
}
},
{
"type":"Feature",
"properties":{
"Name":"教育大学附属小学校",
"Jusho":"北海道釧路市桜ケ岡7－2",
"Capacity":"4053",
"la":"42.96314500000",
"ln":"144.44146100000"
},
"geometry":{
"type":"Point",
"coordinates":[
144.441461,
42.963145
]
}
},
{
"type":"Feature",
"properties":{
"Name":"興津小学校",
"Jusho":"北海道釧路市興津3－0",
"Capacity":"4772",
"la":"42.95789500000",
"ln":"144.41635300000"
},
"geometry":{
"type":"Point",
"coordinates":[
144.416353,
42.957895
]
}
},
{
"type":"Feature",
"properties":{
"Name":"釧路小学校",
"Jusho":"北海道釧路市浦見2-2",
"Capacity":"4602",
"la":"42.97586136980",
"ln":"144.38310375400"
},
"geometry":{
"type":"Point",
"coordinates":[
144.383103754,
42.9758613698
]
}
},
{
"type":"Feature",
"properties":{
"Name":"湖畔小学校",
"Jusho":"北海道釧路市武佐2-27",
"Capacity":"6058",
"la":"42.98147600000",
"ln":"144.42757200000"
},
"geometry":{
"type":"Point",
"coordinates":[
144.427572,
42.981476
]
}
},
{
"type":"Feature",
"properties":{
"Name":"光陽小学校",
"Jusho":"北海道釧路市光陽町15－7",
"Capacity":"3698",
"la":"43.00236100000",
"ln":"144.39249200000"
},
"geometry":{
"type":"Point",
"coordinates":[
144.392492,
43.002361
]
}
},
{
"type":"Feature",
"properties":{
"Name":"桜が丘小学校",
"Jusho":"北海道釧路市桜ケ岡2-4",
"Capacity":"5006",
"la":"42.96614400000",
"ln":"144.41768500000"
},
"geometry":{
"type":"Point",
"coordinates":[
144.417685,
42.966144
]
}
},
{
"type":"Feature",
"properties":{
"Name":"昭和小学校",
"Jusho":"北海道釧路市昭和中央3－2",
"Capacity":"5069",
"la":"43.02121600000",
"ln":"144.36362800000"
},
"geometry":{
"type":"Point",
"coordinates":[
144.363628,
43.021216
]
}
},
{
"type":"Feature",
"properties":{
"Name":"城山小学校",
"Jusho":"北海道釧路市城山1－4",
"Capacity":"4397",
"la":"42.98280700000",
"ln":"144.39807500000"
},
"geometry":{
"type":"Point",
"coordinates":[
144.398075,
42.982807
]
}
},
{
"type":"Feature",
"properties":{
"Name":"新陽小学校",
"Jusho":"北海道釧路市新富士町4-6",
"Capacity":"4731",
"la":"43.00508200000",
"ln":"144.34705200000"
},
"geometry":{
"type":"Point",
"coordinates":[
144.347052,
43.005082
]
}
},
{
"type":"Feature",
"properties":{
"Name":"仁々志別小学校",
"Jusho":"北海道釧路市阿寒町ニニシベツ原野32線89",
"Capacity":"6304",
"la":"43.17427300000",
"ln":"144.22388600000"
},
"geometry":{
"type":"Point",
"coordinates":[
144.223886,
43.174273
]
}
},
{
"type":"Feature",
"properties":{
"Name":"清明小学校",
"Jusho":"北海道釧路市緑ケ岡4-8",
"Capacity":"4985",
"la":"42.99000200000",
"ln":"144.41065700000"
},
"geometry":{
"type":"Point",
"coordinates":[
144.410657,
42.990002
]
}
},
{
"type":"Feature",
"properties":{
"Name":"青葉小学校",
"Jusho":"北海道釧路市新川町3-7",
"Capacity":"5901",
"la":"43.00221100000",
"ln":"144.37581700000"
},
"geometry":{
"type":"Point",
"coordinates":[
144.375817,
43.002211
]
}
},
{
"type":"Feature",
"properties":{
"Name":"大楽毛小学校",
"Jusho":"北海道釧路市大楽毛4－0",
"Capacity":"4131",
"la":"43.01107800000",
"ln":"144.27569900000"
},
"geometry":{
"type":"Point",
"coordinates":[
144.275699,
43.011078
]
}
},
{
"type":"Feature",
"properties":{
"Name":"中央小学校",
"Jusho":"北海道釧路市寿1-2",
"Capacity":"6276",
"la":"42.99085204380",
"ln":"144.37519043000"
},
"geometry":{
"type":"Point",
"coordinates":[
144.37519043,
42.9908520438
]
}
},
{
"type":"Feature",
"properties":{
"Name":"中徹別小学校",
"Jusho":"北海道釧路市阿寒町徹別中央34線39",
"Capacity":"5831",
"la":"43.20026600000",
"ln":"144.14254500000"
},
"geometry":{
"type":"Point",
"coordinates":[
144.142545,
43.200266
]
}
},
{
"type":"Feature",
"properties":{
"Name":"朝陽小学校",
"Jusho":"北海道釧路市桜ケ岡5-3",
"Capacity":"6047",
"la":"42.96350600000",
"ln":"144.43029500000"
},
"geometry":{
"type":"Point",
"coordinates":[
144.430295,
42.963506
]
}
},
{
"type":"Feature",
"properties":{
"Name":"鳥取小学校",
"Jusho":"北海道釧路市鳥取北3－3",
"Capacity":"4649",
"la":"43.01599700000",
"ln":"144.35582900000"
},
"geometry":{
"type":"Point",
"coordinates":[
144.355829,
43.015997
]
}
},
{
"type":"Feature",
"properties":{
"Name":"鳥取西小学校",
"Jusho":"北海道釧路市鳥取北7-5",
"Capacity":"4931",
"la":"43.01908000000",
"ln":"144.34041400000"
},
"geometry":{
"type":"Point",
"coordinates":[
144.340414,
43.01908
]
}
},
{
"type":"Feature",
"properties":{
"Name":"鶴野小学校",
"Jusho":"北海道釧路市鶴野58-64",
"Capacity":"4021",
"la":"43.02455600000",
"ln":"144.31641600000"
},
"geometry":{
"type":"Point",
"coordinates":[
144.316416,
43.024556
]
}
},
{
"type":"Feature",
"properties":{
"Name":"東雲小学校",
"Jusho":"北海道釧路市白樺台3－9",
"Capacity":"7062",
"la":"42.96059000000",
"ln":"144.45009900000"
},
"geometry":{
"type":"Point",
"coordinates":[
144.450099,
42.96059
]
}
},
{
"type":"Feature",
"properties":{
"Name":"美原小学校",
"Jusho":"北海道釧路市美原4-2",
"Capacity":"5191",
"la":"43.02258200000",
"ln":"144.40807300000"
},
"geometry":{
"type":"Point",
"coordinates":[
144.408073,
43.022582
]
}
},
{
"type":"Feature",
"properties":{
"Name":"武佐小学校",
"Jusho":"北海道釧路市武佐4-3",
"Capacity":"4712",
"la":"42.98978000000",
"ln":"144.42304500000"
},
"geometry":{
"type":"Point",
"coordinates":[
144.423045,
42.98978
]
}
},
{
"type":"Feature",
"properties":{
"Name":"温根湯小学校",
"Jusho":"北海道北見市留辺蘂町温根湯温泉75",
"Capacity":"1500",
"la":"43.75344000000",
"ln":"143.51200800000"
},
"geometry":{
"type":"Point",
"coordinates":[
143.512008,
43.75344
]
}
},
{
"type":"Feature",
"properties":{
"Name":"下仁頃小学校",
"Jusho":"北海道北見市仁頃町221",
"Capacity":"1500",
"la":"43.90077000000",
"ln":"143.90077600000"
},
"geometry":{
"type":"Point",
"coordinates":[
143.900776,
43.90077
]
}
},
{
"type":"Feature",
"properties":{
"Name":"錦水小学校",
"Jusho":"北海道北見市常呂町字岐阜329",
"Capacity":"3600",
"la":"44.11426400000",
"ln":"144.00868100000"
},
"geometry":{
"type":"Point",
"coordinates":[
144.008681,
44.114264
]
}
},
{
"type":"Feature",
"properties":{
"Name":"高栄小学校",
"Jusho":"北海道北見市高栄西町9丁目3-2",
"Capacity":"8900",
"la":"43.81405700000",
"ln":"143.86078300000"
},
"geometry":{
"type":"Point",
"coordinates":[
143.860783,
43.814057
]
}
},
{
"type":"Feature",
"properties":{
"Name":"三輪小学校",
"Jusho":"北海道北見市中央三輪8丁目14－",
"Capacity":"5600",
"la":"43.79447600000",
"ln":"143.84742400000"
},
"geometry":{
"type":"Point",
"coordinates":[
143.847424,
43.794476
]
}
},
{
"type":"Feature",
"properties":{
"Name":"若松小学校",
"Jusho":"北海道北見市若松155-5",
"Capacity":"2670",
"la":"43.77769687860",
"ln":"143.92398324900"
},
"geometry":{
"type":"Point",
"coordinates":[
143.923983249,
43.7776968786
]
}
},
{
"type":"Feature",
"properties":{
"Name":"小泉小学校",
"Jusho":"北海道北見市春光町6丁目4-51",
"Capacity":"5300",
"la":"43.82222400000",
"ln":"143.92194500000"
},
"geometry":{
"type":"Point",
"coordinates":[
143.921945,
43.822224
]
}
},
{
"type":"Feature",
"properties":{
"Name":"上常呂小学校",
"Jusho":"北海道北見市上ところ28－",
"Capacity":"6200",
"la":"43.76025700000",
"ln":"143.84370400000"
},
"geometry":{
"type":"Point",
"coordinates":[
143.843704,
43.760257
]
}
},
{
"type":"Feature",
"properties":{
"Name":"上仁頃小学校",
"Jusho":"北海道北見市上仁頃108",
"Capacity":"2400",
"la":"43.87585500000",
"ln":"143.85472600000"
},
"geometry":{
"type":"Point",
"coordinates":[
143.854726,
43.875855
]
}
},
{
"type":"Feature",
"properties":{
"Name":"常呂小学校",
"Jusho":"北海道北見市常呂町字常呂503",
"Capacity":"5600",
"la":"44.11921200000",
"ln":"144.06731900000"
},
"geometry":{
"type":"Point",
"coordinates":[
144.067319,
44.119212
]
}
},
{
"type":"Feature",
"properties":{
"Name":"常呂町郷土資料館（旧富丘小学校）",
"Jusho":"北海道北見市常呂町字富丘287",
"Capacity":"500",
"la":"44.07010354000",
"ln":"143.99398043700"
},
"geometry":{
"type":"Point",
"coordinates":[
143.993980437,
44.07010354
]
}
},
{
"type":"Feature",
"properties":{
"Name":"西小学校",
"Jusho":"北海道北見市とん田東町688－",
"Capacity":"7700",
"la":"43.79200500000",
"ln":"143.88392100000"
},
"geometry":{
"type":"Point",
"coordinates":[
143.883921,
43.792005
]
}
},
{
"type":"Feature",
"properties":{
"Name":"川沿小学校",
"Jusho":"北海道北見市常呂町字豊川63",
"Capacity":"4900",
"la":"44.06305500000",
"ln":"144.02865200000"
},
"geometry":{
"type":"Point",
"coordinates":[
144.028652,
44.063055
]
}
},
{
"type":"Feature",
"properties":{
"Name":"相内小学校",
"Jusho":"北海道北見市相内町287",
"Capacity":"4700",
"la":"43.79766700000",
"ln":"143.74918200000"
},
"geometry":{
"type":"Point",
"coordinates":[
143.749182,
43.797667
]
}
},
{
"type":"Feature",
"properties":{
"Name":"大正小学校",
"Jusho":"北海道北見市大正64-23",
"Capacity":"5200",
"la":"43.81039000000",
"ln":"143.83945200000"
},
"geometry":{
"type":"Point",
"coordinates":[
143.839452,
43.81039
]
}
},
{
"type":"Feature",
"properties":{
"Name":"大和小学校",
"Jusho":"北海道北見市留辺蘂町大和355－",
"Capacity":"500",
"la":"43.74124400000",
"ln":"143.45146700000"
},
"geometry":{
"type":"Point",
"coordinates":[
143.451467,
43.741244
]
}
},
{
"type":"Feature",
"properties":{
"Name":"端野小学校",
"Jusho":"北海道北見市端野町二区257-2",
"Capacity":"1800",
"la":"43.86086300000",
"ln":"143.95596300000"
},
"geometry":{
"type":"Point",
"coordinates":[
143.955963,
43.860863
]
}
},
{
"type":"Feature",
"properties":{
"Name":"中央小学校",
"Jusho":"北海道北見市中央町3-51",
"Capacity":"5800",
"la":"43.81078000000",
"ln":"143.88912600000"
},
"geometry":{
"type":"Point",
"coordinates":[
143.889126,
43.81078
]
}
},
{
"type":"Feature",
"properties":{
"Name":"東小学校",
"Jusho":"北海道北見市大町159－",
"Capacity":"6100",
"la":"43.81378000000",
"ln":"143.90272500000"
},
"geometry":{
"type":"Point",
"coordinates":[
143.902725,
43.81378
]
}
},
{
"type":"Feature",
"properties":{
"Name":"東相内小学校",
"Jusho":"北海道北見市東相内町178－0",
"Capacity":"5500",
"la":"43.80177900000",
"ln":"143.80881600000"
},
"geometry":{
"type":"Point",
"coordinates":[
143.808816,
43.801779
]
}
},
{
"type":"Feature",
"properties":{
"Name":"南小学校",
"Jusho":"北海道北見市南仲町3丁目2-40",
"Capacity":"6200",
"la":"43.80078200000",
"ln":"143.90017000000"
},
"geometry":{
"type":"Point",
"coordinates":[
143.90017,
43.800782
]
}
},
{
"type":"Feature",
"properties":{
"Name":"日吉小学校",
"Jusho":"北海道北見市常呂町字日吉219－",
"Capacity":"4200",
"la":"43.98064000000",
"ln":"143.94570400000"
},
"geometry":{
"type":"Point",
"coordinates":[
143.945704,
43.98064
]
}
},
{
"type":"Feature",
"properties":{
"Name":"美山小学校",
"Jusho":"北海道北見市美山町36-8",
"Capacity":"6300",
"la":"43.82408400000",
"ln":"143.87875400000"
},
"geometry":{
"type":"Point",
"coordinates":[
143.878754,
43.824084
]
}
},
{
"type":"Feature",
"properties":{
"Name":"豊地小学校",
"Jusho":"北海道北見市豊地285－",
"Capacity":"2300",
"la":"43.78825400000",
"ln":"143.83284200000"
},
"geometry":{
"type":"Point",
"coordinates":[
143.832842,
43.788254
]
}
},
{
"type":"Feature",
"properties":{
"Name":"北光小学校",
"Jusho":"北海道北見市錦町181-3",
"Capacity":"5700",
"la":"43.78514400000",
"ln":"143.87867200000"
},
"geometry":{
"type":"Point",
"coordinates":[
143.878672,
43.785144
]
}
},
{
"type":"Feature",
"properties":{
"Name":"北小学校",
"Jusho":"北海道北見市寿町6丁目1-20",
"Capacity":"5500",
"la":"43.81186300000",
"ln":"143.87750400000"
},
"geometry":{
"type":"Point",
"coordinates":[
143.877504,
43.811863
]
}
},
{
"type":"Feature",
"properties":{
"Name":"留辺蘂小学校",
"Jusho":"北海道北見市留辺蘂町栄町18",
"Capacity":"2000",
"la":"43.78490800000",
"ln":"143.60804400000"
},
"geometry":{
"type":"Point",
"coordinates":[
143.608044,
43.784908
]
}
},
{
"type":"Feature",
"properties":{
"Name":"緑小学校",
"Jusho":"北海道北見市緑町2丁目1－",
"Capacity":"6900",
"la":"43.80536300000",
"ln":"143.84795200000"
},
"geometry":{
"type":"Point",
"coordinates":[
143.847952,
43.805363
]
}
},
{
"type":"Feature",
"properties":{
"Name":"旧浦士別小学校グラウンド",
"Jusho":"北海道網走市浦士別376番地",
"Capacity":"－",
"la":"43.88803967010",
"ln":"144.40924484600"
},
"geometry":{
"type":"Point",
"coordinates":[
144.409244846,
43.8880396701
]
}
},
{
"type":"Feature",
"properties":{
"Name":"旧音根内小学校グラウンド",
"Jusho":"北海道網走市音根内184番地",
"Capacity":"－",
"la":"43.90391211560",
"ln":"144.36799898300"
},
"geometry":{
"type":"Point",
"coordinates":[
144.367998983,
43.9039121156
]
}
},
{
"type":"Feature",
"properties":{
"Name":"旧嘉多山小学校",
"Jusho":"北海道網走市嘉多山416番地",
"Capacity":"－",
"la":"43.97024475810",
"ln":"144.13235411900"
},
"geometry":{
"type":"Point",
"coordinates":[
144.132354119,
43.9702447581
]
}
},
{
"type":"Feature",
"properties":{
"Name":"旧二見ヶ岡小学校グラウンド",
"Jusho":"北海道網走市二見ヶ岡68番地",
"Capacity":"－",
"la":"44.01631310230",
"ln":"144.17166346400"
},
"geometry":{
"type":"Point",
"coordinates":[
144.171663464,
44.0163131023
]
}
},
{
"type":"Feature",
"properties":{
"Name":"旧能取小学校",
"Jusho":"北海道網走市字能取249番地",
"Capacity":"－",
"la":"44.09510100000",
"ln":"144.12515400000"
},
"geometry":{
"type":"Point",
"coordinates":[
144.125154,
44.095101
]
}
},
{
"type":"Feature",
"properties":{
"Name":"西が丘小学校",
"Jusho":"北海道網走市卯原内182番地",
"Capacity":"－",
"la":"44.00992900000",
"ln":"144.10977900000"
},
"geometry":{
"type":"Point",
"coordinates":[
144.109779,
44.009929
]
}
},
{
"type":"Feature",
"properties":{
"Name":"西小学校",
"Jusho":"北海道網走市新町1丁目8番",
"Capacity":"－",
"la":"44.01954200000",
"ln":"144.24560300000"
},
"geometry":{
"type":"Point",
"coordinates":[
144.245603,
44.019542
]
}
},
{
"type":"Feature",
"properties":{
"Name":"西小学校グラウンド",
"Jusho":"北海道網走市新町1丁目34番",
"Capacity":"－",
"la":"44.01941594950",
"ln":"144.24606350400"
},
"geometry":{
"type":"Point",
"coordinates":[
144.246063504,
44.0194159495
]
}
},
{
"type":"Feature",
"properties":{
"Name":"中央小学校",
"Jusho":"北海道網走市向陽ヶ丘4丁目67番1号",
"Capacity":"－",
"la":"44.03107600000",
"ln":"144.25241500000"
},
"geometry":{
"type":"Point",
"coordinates":[
144.252415,
44.031076
]
}
},
{
"type":"Feature",
"properties":{
"Name":"潮見小学校",
"Jusho":"北海道網走市潮見4丁目111",
"Capacity":"－",
"la":"44.00023900000",
"ln":"144.27051900000"
},
"geometry":{
"type":"Point",
"coordinates":[
144.270519,
44.000239
]
}
},
{
"type":"Feature",
"properties":{
"Name":"東小学校",
"Jusho":"北海道網走市字藻琴225番地",
"Capacity":"－",
"la":"43.96091100000",
"ln":"144.31748800000"
},
"geometry":{
"type":"Point",
"coordinates":[
144.317488,
43.960911
]
}
},
{
"type":"Feature",
"properties":{
"Name":"南小学校",
"Jusho":"北海道網走市鱒浦1丁目31",
"Capacity":"－",
"la":"43.98924100000",
"ln":"144.29230600000"
},
"geometry":{
"type":"Point",
"coordinates":[
144.292306,
43.989241
]
}
},
{
"type":"Feature",
"properties":{
"Name":"二見ヶ岡会館（旧二見ヶ岡小学校）",
"Jusho":"北海道網走市字二見ヶ岡68番地",
"Capacity":"－",
"la":"44.01675750770",
"ln":"144.17187143300"
},
"geometry":{
"type":"Point",
"coordinates":[
144.171871433,
44.0167575077
]
}
},
{
"type":"Feature",
"properties":{
"Name":"白鳥台小学校",
"Jusho":"北海道網走市字北浜201番地13",
"Capacity":"－",
"la":"43.95287500000",
"ln":"144.35377600000"
},
"geometry":{
"type":"Point",
"coordinates":[
144.353776,
43.952875
]
}
},
{
"type":"Feature",
"properties":{
"Name":"網走小学校",
"Jusho":"北海道網走市桂町1丁目1番1号",
"Capacity":"－",
"la":"44.01632100000",
"ln":"144.26829600000"
},
"geometry":{
"type":"Point",
"coordinates":[
144.268296,
44.016321
]
}
},
{
"type":"Feature",
"properties":{
"Name":"旧藻別小学校",
"Jusho":"北海道紋別市藻別",
"Capacity":"－",
"la":"44.26083449460",
"ln":"143.36488859400"
},
"geometry":{
"type":"Point",
"coordinates":[
143.364888594,
44.2608344946
]
}
},
{
"type":"Feature",
"properties":{
"Name":"旧中立牛小学校グランド",
"Jusho":"北海道紋別市上渚滑町中立牛",
"Capacity":"－",
"la":"44.13259649420",
"ln":"143.19913581900"
},
"geometry":{
"type":"Point",
"coordinates":[
143.199135819,
44.1325964942
]
}
},
{
"type":"Feature",
"properties":{
"Name":"元紋別小学校",
"Jusho":"北海道紋別市元紋別140－",
"Capacity":"－",
"la":"44.32099700000",
"ln":"143.37521800000"
},
"geometry":{
"type":"Point",
"coordinates":[
143.375218,
44.320997
]
}
},
{
"type":"Feature",
"properties":{
"Name":"渚滑小学校",
"Jusho":"北海道紋別市渚滑町8丁目14",
"Capacity":"－",
"la":"44.36651900000",
"ln":"143.30607900000"
},
"geometry":{
"type":"Point",
"coordinates":[
143.306079,
44.366519
]
}
},
{
"type":"Feature",
"properties":{
"Name":"小向小学校",
"Jusho":"北海道紋別市小向388",
"Capacity":"－",
"la":"44.28185400000",
"ln":"143.44601700000"
},
"geometry":{
"type":"Point",
"coordinates":[
143.446017,
44.281854
]
}
},
{
"type":"Feature",
"properties":{
"Name":"沼ノ上小学校",
"Jusho":"北海道紋別市沼の上243-3",
"Capacity":"－",
"la":"44.23802400000",
"ln":"143.50993300000"
},
"geometry":{
"type":"Point",
"coordinates":[
143.509933,
44.238024
]
}
},
{
"type":"Feature",
"properties":{
"Name":"上渚滑小学校",
"Jusho":"北海道紋別市上渚滑町6丁目15",
"Capacity":"－",
"la":"44.24691300000",
"ln":"143.26112000000"
},
"geometry":{
"type":"Point",
"coordinates":[
143.26112,
44.246913
]
}
},
{
"type":"Feature",
"properties":{
"Name":"中渚滑小学校",
"Jusho":"北海道紋別市上渚滑町中渚滑",
"Capacity":"－",
"la":"44.31244448270",
"ln":"143.29312124600"
},
"geometry":{
"type":"Point",
"coordinates":[
143.293121246,
44.3124444827
]
}
},
{
"type":"Feature",
"properties":{
"Name":"潮見小学校",
"Jusho":"北海道紋別市潮見町3丁目8－2",
"Capacity":"－",
"la":"44.36070500000",
"ln":"143.34899700000"
},
"geometry":{
"type":"Point",
"coordinates":[
143.348997,
44.360705
]
}
},
{
"type":"Feature",
"properties":{
"Name":"南丘小学校",
"Jusho":"北海道紋別市南が丘町7丁目51－",
"Capacity":"－",
"la":"44.33432000000",
"ln":"143.36076500000"
},
"geometry":{
"type":"Point",
"coordinates":[
143.360765,
44.33432
]
}
},
{
"type":"Feature",
"properties":{
"Name":"紋別小学校",
"Jusho":"北海道紋別市花園町5丁目4－5",
"Capacity":"－",
"la":"44.35187300000",
"ln":"143.34498400000"
},
"geometry":{
"type":"Point",
"coordinates":[
143.344984,
44.351873
]
}
},
{
"type":"Feature",
"properties":{
"Name":"温根元小学校",
"Jusho":"北海道根室市温根元118",
"Capacity":"－",
"la":"43.38621800000",
"ln":"145.77126700000"
},
"geometry":{
"type":"Point",
"coordinates":[
145.771267,
43.386218
]
}
},
{
"type":"Feature",
"properties":{
"Name":"花咲港小学校",
"Jusho":"北海道根室市花咲港209",
"Capacity":"－",
"la":"43.28836600000",
"ln":"145.59021300000"
},
"geometry":{
"type":"Point",
"coordinates":[
145.590213,
43.288366
]
}
},
{
"type":"Feature",
"properties":{
"Name":"花咲小学校",
"Jusho":"北海道根室市栄町1－",
"Capacity":"－",
"la":"43.33635900000",
"ln":"145.58895300000"
},
"geometry":{
"type":"Point",
"coordinates":[
145.588953,
43.336359
]
}
},
{
"type":"Feature",
"properties":{
"Name":"華岬小学校",
"Jusho":"北海道根室市歯舞4-2",
"Capacity":"－",
"la":"43.33897300000",
"ln":"145.74904900000"
},
"geometry":{
"type":"Point",
"coordinates":[
145.749049,
43.338973
]
}
},
{
"type":"Feature",
"properties":{
"Name":"旧幌茂尻小学校グランド",
"Jusho":"北海道根室市",
"Capacity":"－",
"la":"43.27999251450",
"ln":"145.50835439600"
},
"geometry":{
"type":"Point",
"coordinates":[
145.508354396,
43.2799925145
]
}
},
{
"type":"Feature",
"properties":{
"Name":"旧和田小学校グランド",
"Jusho":"北海道根室市",
"Capacity":"－",
"la":"43.27034243970",
"ln":"145.54005189500"
},
"geometry":{
"type":"Point",
"coordinates":[
145.540051895,
43.2703424397
]
}
},
{
"type":"Feature",
"properties":{
"Name":"共和小学校",
"Jusho":"北海道根室市友知388",
"Capacity":"－",
"la":"43.32777800000",
"ln":"145.68227800000"
},
"geometry":{
"type":"Point",
"coordinates":[
145.682278,
43.327778
]
}
},
{
"type":"Feature",
"properties":{
"Name":"厚床小学校",
"Jusho":"北海道根室市厚床2－93",
"Capacity":"－",
"la":"43.22859800000",
"ln":"145.24727800000"
},
"geometry":{
"type":"Point",
"coordinates":[
145.247278,
43.228598
]
}
},
{
"type":"Feature",
"properties":{
"Name":"昆布盛小学校",
"Jusho":"北海道根室市昆布盛168-68",
"Capacity":"－",
"la":"43.22051000000",
"ln":"145.54757100000"
},
"geometry":{
"type":"Point",
"coordinates":[
145.547571,
43.22051
]
}
},
{
"type":"Feature",
"properties":{
"Name":"成央小学校",
"Jusho":"北海道根室市光洋町1-25",
"Capacity":"－",
"la":"43.32838800000",
"ln":"145.59520300000"
},
"geometry":{
"type":"Point",
"coordinates":[
145.595203,
43.328388
]
}
},
{
"type":"Feature",
"properties":{
"Name":"北斗小学校",
"Jusho":"北海道根室市北斗町3-5",
"Capacity":"－",
"la":"43.32785900000",
"ln":"145.57834300000"
},
"geometry":{
"type":"Point",
"coordinates":[
145.578343,
43.327859
]
}
},
{
"type":"Feature",
"properties":{
"Name":"落石小学校",
"Jusho":"北海道根室市落石東135-2",
"Capacity":"－",
"la":"43.19562400000",
"ln":"145.52071300000"
},
"geometry":{
"type":"Point",
"coordinates":[
145.520713,
43.195624
]
}
},
{
"type":"Feature",
"properties":{
"Name":"珸瑤瑁小学校",
"Jusho":"北海道根室市珸瑤瑁1－22",
"Capacity":"－",
"la":"43.36748500000",
"ln":"145.80127500000"
},
"geometry":{
"type":"Point",
"coordinates":[
145.801275,
43.367485
]
}
},
{
"type":"Feature",
"properties":{
"Name":"旭小学校",
"Jusho":"北海道網走郡美幌町字稲美140-2",
"Capacity":"－",
"la":"43.81717400000",
"ln":"144.12489800000"
},
"geometry":{
"type":"Point",
"coordinates":[
144.124898,
43.817174
]
}
},
{
"type":"Feature",
"properties":{
"Name":"旧上美幌小学校グラウンド",
"Jusho":"北海道網走郡美幌町字豊幌36",
"Capacity":"－",
"la":"43.77720500000",
"ln":"144.07998700000"
},
"geometry":{
"type":"Point",
"coordinates":[
144.079987,
43.777205
]
}
},
{
"type":"Feature",
"properties":{
"Name":"旧田中小学校グラウンド",
"Jusho":"北海道網走郡美幌町田中468",
"Capacity":"－",
"la":"43.82158172150",
"ln":"144.18853299300"
},
"geometry":{
"type":"Point",
"coordinates":[
144.188532993,
43.8215817215
]
}
},
{
"type":"Feature",
"properties":{
"Name":"旧報徳小学校グラウンド",
"Jusho":"北海道網走郡美幌町報徳323",
"Capacity":"－",
"la":"43.84977733910",
"ln":"144.15882747100"
},
"geometry":{
"type":"Point",
"coordinates":[
144.158827471,
43.8497773391
]
}
},
{
"type":"Feature",
"properties":{
"Name":"東陽小学校",
"Jusho":"北海道網走郡美幌町栄町3丁目6番地",
"Capacity":"－",
"la":"43.83000600000",
"ln":"144.11087100000"
},
"geometry":{
"type":"Point",
"coordinates":[
144.110871,
43.830006
]
}
},
{
"type":"Feature",
"properties":{
"Name":"美幌小学校",
"Jusho":"北海道網走郡美幌町西2北4－",
"Capacity":"－",
"la":"43.82745000000",
"ln":"144.10194700000"
},
"geometry":{
"type":"Point",
"coordinates":[
144.101947,
43.82745
]
}
},
{
"type":"Feature",
"properties":{
"Name":"福豊小学校",
"Jusho":"北海道網走郡美幌町福住635",
"Capacity":"－",
"la":"43.77115200000",
"ln":"144.17392400000"
},
"geometry":{
"type":"Point",
"coordinates":[
144.173924,
43.771152
]
}
},
{
"type":"Feature",
"properties":{
"Name":"旧相生小学校グラウンド",
"Jusho":"北海道網走郡津別町相生176",
"Capacity":"－",
"la":"43.53901354210",
"ln":"143.98740969300"
},
"geometry":{
"type":"Point",
"coordinates":[
143.987409693,
43.5390135421
]
}
},
{
"type":"Feature",
"properties":{
"Name":"津別小学校",
"Jusho":"北海道網走郡津別町幸町69－",
"Capacity":"1000",
"la":"43.70560100000",
"ln":"144.02813400000"
},
"geometry":{
"type":"Point",
"coordinates":[
144.028134,
43.705601
]
}
},
{
"type":"Feature",
"properties":{
"Name":"本岐小学校",
"Jusho":"北海道網走郡津別町本岐",
"Capacity":"360",
"la":"43.64502200000",
"ln":"143.99019600000"
},
"geometry":{
"type":"Point",
"coordinates":[
143.990196,
43.645022
]
}
},
{
"type":"Feature",
"properties":{
"Name":"以久科小学校",
"Jusho":"北海道斜里郡斜里町以久科南24番地",
"Capacity":"－",
"la":"43.88548500000",
"ln":"144.70178800000"
},
"geometry":{
"type":"Point",
"coordinates":[
144.701788,
43.885485
]
}
},
{
"type":"Feature",
"properties":{
"Name":"旧三井小学校グランド",
"Jusho":"北海道斜里郡斜里町三井131番地",
"Capacity":"－",
"la":"43.85210100000",
"ln":"144.68690200000"
},
"geometry":{
"type":"Point",
"coordinates":[
144.686902,
43.852101
]
}
},
{
"type":"Feature",
"properties":{
"Name":"旧三井小学校分館",
"Jusho":"北海道斜里郡斜里町三井131番地",
"Capacity":"－",
"la":"43.85224726330",
"ln":"144.68696307500"
},
"geometry":{
"type":"Point",
"coordinates":[
144.686963075,
43.8522472633
]
}
},
{
"type":"Feature",
"properties":{
"Name":"斜里小学校",
"Jusho":"北海道斜里郡斜里町文光町29番地",
"Capacity":"－",
"la":"43.90610000000",
"ln":"144.65785200000"
},
"geometry":{
"type":"Point",
"coordinates":[
144.657852,
43.9061
]
}
},
{
"type":"Feature",
"properties":{
"Name":"朱円小学校",
"Jusho":"北海道斜里郡斜里町朱円32番地",
"Capacity":"－",
"la":"43.90548400000",
"ln":"144.75286500000"
},
"geometry":{
"type":"Point",
"coordinates":[
144.752865,
43.905484
]
}
},
{
"type":"Feature",
"properties":{
"Name":"川上小学校",
"Jusho":"北海道斜里郡斜里町川上122番地",
"Capacity":"－",
"la":"43.87198600000",
"ln":"144.64232300000"
},
"geometry":{
"type":"Point",
"coordinates":[
144.642323,
43.871986
]
}
},
{
"type":"Feature",
"properties":{
"Name":"大栄小学校",
"Jusho":"北海道斜里郡斜里町大栄90番地",
"Capacity":"－",
"la":"43.89628600000",
"ln":"144.57835500000"
},
"geometry":{
"type":"Point",
"coordinates":[
144.578355,
43.896286
]
}
},
{
"type":"Feature",
"properties":{
"Name":"朝日小学校",
"Jusho":"北海道斜里郡斜里町朝日町6番地",
"Capacity":"－",
"la":"43.91025900000",
"ln":"144.67717900000"
},
"geometry":{
"type":"Point",
"coordinates":[
144.677179,
43.910259
]
}
},
{
"type":"Feature",
"properties":{
"Name":"峰浜小学校",
"Jusho":"北海道斜里郡斜里町峰浜69番地",
"Capacity":"－",
"la":"43.92854100000",
"ln":"144.79597100000"
},
"geometry":{
"type":"Point",
"coordinates":[
144.795971,
43.928541
]
}
},
{
"type":"Feature",
"properties":{
"Name":"光岳小学校",
"Jusho":"北海道斜里郡清里町神威1056番地",
"Capacity":"－",
"la":"43.79207500000",
"ln":"144.53797400000"
},
"geometry":{
"type":"Point",
"coordinates":[
144.537974,
43.792075
]
}
},
{
"type":"Feature",
"properties":{
"Name":"江南小学校",
"Jusho":"北海道斜里郡清里町江南370番地",
"Capacity":"－",
"la":"43.79738200000",
"ln":"144.60541200000"
},
"geometry":{
"type":"Point",
"coordinates":[
144.605412,
43.797382
]
}
},
{
"type":"Feature",
"properties":{
"Name":"新栄小学校",
"Jusho":"北海道斜里郡清里町上斜里1393番地",
"Capacity":"－",
"la":"43.86965100000",
"ln":"144.59363300000"
},
"geometry":{
"type":"Point",
"coordinates":[
144.593633,
43.869651
]
}
},
{
"type":"Feature",
"properties":{
"Name":"清里小学校",
"Jusho":"北海道斜里郡清里町羽衣町33番地",
"Capacity":"－",
"la":"43.83187700000",
"ln":"144.59746700000"
},
"geometry":{
"type":"Point",
"coordinates":[
144.597467,
43.831877
]
}
},
{
"type":"Feature",
"properties":{
"Name":"緑町小学校",
"Jusho":"北海道斜里郡清里町緑町16番地",
"Capacity":"－",
"la":"43.72352900000",
"ln":"144.50914600000"
},
"geometry":{
"type":"Point",
"coordinates":[
144.509146,
43.723529
]
}
},
{
"type":"Feature",
"properties":{
"Name":"旭野小学校",
"Jusho":"北海道斜里郡小清水町東野1区",
"Capacity":"246",
"la":"43.86345500000",
"ln":"144.52680600000"
},
"geometry":{
"type":"Point",
"coordinates":[
144.526806,
43.863455
]
}
},
{
"type":"Feature",
"properties":{
"Name":"止別小学校",
"Jusho":"北海道斜里郡小清水町止別5区",
"Capacity":"280",
"la":"43.90864400000",
"ln":"144.52247000000"
},
"geometry":{
"type":"Point",
"coordinates":[
144.52247,
43.908644
]
}
},
{
"type":"Feature",
"properties":{
"Name":"小清水小学校",
"Jusho":"北海道斜里郡小清水町小清水7区",
"Capacity":"493",
"la":"43.85342700000",
"ln":"144.46661700000"
},
"geometry":{
"type":"Point",
"coordinates":[
144.466617,
43.853427
]
}
},
{
"type":"Feature",
"properties":{
"Name":"水上小学校",
"Jusho":"北海道斜里郡小清水町水上",
"Capacity":"222",
"la":"43.80243400000",
"ln":"144.49586700000"
},
"geometry":{
"type":"Point",
"coordinates":[
144.495867,
43.802434
]
}
},
{
"type":"Feature",
"properties":{
"Name":"中斗美小学校",
"Jusho":"北海道斜里郡小清水町中里2区",
"Capacity":"189",
"la":"43.89228400000",
"ln":"144.48280800000"
},
"geometry":{
"type":"Point",
"coordinates":[
144.482808,
43.892284
]
}
},
{
"type":"Feature",
"properties":{
"Name":"北陽小学校",
"Jusho":"北海道斜里郡小清水町浜小清水4区",
"Capacity":"260",
"la":"43.91203100000",
"ln":"144.45917000000"
},
"geometry":{
"type":"Point",
"coordinates":[
144.45917,
43.912031
]
}
},
{
"type":"Feature",
"properties":{
"Name":"訓子府小学校グラウンド",
"Jusho":"北海道常呂郡訓子府町仲町65",
"Capacity":"－",
"la":"43.72381300000",
"ln":"143.73760300000"
},
"geometry":{
"type":"Point",
"coordinates":[
143.737603,
43.723813
]
}
},
{
"type":"Feature",
"properties":{
"Name":"旧境野小学校",
"Jusho":"北海道常呂郡置戸町字豊住102番地の1",
"Capacity":"1000",
"la":"43.70906200000",
"ln":"143.64477500000"
},
"geometry":{
"type":"Point",
"coordinates":[
143.644775,
43.709062
]
}
},
{
"type":"Feature",
"properties":{
"Name":"旧秋田小学校",
"Jusho":"北海道常呂郡置戸町字秋田264番地",
"Capacity":"750",
"la":"43.73756000000",
"ln":"143.61746900000"
},
"geometry":{
"type":"Point",
"coordinates":[
143.617469,
43.73756
]
}
},
{
"type":"Feature",
"properties":{
"Name":"勝山小学校",
"Jusho":"北海道常呂郡置戸町字勝山247番地の1",
"Capacity":"1450",
"la":"43.63531000000",
"ln":"143.50918000000"
},
"geometry":{
"type":"Point",
"coordinates":[
143.50918,
43.63531
]
}
},
{
"type":"Feature",
"properties":{
"Name":"置戸小学校",
"Jusho":"北海道常呂郡置戸町字置戸258番地の1",
"Capacity":"1700",
"la":"43.68142500000",
"ln":"143.60000100000"
},
"geometry":{
"type":"Point",
"coordinates":[
143.600001,
43.681425
]
}
},
{
"type":"Feature",
"properties":{
"Name":"旧栄小学校",
"Jusho":"北海道常呂郡佐呂間町栄",
"Capacity":"－",
"la":"43.95994217110",
"ln":"143.66154964900"
},
"geometry":{
"type":"Point",
"coordinates":[
143.661549649,
43.9599421711
]
}
},
{
"type":"Feature",
"properties":{
"Name":"旧若佐小学校",
"Jusho":"北海道常呂郡佐呂間町武士105－",
"Capacity":"－",
"la":"43.98576404170",
"ln":"143.72262769100"
},
"geometry":{
"type":"Point",
"coordinates":[
143.722627691,
43.9857640417
]
}
},
{
"type":"Feature",
"properties":{
"Name":"旧若里小学校",
"Jusho":"北海道常呂郡佐呂間町若里",
"Capacity":"－",
"la":"44.05644891340",
"ln":"143.74996303900"
},
"geometry":{
"type":"Point",
"coordinates":[
143.749963039,
44.0564489134
]
}
},
{
"type":"Feature",
"properties":{
"Name":"旧仁倉小学校",
"Jusho":"北海道常呂郡佐呂間町仁倉",
"Capacity":"－",
"la":"44.04775350910",
"ln":"143.90939766900"
},
"geometry":{
"type":"Point",
"coordinates":[
143.909397669,
44.0477535091
]
}
},
{
"type":"Feature",
"properties":{
"Name":"旧知来小学校",
"Jusho":"北海道常呂郡佐呂間町知来",
"Capacity":"－",
"la":"44.03084588340",
"ln":"143.84651556900"
},
"geometry":{
"type":"Point",
"coordinates":[
143.846515569,
44.0308458834
]
}
},
{
"type":"Feature",
"properties":{
"Name":"旧富武士小学校",
"Jusho":"北海道常呂郡佐呂間町富武士",
"Capacity":"－",
"la":"44.06744165130",
"ln":"143.79290888000"
},
"geometry":{
"type":"Point",
"coordinates":[
143.79290888,
44.0674416513
]
}
},
{
"type":"Feature",
"properties":{
"Name":"旧幌岩小学校",
"Jusho":"北海道常呂郡佐呂間町幌岩",
"Capacity":"－",
"la":"44.09371735690",
"ln":"143.89345270900"
},
"geometry":{
"type":"Point",
"coordinates":[
143.893452709,
44.0937173569
]
}
},
{
"type":"Feature",
"properties":{
"Name":"佐呂間小学校",
"Jusho":"北海道常呂郡佐呂間町幸町1－",
"Capacity":"－",
"la":"44.02047500000",
"ln":"143.77019700000"
},
"geometry":{
"type":"Point",
"coordinates":[
143.770197,
44.020475
]
}
},
{
"type":"Feature",
"properties":{
"Name":"若佐小学校",
"Jusho":"北海道常呂郡佐呂間町中園38－",
"Capacity":"－",
"la":"43.97950500000",
"ln":"143.69494400000"
},
"geometry":{
"type":"Point",
"coordinates":[
143.694944,
43.979505
]
}
},
{
"type":"Feature",
"properties":{
"Name":"浜佐呂間小学校",
"Jusho":"北海道常呂郡佐呂間町浜佐呂間167",
"Capacity":"－",
"la":"44.08283300000",
"ln":"143.94818100000"
},
"geometry":{
"type":"Point",
"coordinates":[
143.948181,
44.082833
]
}
},
{
"type":"Feature",
"properties":{
"Name":"安国小学校",
"Jusho":"北海道紋別郡遠軽町生田原安国271－",
"Capacity":"4130",
"la":"43.98735600000",
"ln":"143.53816800000"
},
"geometry":{
"type":"Point",
"coordinates":[
143.538168,
43.987356
]
}
},
{
"type":"Feature",
"properties":{
"Name":"遠軽小学校",
"Jusho":"北海道紋別郡遠軽町西町2丁目11－",
"Capacity":"7012",
"la":"44.04663700000",
"ln":"143.50589100000"
},
"geometry":{
"type":"Point",
"coordinates":[
143.505891,
44.046637
]
}
},
{
"type":"Feature",
"properties":{
"Name":"丸瀬布小学校",
"Jusho":"北海道紋別郡遠軽町丸瀬布東町113",
"Capacity":"6047",
"la":"44.00909300000",
"ln":"143.34277100000"
},
"geometry":{
"type":"Point",
"coordinates":[
143.342771,
44.009093
]
}
},
{
"type":"Feature",
"properties":{
"Name":"支湧別小学校",
"Jusho":"北海道紋別郡遠軽町白滝上支湧別235",
"Capacity":"4686",
"la":"43.83349900000",
"ln":"143.14035500000"
},
"geometry":{
"type":"Point",
"coordinates":[
143.140355,
43.833499
]
}
},
{
"type":"Feature",
"properties":{
"Name":"瀬戸瀬小学校",
"Jusho":"北海道紋別郡遠軽町瀬戸瀬東町124－",
"Capacity":"7285",
"la":"44.00694000000",
"ln":"143.43422400000"
},
"geometry":{
"type":"Point",
"coordinates":[
143.434224,
44.00694
]
}
},
{
"type":"Feature",
"properties":{
"Name":"生田原小学校",
"Jusho":"北海道紋別郡遠軽町生田原710－",
"Capacity":"4701",
"la":"43.91139700000",
"ln":"143.53352800000"
},
"geometry":{
"type":"Point",
"coordinates":[
143.533528,
43.911397
]
}
},
{
"type":"Feature",
"properties":{
"Name":"東小学校",
"Jusho":"北海道紋別郡遠軽町1条北5丁目1－",
"Capacity":"5934",
"la":"44.06471400000",
"ln":"143.53174000000"
},
"geometry":{
"type":"Point",
"coordinates":[
143.53174,
44.064714
]
}
},
{
"type":"Feature",
"properties":{
"Name":"南小学校",
"Jusho":"北海道紋別郡遠軽町南町3丁目4-43",
"Capacity":"4515",
"la":"44.04446500000",
"ln":"143.52593600000"
},
"geometry":{
"type":"Point",
"coordinates":[
143.525936,
44.044465
]
}
},
{
"type":"Feature",
"properties":{
"Name":"開盛小学校グラウンド",
"Jusho":"北海道紋別郡湧別町開盛",
"Capacity":"11200",
"la":"44.09390500000",
"ln":"143.52612800000"
},
"geometry":{
"type":"Point",
"coordinates":[
143.526128,
44.093905
]
}
},
{
"type":"Feature",
"properties":{
"Name":"旧登栄床小学校グラウンド",
"Jusho":"北海道紋別郡湧別町登栄床",
"Capacity":"5300",
"la":"44.18905919610",
"ln":"143.73583207100"
},
"geometry":{
"type":"Point",
"coordinates":[
143.735832071,
44.1890591961
]
}
},
{
"type":"Feature",
"properties":{
"Name":"上湧別小学校",
"Jusho":"北海道紋別郡湧別町上湧別屯市98－",
"Capacity":"15330",
"la":"44.14463200000",
"ln":"143.56642800000"
},
"geometry":{
"type":"Point",
"coordinates":[
143.566428,
44.144632
]
}
},
{
"type":"Feature",
"properties":{
"Name":"中湧別小学校",
"Jusho":"北海道紋別郡湧別町中湧別南町914",
"Capacity":"14120",
"la":"44.18334200000",
"ln":"143.58970200000"
},
"geometry":{
"type":"Point",
"coordinates":[
143.589702,
44.183342
]
}
},
{
"type":"Feature",
"properties":{
"Name":"芭露小学校",
"Jusho":"北海道紋別郡湧別町芭露879",
"Capacity":"450",
"la":"44.14826500000",
"ln":"143.68205800000"
},
"geometry":{
"type":"Point",
"coordinates":[
143.682058,
44.148265
]
}
},
{
"type":"Feature",
"properties":{
"Name":"富美小学校グラウンド",
"Jusho":"北海道紋別郡湧別町富美",
"Capacity":"9700",
"la":"44.13959500000",
"ln":"143.51123700000"
},
"geometry":{
"type":"Point",
"coordinates":[
143.511237,
44.139595
]
}
},
{
"type":"Feature",
"properties":{
"Name":"湧別小学校",
"Jusho":"北海道紋別郡湧別町錦211－",
"Capacity":"14900",
"la":"44.21553400000",
"ln":"143.60975400000"
},
"geometry":{
"type":"Point",
"coordinates":[
143.609754,
44.215534
]
}
},
{
"type":"Feature",
"properties":{
"Name":"滝下小学校体育館",
"Jusho":"北海道紋別郡滝上町滝下",
"Capacity":"－",
"la":"44.21006104200",
"ln":"143.16561848900"
},
"geometry":{
"type":"Point",
"coordinates":[
143.165618489,
44.210061042
]
}
},
{
"type":"Feature",
"properties":{
"Name":"滝上小学校体育館",
"Jusho":"北海道紋別郡滝上町滝美町",
"Capacity":"－",
"la":"44.18936000000",
"ln":"143.08086500000"
},
"geometry":{
"type":"Point",
"coordinates":[
143.080865,
44.18936
]
}
},
{
"type":"Feature",
"properties":{
"Name":"滝西小学校体育館",
"Jusho":"北海道紋別郡滝上町滝西",
"Capacity":"－",
"la":"44.11501600000",
"ln":"143.00978100000"
},
"geometry":{
"type":"Point",
"coordinates":[
143.009781,
44.115016
]
}
},
{
"type":"Feature",
"properties":{
"Name":"濁川小学校体育館",
"Jusho":"北海道紋別郡滝上町新町",
"Capacity":"－",
"la":"44.19474300000",
"ln":"143.10640000000"
},
"geometry":{
"type":"Point",
"coordinates":[
143.1064,
44.194743
]
}
},
{
"type":"Feature",
"properties":{
"Name":"白鳥小学校体育館",
"Jusho":"北海道紋別郡滝上町二区",
"Capacity":"－",
"la":"44.16518600000",
"ln":"143.03628800000"
},
"geometry":{
"type":"Point",
"coordinates":[
143.036288,
44.165186
]
}
},
{
"type":"Feature",
"properties":{
"Name":"興部小学校",
"Jusho":"北海道紋別郡興部町字興部745",
"Capacity":"－",
"la":"44.47048900000",
"ln":"143.12743700000"
},
"geometry":{
"type":"Point",
"coordinates":[
143.127437,
44.470489
]
}
},
{
"type":"Feature",
"properties":{
"Name":"沙留小学校",
"Jusho":"北海道紋別郡興部町字沙留328",
"Capacity":"－",
"la":"44.43386900000",
"ln":"143.22488000000"
},
"geometry":{
"type":"Point",
"coordinates":[
143.22488,
44.433869
]
}
},
{
"type":"Feature",
"properties":{
"Name":"富丘小学校",
"Jusho":"北海道紋別郡興部町字富丘236",
"Capacity":"－",
"la":"44.38535100000",
"ln":"143.24070300000"
},
"geometry":{
"type":"Point",
"coordinates":[
143.240703,
44.385351
]
}
},
{
"type":"Feature",
"properties":{
"Name":"豊野小学校",
"Jusho":"北海道紋別郡興部町字豊野475",
"Capacity":"－",
"la":"44.43046700000",
"ln":"143.15663200000"
},
"geometry":{
"type":"Point",
"coordinates":[
143.156632,
44.430467
]
}
},
{
"type":"Feature",
"properties":{
"Name":"上興部小学校（校舎・体育館）",
"Jusho":"北海道紋別郡西興部村上興部112",
"Capacity":"－",
"la":"44.33760800000",
"ln":"142.87841100000"
},
"geometry":{
"type":"Point",
"coordinates":[
142.878411,
44.337608
]
}
},
{
"type":"Feature",
"properties":{
"Name":"西興部小学校（校舎・体育館）",
"Jusho":"北海道紋別郡西興部村西興部第1東町",
"Capacity":"－",
"la":"44.32941700000",
"ln":"142.95148900000"
},
"geometry":{
"type":"Point",
"coordinates":[
142.951489,
44.329417
]
}
},
{
"type":"Feature",
"properties":{
"Name":"栄丘小学校（グラウンド）",
"Jusho":"北海道紋別郡雄武町字南雄武1039－",
"Capacity":"－",
"la":"44.52360700000",
"ln":"143.00951100000"
},
"geometry":{
"type":"Point",
"coordinates":[
143.009511,
44.523607
]
}
},
{
"type":"Feature",
"properties":{
"Name":"共栄小学校（グラウンド）",
"Jusho":"北海道紋別郡雄武町字南雄武1039－",
"Capacity":"－",
"la":"44.55303000000",
"ln":"142.97972100000"
},
"geometry":{
"type":"Point",
"coordinates":[
142.979721,
44.55303
]
}
},
{
"type":"Feature",
"properties":{
"Name":"沢木小学校（グラウンド）",
"Jusho":"北海道紋別郡雄武町字沢木533－",
"Capacity":"－",
"la":"44.51895300000",
"ln":"143.05571900000"
},
"geometry":{
"type":"Point",
"coordinates":[
143.055719,
44.518953
]
}
},
{
"type":"Feature",
"properties":{
"Name":"豊丘小学校（グラウンド）",
"Jusho":"北海道紋別郡雄武町字北雄武404－",
"Capacity":"－",
"la":"44.60766000000",
"ln":"142.93430500000"
},
"geometry":{
"type":"Point",
"coordinates":[
142.934305,
44.60766
]
}
},
{
"type":"Feature",
"properties":{
"Name":"幌内小学校（グラウンド）",
"Jusho":"北海道紋別郡雄武町字幌内402",
"Capacity":"－",
"la":"44.65584800000",
"ln":"142.87794400000"
},
"geometry":{
"type":"Point",
"coordinates":[
142.877944,
44.655848
]
}
},
{
"type":"Feature",
"properties":{
"Name":"雄武小学校（グラウンド）",
"Jusho":"北海道紋別郡雄武町字雄武1381－",
"Capacity":"－",
"la":"44.58614100000",
"ln":"142.95584800000"
},
"geometry":{
"type":"Point",
"coordinates":[
142.955848,
44.586141
]
}
},
{
"type":"Feature",
"properties":{
"Name":"女満別小学校",
"Jusho":"北海道網走郡大空町夕陽台1丁目1－",
"Capacity":"6546",
"la":"43.91094900000",
"ln":"144.18289300000"
},
"geometry":{
"type":"Point",
"coordinates":[
144.182893,
43.910949
]
}
},
{
"type":"Feature",
"properties":{
"Name":"東藻琴小学校",
"Jusho":"北海道網走郡大空町東藻琴268番地",
"Capacity":"4919",
"la":"43.84151000000",
"ln":"144.29885400000"
},
"geometry":{
"type":"Point",
"coordinates":[
144.298854,
43.84151
]
}
},
{
"type":"Feature",
"properties":{
"Name":"豊住小学校",
"Jusho":"北海道網走郡大空町豊里19番地の1",
"Capacity":"2973",
"la":"43.89063800000",
"ln":"144.11908100000"
},
"geometry":{
"type":"Point",
"coordinates":[
144.119081,
43.890638
]
}
},
{
"type":"Feature",
"properties":{
"Name":"遠矢小学校",
"Jusho":"北海道釧路郡釧路町南陽台10－",
"Capacity":"600",
"la":"43.04244300000",
"ln":"144.46723200000"
},
"geometry":{
"type":"Point",
"coordinates":[
144.467232,
43.042443
]
}
},
{
"type":"Feature",
"properties":{
"Name":"昆布森小学校",
"Jusho":"北海道釧路郡釧路町昆布森3－06",
"Capacity":"300",
"la":"42.95456300000",
"ln":"144.53368300000"
},
"geometry":{
"type":"Point",
"coordinates":[
144.533683,
42.954563
]
}
},
{
"type":"Feature",
"properties":{
"Name":"仙鳳趾小学校",
"Jusho":"北海道釧路郡釧路町仙鳳趾11－",
"Capacity":"200",
"la":"42.98154000000",
"ln":"144.71849100000"
},
"geometry":{
"type":"Point",
"coordinates":[
144.718491,
42.98154
]
}
},
{
"type":"Feature",
"properties":{
"Name":"知方学小学校",
"Jusho":"北海道釧路郡釧路町大字仙鳳趾村字知方学41",
"Capacity":"150",
"la":"42.93872800000",
"ln":"144.73440000000"
},
"geometry":{
"type":"Point",
"coordinates":[
144.7344,
42.938728
]
}
},
{
"type":"Feature",
"properties":{
"Name":"富原小学校",
"Jusho":"北海道釧路郡釧路町富原2番地",
"Capacity":"1000",
"la":"43.01511100000",
"ln":"144.41760000000"
},
"geometry":{
"type":"Point",
"coordinates":[
144.4176,
43.015111
]
}
},
{
"type":"Feature",
"properties":{
"Name":"別保小学校",
"Jusho":"北海道釧路郡釧路町字別保10-24－",
"Capacity":"500",
"la":"42.98928200000",
"ln":"144.47640000000"
},
"geometry":{
"type":"Point",
"coordinates":[
144.4764,
42.989282
]
}
},
{
"type":"Feature",
"properties":{
"Name":"旧貰人小学校",
"Jusho":"北海道厚岸郡浜中町字恵茶人134",
"Capacity":"－",
"la":"43.15321700000",
"ln":"145.23693000000"
},
"geometry":{
"type":"Point",
"coordinates":[
145.23693,
43.153217
]
}
},
{
"type":"Feature",
"properties":{
"Name":"磯分内小学校",
"Jusho":"北海道川上郡標茶町磯分内",
"Capacity":"－",
"la":"43.38034900000",
"ln":"144.55045800000"
},
"geometry":{
"type":"Point",
"coordinates":[
144.550458,
43.380349
]
}
},
{
"type":"Feature",
"properties":{
"Name":"沼幌小学校",
"Jusho":"北海道川上郡標茶町沼幌原野60－",
"Capacity":"－",
"la":"43.28242900000",
"ln":"144.48982300000"
},
"geometry":{
"type":"Point",
"coordinates":[
144.489823,
43.282429
]
}
},
{
"type":"Feature",
"properties":{
"Name":"中オソベツ小学校",
"Jusho":"北海道川上郡標茶町オソベツ982",
"Capacity":"－",
"la":"43.32735300000",
"ln":"144.48144000000"
},
"geometry":{
"type":"Point",
"coordinates":[
144.48144,
43.327353
]
}
},
{
"type":"Feature",
"properties":{
"Name":"虹別小学校",
"Jusho":"北海道川上郡標茶町字虹別原野67線108",
"Capacity":"－",
"la":"43.46795900000",
"ln":"144.67842100000"
},
"geometry":{
"type":"Point",
"coordinates":[
144.678421,
43.467959
]
}
},
{
"type":"Feature",
"properties":{
"Name":"標茶小学校",
"Jusho":"北海道川上郡標茶町川上1-24",
"Capacity":"－",
"la":"43.30430400000",
"ln":"144.60309700000"
},
"geometry":{
"type":"Point",
"coordinates":[
144.603097,
43.304304
]
}
},
{
"type":"Feature",
"properties":{
"Name":"弥栄小学校",
"Jusho":"北海道川上郡標茶町上多和原野50-6",
"Capacity":"－",
"la":"43.38424500000",
"ln":"144.62745300000"
},
"geometry":{
"type":"Point",
"coordinates":[
144.627453,
43.384245
]
}
},
{
"type":"Feature",
"properties":{
"Name":"奥春別小学校",
"Jusho":"北海道川上郡弟子屈町字奥春別22線西10号61",
"Capacity":"－",
"la":"43.47075000000",
"ln":"144.39996800000"
},
"geometry":{
"type":"Point",
"coordinates":[
144.399968,
43.47075
]
}
},
{
"type":"Feature",
"properties":{
"Name":"奥春別小学校グラウンド",
"Jusho":"北海道川上郡弟子屈町字とう別274－",
"Capacity":"－",
"la":"43.47095695860",
"ln":"144.40012205400"
},
"geometry":{
"type":"Point",
"coordinates":[
144.400122054,
43.4709569586
]
}
},
{
"type":"Feature",
"properties":{
"Name":"昭栄小学校",
"Jusho":"北海道川上郡弟子屈町字熊牛原野27線東1",
"Capacity":"－",
"la":"43.42864700000",
"ln":"144.51737600000"
},
"geometry":{
"type":"Point",
"coordinates":[
144.517376,
43.428647
]
}
},
{
"type":"Feature",
"properties":{
"Name":"川湯小学校",
"Jusho":"北海道川上郡弟子屈町川湯温泉4－5－0",
"Capacity":"－",
"la":"43.64123100000",
"ln":"144.44440200000"
},
"geometry":{
"type":"Point",
"coordinates":[
144.444402,
43.641231
]
}
},
{
"type":"Feature",
"properties":{
"Name":"弟子屈小学校",
"Jusho":"北海道川上郡弟子屈町中央2－－",
"Capacity":"－",
"la":"43.48436200000",
"ln":"144.45807400000"
},
"geometry":{
"type":"Point",
"coordinates":[
144.458074,
43.484362
]
}
},
{
"type":"Feature",
"properties":{
"Name":"美留和小学校",
"Jusho":"北海道川上郡弟子屈町字美留和55線82",
"Capacity":"－",
"la":"43.56008900000",
"ln":"144.43610500000"
},
"geometry":{
"type":"Point",
"coordinates":[
144.436105,
43.560089
]
}
},
{
"type":"Feature",
"properties":{
"Name":"和琴小学校",
"Jusho":"北海道川上郡弟子屈町字屈斜路260番地",
"Capacity":"－",
"la":"43.56873600000",
"ln":"144.30547000000"
},
"geometry":{
"type":"Point",
"coordinates":[
144.30547,
43.568736
]
}
},
{
"type":"Feature",
"properties":{
"Name":"下幌呂小学校",
"Jusho":"北海道阿寒郡鶴居村字幌呂原野455-2",
"Capacity":"440",
"la":"43.13613100000",
"ln":"144.32558900000"
},
"geometry":{
"type":"Point",
"coordinates":[
144.325589,
43.136131
]
}
},
{
"type":"Feature",
"properties":{
"Name":"鶴居小学校",
"Jusho":"北海道阿寒郡鶴居村鶴居西2-27",
"Capacity":"1480",
"la":"43.23366400000",
"ln":"144.32215400000"
},
"geometry":{
"type":"Point",
"coordinates":[
144.322154,
43.233664
]
}
},
{
"type":"Feature",
"properties":{
"Name":"幌呂小学校",
"Jusho":"北海道阿寒郡鶴居村幌呂東4－4",
"Capacity":"1260",
"la":"43.19952600000",
"ln":"144.26349400000"
},
"geometry":{
"type":"Point",
"coordinates":[
144.263494,
43.199526
]
}
},
{
"type":"Feature",
"properties":{
"Name":"旧中庶路小学校グランド",
"Jusho":"北海道白糠郡白糠町",
"Capacity":"－",
"la":"42.95895716670",
"ln":"144.08144289400"
},
"geometry":{
"type":"Point",
"coordinates":[
144.081442894,
42.9589571667
]
}
},
{
"type":"Feature",
"properties":{
"Name":"庶路小学校",
"Jusho":"北海道白糠郡白糠町西庶路東三条北2－-4",
"Capacity":"－",
"la":"42.98401500000",
"ln":"144.13352600000"
},
"geometry":{
"type":"Point",
"coordinates":[
144.133526,
42.984015
]
}
},
{
"type":"Feature",
"properties":{
"Name":"白糠小学校",
"Jusho":"北海道白糠郡白糠町西二条南3－－",
"Capacity":"－",
"la":"42.95418800000",
"ln":"144.06841600000"
},
"geometry":{
"type":"Point",
"coordinates":[
144.068416,
42.954188
]
}
},
{
"type":"Feature",
"properties":{
"Name":"開陽小学校",
"Jusho":"北海道標津郡中標津町字開陽24線北88-2",
"Capacity":"－",
"la":"43.59846900000",
"ln":"144.91064200000"
},
"geometry":{
"type":"Point",
"coordinates":[
144.910642,
43.598469
]
}
},
{
"type":"Feature",
"properties":{
"Name":"丸山小学校",
"Jusho":"北海道標津郡中標津町丸山2-4",
"Capacity":"－",
"la":"43.55480600000",
"ln":"144.96364800000"
},
"geometry":{
"type":"Point",
"coordinates":[
144.963648,
43.554806
]
}
},
{
"type":"Feature",
"properties":{
"Name":"計根別小学校グラウンド",
"Jusho":"北海道標津郡中標津町計根別北一条西1－－",
"Capacity":"－",
"la":"43.48966200000",
"ln":"144.80892700000"
},
"geometry":{
"type":"Point",
"coordinates":[
144.808927,
43.489662
]
}
},
{
"type":"Feature",
"properties":{
"Name":"若竹の里（旧若竹小学校）",
"Jusho":"北海道標津郡中標津町西竹225番地4",
"Capacity":"－",
"la":"43.53214184720",
"ln":"144.79135352200"
},
"geometry":{
"type":"Point",
"coordinates":[
144.791353522,
43.5321418472
]
}
},
{
"type":"Feature",
"properties":{
"Name":"西竹小学校",
"Jusho":"北海道標津郡中標津町字西竹353-2",
"Capacity":"－",
"la":"43.56388900000",
"ln":"144.81031800000"
},
"geometry":{
"type":"Point",
"coordinates":[
144.810318,
43.563889
]
}
},
{
"type":"Feature",
"properties":{
"Name":"中標津小学校",
"Jusho":"北海道標津郡中標津町西九条北1-2",
"Capacity":"－",
"la":"43.54425700000",
"ln":"144.96447300000"
},
"geometry":{
"type":"Point",
"coordinates":[
144.964473,
43.544257
]
}
},
{
"type":"Feature",
"properties":{
"Name":"中標津東小学校",
"Jusho":"北海道標津郡中標津町東七条南7－5",
"Capacity":"－",
"la":"43.54820200000",
"ln":"144.98491500000"
},
"geometry":{
"type":"Point",
"coordinates":[
144.984915,
43.548202
]
}
},
{
"type":"Feature",
"properties":{
"Name":"俵橋小学校",
"Jusho":"北海道標津郡中標津町字俵橋938-3",
"Capacity":"－",
"la":"43.58592000000",
"ln":"145.04013100000"
},
"geometry":{
"type":"Point",
"coordinates":[
145.040131,
43.58592
]
}
},
{
"type":"Feature",
"properties":{
"Name":"俣落小学校",
"Jusho":"北海道標津郡中標津町字俣落405－",
"Capacity":"－",
"la":"43.55622500000",
"ln":"144.89372800000"
},
"geometry":{
"type":"Point",
"coordinates":[
144.893728,
43.556225
]
}
},
{
"type":"Feature",
"properties":{
"Name":"川北小学校",
"Jusho":"北海道標津郡標津町字川北基線13番地の1",
"Capacity":"－",
"la":"43.66010500000",
"ln":"145.02346200000"
},
"geometry":{
"type":"Point",
"coordinates":[
145.023462,
43.660105
]
}
},
{
"type":"Feature",
"properties":{
"Name":"標津小学校",
"Jusho":"北海道標津郡標津町南1条西3丁目1番4－号",
"Capacity":"－",
"la":"43.65870500000",
"ln":"145.12905700000"
},
"geometry":{
"type":"Point",
"coordinates":[
145.129057,
43.658705
]
}
},
{
"type":"Feature",
"properties":{
"Name":"旧飛仁帯小学校",
"Jusho":"北海道目梨郡羅臼町海岸町441",
"Capacity":"500",
"la":"44.05522800000",
"ln":"145.23479600000"
},
"geometry":{
"type":"Point",
"coordinates":[
145.234796,
44.055228
]
}
},
{
"type":"Feature",
"properties":{
"Name":"春松小学校",
"Jusho":"北海道目梨郡羅臼町八木浜町190",
"Capacity":"1000",
"la":"43.97489700000",
"ln":"145.15087400000"
},
"geometry":{
"type":"Point",
"coordinates":[
145.150874,
43.974897
]
}
},
{
"type":"Feature",
"properties":{
"Name":"羅臼小学校",
"Jusho":"北海道目梨郡羅臼町本町41",
"Capacity":"1000",
"la":"44.01856400000",
"ln":"145.19127200000"
},
"geometry":{
"type":"Point",
"coordinates":[
145.191272,
44.018564
]
}
},
{
"type":"Feature",
"properties":{
"Name":"別海中央小学校",
"Jusho":"北海道野付郡別海町別海旭町431番地1",
"Capacity":"－",
"la":"43.39461500000",
"ln":"145.13415800000"
},
"geometry":{
"type":"Point",
"coordinates":[
145.134158,
43.394615
]
}
},
{
"type":"Feature",
"properties":{
"Name":"中西別小学校",
"Jusho":"北海道野付郡別海町中西別光町48番地",
"Capacity":"－",
"la":"43.36478100000",
"ln":"144.98867200000"
},
"geometry":{
"type":"Point",
"coordinates":[
144.988672,
43.364781
]
}
},
{
"type":"Feature",
"properties":{
"Name":"中春別小学校",
"Jusho":"北海道野付郡別海町中春別西町34番地",
"Capacity":"－",
"la":"43.47646300000",
"ln":"145.05605100000"
},
"geometry":{
"type":"Point",
"coordinates":[
145.056051,
43.476463
]
}
},
{
"type":"Feature",
"properties":{
"Name":"上春別小学校",
"Jusho":"北海道野付郡別海町上春別123番地12",
"Capacity":"－",
"la":"43.43207600000",
"ln":"144.89373800000"
},
"geometry":{
"type":"Point",
"coordinates":[
144.893738,
43.432076
]
}
},
{
"type":"Feature",
"properties":{
"Name":"野付小学校",
"Jusho":"北海道野付郡別海町尾岱沼潮見町217番地",
"Capacity":"－",
"la":"43.55592900000",
"ln":"145.22133900000"
},
"geometry":{
"type":"Point",
"coordinates":[
145.221339,
43.555929
]
}
},
{
"type":"Feature",
"properties":{
"Name":"別海小学校",
"Jusho":"北海道野付郡別海町本別海3番地1",
"Capacity":"－",
"la":"43.37764900000",
"ln":"145.28517300000"
},
"geometry":{
"type":"Point",
"coordinates":[
145.285173,
43.377649
]
}
},
{
"type":"Feature",
"properties":{
"Name":"上西春別小学校",
"Jusho":"北海道野付郡別海町西春別駅前西町2番地",
"Capacity":"－",
"la":"43.41694266170",
"ln":"144.76070911400"
},
"geometry":{
"type":"Point",
"coordinates":[
144.760709114,
43.4169426617
]
}
},
{
"type":"Feature",
"properties":{
"Name":"西春別小学校",
"Jusho":"北海道野付郡別海町西春別宮園町50番地",
"Capacity":"－",
"la":"43.39357600000",
"ln":"144.80913200000"
},
"geometry":{
"type":"Point",
"coordinates":[
144.809132,
43.393576
]
}
},
{
"type":"Feature",
"properties":{
"Name":"上風連小学校",
"Jusho":"北海道野付郡別海町上風連181番地4",
"Capacity":"－",
"la":"43.26652000000",
"ln":"145.09780500000"
},
"geometry":{
"type":"Point",
"coordinates":[
145.097805,
43.26652
]
}
},
{
"type":"Feature",
"properties":{
"Name":"雨紛小学校",
"Jusho":"北海道旭川市神居町雨紛380",
"Capacity":"－",
"la":"43.72151800000",
"ln":"142.35891000000"
},
"geometry":{
"type":"Point",
"coordinates":[
142.35891,
43.721518
]
}
},
{
"type":"Feature",
"properties":{
"Name":"近文小学校",
"Jusho":"北海道旭川市錦町17丁目",
"Capacity":"－",
"la":"43.78745400000",
"ln":"142.33027100000"
},
"geometry":{
"type":"Point",
"coordinates":[
142.330271,
43.787454
]
}
},
{
"type":"Feature",
"properties":{
"Name":"近文第１小学校",
"Jusho":"北海道旭川市東鷹栖3戦10号",
"Capacity":"－",
"la":"43.82210300000",
"ln":"142.40071900000"
},
"geometry":{
"type":"Point",
"coordinates":[
142.400719,
43.822103
]
}
},
{
"type":"Feature",
"properties":{
"Name":"近文第２小学校",
"Jusho":"北海道旭川市東鷹栖4戦16号",
"Capacity":"－",
"la":"43.84532200000",
"ln":"142.42327400000"
},
"geometry":{
"type":"Point",
"coordinates":[
142.423274,
43.845322
]
}
},
{
"type":"Feature",
"properties":{
"Name":"向陵小学校",
"Jusho":"北海道旭川市住吉5条1丁目1－",
"Capacity":"－",
"la":"43.79593100000",
"ln":"142.35219100000"
},
"geometry":{
"type":"Point",
"coordinates":[
142.352191,
43.795931
]
}
},
{
"type":"Feature",
"properties":{
"Name":"高台小学校",
"Jusho":"北海道旭川市春光台4条4丁目",
"Capacity":"－",
"la":"43.81402900000",
"ln":"142.35858500000"
},
"geometry":{
"type":"Point",
"coordinates":[
142.358585,
43.814029
]
}
},
{
"type":"Feature",
"properties":{
"Name":"春光小学校",
"Jusho":"北海道旭川市末広1条1丁目",
"Capacity":"－",
"la":"43.80265900000",
"ln":"142.38202100000"
},
"geometry":{
"type":"Point",
"coordinates":[
142.382021,
43.802659
]
}
},
{
"type":"Feature",
"properties":{
"Name":"新町小学校",
"Jusho":"北海道旭川市4条西3丁目2－",
"Capacity":"－",
"la":"43.77373400000",
"ln":"142.34707600000"
},
"geometry":{
"type":"Point",
"coordinates":[
142.347076,
43.773734
]
}
},
{
"type":"Feature",
"properties":{
"Name":"新富小学校",
"Jusho":"北海道旭川市新富2条2丁目11-3",
"Capacity":"－",
"la":"43.78867800000",
"ln":"142.38671000000"
},
"geometry":{
"type":"Point",
"coordinates":[
142.38671,
43.788678
]
}
},
{
"type":"Feature",
"properties":{
"Name":"神楽岡小学校",
"Jusho":"北海道旭川市神楽岡14条3丁目",
"Capacity":"－",
"la":"43.74287700000",
"ln":"142.35710400000"
},
"geometry":{
"type":"Point",
"coordinates":[
142.357104,
43.742877
]
}
},
{
"type":"Feature",
"properties":{
"Name":"神楽小学校",
"Jusho":"北海道旭川市神楽5条8丁目",
"Capacity":"－",
"la":"43.75630900000",
"ln":"142.34941000000"
},
"geometry":{
"type":"Point",
"coordinates":[
142.34941,
43.756309
]
}
},
{
"type":"Feature",
"properties":{
"Name":"神居小学校",
"Jusho":"北海道旭川市神居4条6丁目",
"Capacity":"－",
"la":"43.76338200000",
"ln":"142.33085700000"
},
"geometry":{
"type":"Point",
"coordinates":[
142.330857,
43.763382
]
}
},
{
"type":"Feature",
"properties":{
"Name":"神居東小学校",
"Jusho":"北海道旭川市神居1条17丁目",
"Capacity":"－",
"la":"43.75244600000",
"ln":"142.34277100000"
},
"geometry":{
"type":"Point",
"coordinates":[
142.342771,
43.752446
]
}
},
{
"type":"Feature",
"properties":{
"Name":"正和小学校",
"Jusho":"北海道旭川市大雪通8丁目",
"Capacity":"－",
"la":"43.78425900000",
"ln":"142.38959000000"
},
"geometry":{
"type":"Point",
"coordinates":[
142.38959,
43.784259
]
}
},
{
"type":"Feature",
"properties":{
"Name":"聖和小学校",
"Jusho":"北海道旭川市西神楽1線18号392",
"Capacity":"－",
"la":"43.66586000000",
"ln":"142.40510400000"
},
"geometry":{
"type":"Point",
"coordinates":[
142.405104,
43.66586
]
}
},
{
"type":"Feature",
"properties":{
"Name":"西御料地小学校",
"Jusho":"北海道旭川市西御料1条2丁目",
"Capacity":"－",
"la":"43.72440700000",
"ln":"142.37679700000"
},
"geometry":{
"type":"Point",
"coordinates":[
142.376797,
43.724407
]
}
},
{
"type":"Feature",
"properties":{
"Name":"西神楽小学校",
"Jusho":"北海道旭川市西神楽北2条3丁目",
"Capacity":"－",
"la":"43.68700500000",
"ln":"142.38749600000"
},
"geometry":{
"type":"Point",
"coordinates":[
142.387496,
43.687005
]
}
},
{
"type":"Feature",
"properties":{
"Name":"青雲小学校",
"Jusho":"北海道旭川市曙1条2丁目",
"Capacity":"－",
"la":"43.77002200000",
"ln":"142.34692000000"
},
"geometry":{
"type":"Point",
"coordinates":[
142.34692,
43.770022
]
}
},
{
"type":"Feature",
"properties":{
"Name":"千代ヶ岡小学校",
"Jusho":"北海道旭川市西神楽3線25号",
"Capacity":"－",
"la":"43.64295800000",
"ln":"142.45380200000"
},
"geometry":{
"type":"Point",
"coordinates":[
142.453802,
43.642958
]
}
},
{
"type":"Feature",
"properties":{
"Name":"台場小学校",
"Jusho":"北海道旭川市神居町台場274",
"Capacity":"－",
"la":"43.77131500000",
"ln":"142.28524800000"
},
"geometry":{
"type":"Point",
"coordinates":[
142.285248,
43.771315
]
}
},
{
"type":"Feature",
"properties":{
"Name":"大町小学校",
"Jusho":"北海道旭川市大町1条1丁目",
"Capacity":"－",
"la":"43.78204400000",
"ln":"142.36420200000"
},
"geometry":{
"type":"Point",
"coordinates":[
142.364202,
43.782044
]
}
},
{
"type":"Feature",
"properties":{
"Name":"大有小学校",
"Jusho":"北海道旭川市旭町1条6丁目",
"Capacity":"－",
"la":"43.78503800000",
"ln":"142.35207500000"
},
"geometry":{
"type":"Point",
"coordinates":[
142.352075,
43.785038
]
}
},
{
"type":"Feature",
"properties":{
"Name":"知新小学校",
"Jusho":"北海道旭川市8条通13丁目",
"Capacity":"－",
"la":"43.77054100000",
"ln":"142.37240700000"
},
"geometry":{
"type":"Point",
"coordinates":[
142.372407,
43.770541
]
}
},
{
"type":"Feature",
"properties":{
"Name":"忠和小学校",
"Jusho":"北海道旭川市忠和4条4丁目",
"Capacity":"－",
"la":"43.77805000000",
"ln":"142.31601400000"
},
"geometry":{
"type":"Point",
"coordinates":[
142.316014,
43.77805
]
}
},
{
"type":"Feature",
"properties":{
"Name":"東五条小学校",
"Jusho":"北海道旭川市東5条5丁目2-24",
"Capacity":"－",
"la":"43.78022200000",
"ln":"142.37875200000"
},
"geometry":{
"type":"Point",
"coordinates":[
142.378752,
43.780222
]
}
},
{
"type":"Feature",
"properties":{
"Name":"日章小学校",
"Jusho":"北海道旭川市6条通5丁目",
"Capacity":"－",
"la":"43.77254000000",
"ln":"142.35883200000"
},
"geometry":{
"type":"Point",
"coordinates":[
142.358832,
43.77254
]
}
},
{
"type":"Feature",
"properties":{
"Name":"富沢小学校",
"Jusho":"北海道旭川市神居町富沢132",
"Capacity":"－",
"la":"43.74329200000",
"ln":"142.31635800000"
},
"geometry":{
"type":"Point",
"coordinates":[
142.316358,
43.743292
]
}
},
{
"type":"Feature",
"properties":{
"Name":"北海道教育大学附属旭川小学校",
"Jusho":"北海道旭川市春光4条1丁目",
"Capacity":"－",
"la":"43.79623500000",
"ln":"142.35648700000"
},
"geometry":{
"type":"Point",
"coordinates":[
142.356487,
43.796235
]
}
},
{
"type":"Feature",
"properties":{
"Name":"北光小学校",
"Jusho":"北海道旭川市旭町1条16丁目",
"Capacity":"－",
"la":"43.79380400000",
"ln":"142.33979000000"
},
"geometry":{
"type":"Point",
"coordinates":[
142.33979,
43.793804
]
}
},
{
"type":"Feature",
"properties":{
"Name":"北鎮小学校",
"Jusho":"北海道旭川市春光6条6丁目1－",
"Capacity":"－",
"la":"43.80474200000",
"ln":"142.36151500000"
},
"geometry":{
"type":"Point",
"coordinates":[
142.361515,
43.804742
]
}
},
{
"type":"Feature",
"properties":{
"Name":"末広小学校",
"Jusho":"北海道旭川市末広6条2丁目",
"Capacity":"－",
"la":"43.81190300000",
"ln":"142.37137700000"
},
"geometry":{
"type":"Point",
"coordinates":[
142.371377,
43.811903
]
}
},
{
"type":"Feature",
"properties":{
"Name":"末広北小学校",
"Jusho":"北海道旭川市末広5条11丁目3－7",
"Capacity":"－",
"la":"43.82166800000",
"ln":"142.38807400000"
},
"geometry":{
"type":"Point",
"coordinates":[
142.388074,
43.821668
]
}
},
{
"type":"Feature",
"properties":{
"Name":"陵雲小学校",
"Jusho":"北海道旭川市末広1条7丁目",
"Capacity":"－",
"la":"43.80951700000",
"ln":"142.39159000000"
},
"geometry":{
"type":"Point",
"coordinates":[
142.39159,
43.809517
]
}
},
{
"type":"Feature",
"properties":{
"Name":"緑が丘小学校",
"Jusho":"北海道旭川市緑が丘3条4丁目1",
"Capacity":"－",
"la":"43.73243400000",
"ln":"142.37954600000"
},
"geometry":{
"type":"Point",
"coordinates":[
142.379546,
43.732434
]
}
},
{
"type":"Feature",
"properties":{
"Name":"緑新小学校",
"Jusho":"北海道旭川市神楽岡4条5丁目",
"Capacity":"－",
"la":"43.74316000000",
"ln":"142.37426100000"
},
"geometry":{
"type":"Point",
"coordinates":[
142.374261,
43.74316
]
}
},
{
"type":"Feature",
"properties":{
"Name":"つつじが丘小学校",
"Jusho":"北海道帯広市西24南3-39",
"Capacity":"6410",
"la":"42.91291100000",
"ln":"143.12266800000"
},
"geometry":{
"type":"Point",
"coordinates":[
143.122668,
42.912911
]
}
},
{
"type":"Feature",
"properties":{
"Name":"愛国小学校",
"Jusho":"北海道帯広市愛国町基線23",
"Capacity":"4970",
"la":"42.85128200000",
"ln":"143.20247000000"
},
"geometry":{
"type":"Point",
"coordinates":[
143.20247,
42.851282
]
}
},
{
"type":"Feature",
"properties":{
"Name":"稲田小学校",
"Jusho":"北海道帯広市西15南39－－",
"Capacity":"9740",
"la":"42.88421200000",
"ln":"143.18473800000"
},
"geometry":{
"type":"Point",
"coordinates":[
143.184738,
42.884212
]
}
},
{
"type":"Feature",
"properties":{
"Name":"栄小学校",
"Jusho":"北海道帯広市西17北1-44-29",
"Capacity":"6210",
"la":"42.93293800000",
"ln":"143.16588600000"
},
"geometry":{
"type":"Point",
"coordinates":[
143.165886,
42.932938
]
}
},
{
"type":"Feature",
"properties":{
"Name":"花園小学校",
"Jusho":"北海道帯広市公園東町2-3",
"Capacity":"6660",
"la":"42.90674800000",
"ln":"143.19593900000"
},
"geometry":{
"type":"Point",
"coordinates":[
143.195939,
42.906748
]
}
},
{
"type":"Feature",
"properties":{
"Name":"開西小学校",
"Jusho":"北海道帯広市西22南3-3",
"Capacity":"7810",
"la":"42.91613300000",
"ln":"143.13700000000"
},
"geometry":{
"type":"Point",
"coordinates":[
143.137,
42.916133
]
}
},
{
"type":"Feature",
"properties":{
"Name":"啓西小学校",
"Jusho":"北海道帯広市柏林台中町4－",
"Capacity":"6540",
"la":"42.92224500000",
"ln":"143.16949700000"
},
"geometry":{
"type":"Point",
"coordinates":[
143.169497,
42.922245
]
}
},
{
"type":"Feature",
"properties":{
"Name":"啓北小学校",
"Jusho":"北海道帯広市西14北7-3",
"Capacity":"5890",
"la":"42.93932700000",
"ln":"143.17980400000"
},
"geometry":{
"type":"Point",
"coordinates":[
143.179804,
42.939327
]
}
},
{
"type":"Feature",
"properties":{
"Name":"光南小学校",
"Jusho":"北海道帯広市東5南20－",
"Capacity":"6160",
"la":"42.90991500000",
"ln":"143.21566000000"
},
"geometry":{
"type":"Point",
"coordinates":[
143.21566,
42.909915
]
}
},
{
"type":"Feature",
"properties":{
"Name":"広野小学校",
"Jusho":"北海道帯広市広野町西1線149",
"Capacity":"5580",
"la":"42.75206400000",
"ln":"143.01460300000"
},
"geometry":{
"type":"Point",
"coordinates":[
143.014603,
42.752064
]
}
},
{
"type":"Feature",
"properties":{
"Name":"広陽小学校",
"Jusho":"北海道帯広市西19南3-20-3",
"Capacity":"6940",
"la":"42.91549500000",
"ln":"143.15652600000"
},
"geometry":{
"type":"Point",
"coordinates":[
143.156526,
42.915495
]
}
},
{
"type":"Feature",
"properties":{
"Name":"若葉小学校",
"Jusho":"北海道帯広市西17南6－",
"Capacity":"8530",
"la":"42.90363600000",
"ln":"143.16922000000"
},
"geometry":{
"type":"Point",
"coordinates":[
143.16922,
42.903636
]
}
},
{
"type":"Feature",
"properties":{
"Name":"森の里小学校",
"Jusho":"北海道帯広市西22南4-3",
"Capacity":"7480",
"la":"42.90832900000",
"ln":"143.13797300000"
},
"geometry":{
"type":"Point",
"coordinates":[
143.137973,
42.908329
]
}
},
{
"type":"Feature",
"properties":{
"Name":"清川小学校",
"Jusho":"北海道帯広市清川町西3線127",
"Capacity":"670",
"la":"42.74631700000",
"ln":"143.08001400000"
},
"geometry":{
"type":"Point",
"coordinates":[
143.080014,
42.746317
]
}
},
{
"type":"Feature",
"properties":{
"Name":"西小学校",
"Jusho":"北海道帯広市西23南1-83",
"Capacity":"1050",
"la":"42.92577000000",
"ln":"143.12675000000"
},
"geometry":{
"type":"Point",
"coordinates":[
143.12675,
42.92577
]
}
},
{
"type":"Feature",
"properties":{
"Name":"川西小学校",
"Jusho":"北海道帯広市川西町西3線66",
"Capacity":"501",
"la":"42.84753000000",
"ln":"143.15977900000"
},
"geometry":{
"type":"Point",
"coordinates":[
143.159779,
42.84753
]
}
},
{
"type":"Feature",
"properties":{
"Name":"帯広小学校",
"Jusho":"北海道帯広市西8南5－",
"Capacity":"7800",
"la":"42.92563500000",
"ln":"143.19155000000"
},
"geometry":{
"type":"Point",
"coordinates":[
143.19155,
42.925635
]
}
},
{
"type":"Feature",
"properties":{
"Name":"大空小学校",
"Jusho":"北海道帯広市大空町3－6",
"Capacity":"9040",
"la":"42.87669400000",
"ln":"143.15255600000"
},
"geometry":{
"type":"Point",
"coordinates":[
143.152556,
42.876694
]
}
},
{
"type":"Feature",
"properties":{
"Name":"大正小学校",
"Jusho":"北海道帯広市大正町550-3",
"Capacity":"700",
"la":"42.78839907730",
"ln":"143.17005900000"
},
"geometry":{
"type":"Point",
"coordinates":[
143.170059,
42.7883990773
]
}
},
{
"type":"Feature",
"properties":{
"Name":"東小学校",
"Jusho":"北海道帯広市東7南2－",
"Capacity":"9720",
"la":"42.93113500000",
"ln":"143.21532500000"
},
"geometry":{
"type":"Point",
"coordinates":[
143.215325,
42.931135
]
}
},
{
"type":"Feature",
"properties":{
"Name":"柏小学校",
"Jusho":"北海道帯広市東8南11－",
"Capacity":"8420",
"la":"42.92058100000",
"ln":"143.21810300000"
},
"geometry":{
"type":"Point",
"coordinates":[
143.218103,
42.920581
]
}
},
{
"type":"Feature",
"properties":{
"Name":"豊成小学校",
"Jusho":"北海道帯広市西5南37－-3",
"Capacity":"6040",
"la":"42.88866700000",
"ln":"143.20246700000"
},
"geometry":{
"type":"Point",
"coordinates":[
143.202467,
42.888667
]
}
},
{
"type":"Feature",
"properties":{
"Name":"北栄小学校",
"Jusho":"北海道帯広市西7南1-2",
"Capacity":"5280",
"la":"42.92963400000",
"ln":"143.19207800000"
},
"geometry":{
"type":"Point",
"coordinates":[
143.192078,
42.929634
]
}
},
{
"type":"Feature",
"properties":{
"Name":"明星小学校",
"Jusho":"北海道帯広市西4南23－",
"Capacity":"7160",
"la":"42.90502600000",
"ln":"143.20032800000"
},
"geometry":{
"type":"Point",
"coordinates":[
143.200328,
42.905026
]
}
},
{
"type":"Feature",
"properties":{
"Name":"明和小学校",
"Jusho":"北海道帯広市西19南4-24",
"Capacity":"5930",
"la":"42.91007600000",
"ln":"143.15554000000"
},
"geometry":{
"type":"Point",
"coordinates":[
143.15554,
42.910076
]
}
},
{
"type":"Feature",
"properties":{
"Name":"緑丘小学校",
"Jusho":"北海道帯広市西14南17-2",
"Capacity":"7210",
"la":"42.91160800000",
"ln":"143.18327300000"
},
"geometry":{
"type":"Point",
"coordinates":[
143.183273,
42.911608
]
}
},
{
"type":"Feature",
"properties":{
"Name":"温根別小学校",
"Jusho":"北海道士別市温根別町南2線通",
"Capacity":"－",
"la":"44.17591000000",
"ln":"142.27305600000"
},
"geometry":{
"type":"Point",
"coordinates":[
142.273056,
44.17591
]
}
},
{
"type":"Feature",
"properties":{
"Name":"下士別小学校",
"Jusho":"北海道士別市下士別町42線西1番地",
"Capacity":"－",
"la":"44.21271500000",
"ln":"142.39412700000"
},
"geometry":{
"type":"Point",
"coordinates":[
142.394127,
44.212715
]
}
},
{
"type":"Feature",
"properties":{
"Name":"旧兼内小学校グラウンド",
"Jusho":"北海道士別市上士別町25線北",
"Capacity":"－",
"la":"44.13529626020",
"ln":"142.48741385200"
},
"geometry":{
"type":"Point",
"coordinates":[
142.487413852,
44.1352962602
]
}
},
{
"type":"Feature",
"properties":{
"Name":"旧三栄小学校グラウンド",
"Jusho":"北海道士別市朝日町三栄7053番地",
"Capacity":"－",
"la":"44.05320433000",
"ln":"142.65231726200"
},
"geometry":{
"type":"Point",
"coordinates":[
142.652317262,
44.05320433
]
}
},
{
"type":"Feature",
"properties":{
"Name":"旧壬子小学校",
"Jusho":"北海道士別市朝日町南朝日4477番地",
"Capacity":"－",
"la":"44.08410649740",
"ln":"142.63626957400"
},
"geometry":{
"type":"Point",
"coordinates":[
142.636269574,
44.0841064974
]
}
},
{
"type":"Feature",
"properties":{
"Name":"旧西士別小学校グラウンド",
"Jusho":"北海道士別市西士別町",
"Capacity":"－",
"la":"44.17995500000",
"ln":"142.37247800000"
},
"geometry":{
"type":"Point",
"coordinates":[
142.372478,
44.179955
]
}
},
{
"type":"Feature",
"properties":{
"Name":"旧川南小学校跡地",
"Jusho":"北海道士別市上士別町16線南",
"Capacity":"－",
"la":"44.13520315460",
"ln":"142.48741746300"
},
"geometry":{
"type":"Point",
"coordinates":[
142.487417463,
44.1352031546
]
}
},
{
"type":"Feature",
"properties":{
"Name":"旧登和里小学校",
"Jusho":"北海道士別市朝日町登和里3890番地",
"Capacity":"－",
"la":"44.12341130510",
"ln":"142.67384261500"
},
"geometry":{
"type":"Point",
"coordinates":[
142.673842615,
44.1234113051
]
}
},
{
"type":"Feature",
"properties":{
"Name":"旧白山小学校",
"Jusho":"北海道士別市温根別町南9線",
"Capacity":"－",
"la":"44.17977203150",
"ln":"142.27488207000"
},
"geometry":{
"type":"Point",
"coordinates":[
142.27488207,
44.1797720315
]
}
},
{
"type":"Feature",
"properties":{
"Name":"旧北温小学校グラウンド",
"Jusho":"北海道士別市温根別町北14線",
"Capacity":"－",
"la":"44.17963500000",
"ln":"142.27486500000"
},
"geometry":{
"type":"Point",
"coordinates":[
142.274865,
44.179635
]
}
},
{
"type":"Feature",
"properties":{
"Name":"旧茂志利小学校グラウンド",
"Jusho":"北海道士別市朝日町茂志利4715番地",
"Capacity":"－",
"la":"44.05667829450",
"ln":"142.72009523300"
},
"geometry":{
"type":"Point",
"coordinates":[
142.720095233,
44.0566782945
]
}
},
{
"type":"Feature",
"properties":{
"Name":"士別小学校",
"Jusho":"北海道士別市東3条北3丁目",
"Capacity":"－",
"la":"44.18335800000",
"ln":"142.39518400000"
},
"geometry":{
"type":"Point",
"coordinates":[
142.395184,
44.183358
]
}
},
{
"type":"Feature",
"properties":{
"Name":"士別西小学校",
"Jusho":"北海道士別市西4条9丁目",
"Capacity":"－",
"la":"44.17106500000",
"ln":"142.38531800000"
},
"geometry":{
"type":"Point",
"coordinates":[
142.385318,
44.171065
]
}
},
{
"type":"Feature",
"properties":{
"Name":"士別南小学校",
"Jusho":"北海道士別市東4条14丁目",
"Capacity":"－",
"la":"44.16833200000",
"ln":"142.40069700000"
},
"geometry":{
"type":"Point",
"coordinates":[
142.400697,
44.168332
]
}
},
{
"type":"Feature",
"properties":{
"Name":"糸魚小学校",
"Jusho":"北海道士別市朝日町中央6654番地",
"Capacity":"－",
"la":"44.12047000000",
"ln":"142.59609400000"
},
"geometry":{
"type":"Point",
"coordinates":[
142.596094,
44.12047
]
}
},
{
"type":"Feature",
"properties":{
"Name":"上士別小学校",
"Jusho":"北海道士別市上士別町16線南1号",
"Capacity":"－",
"la":"44.13081000000",
"ln":"142.48812400000"
},
"geometry":{
"type":"Point",
"coordinates":[
142.488124,
44.13081
]
}
},
{
"type":"Feature",
"properties":{
"Name":"多寄小学校",
"Jusho":"北海道士別市多寄町37線西1番地",
"Capacity":"－",
"la":"44.23732300000",
"ln":"142.39337600000"
},
"geometry":{
"type":"Point",
"coordinates":[
142.393376,
44.237323
]
}
},
{
"type":"Feature",
"properties":{
"Name":"中士別小学校",
"Jusho":"北海道士別市中士別町7線東3番地",
"Capacity":"－",
"la":"44.16283400000",
"ln":"142.44959700000"
},
"geometry":{
"type":"Point",
"coordinates":[
142.449597,
44.162834
]
}
},
{
"type":"Feature",
"properties":{
"Name":"中多寄小学校",
"Jusho":"北海道士別市多寄町32線西19番地",
"Capacity":"－",
"la":"44.26290300000",
"ln":"142.37279300000"
},
"geometry":{
"type":"Point",
"coordinates":[
142.372793,
44.262903
]
}
},
{
"type":"Feature",
"properties":{
"Name":"武徳小学校",
"Jusho":"北海道士別市武徳町44線東7号",
"Capacity":"－",
"la":"44.20049600000",
"ln":"142.44426200000"
},
"geometry":{
"type":"Point",
"coordinates":[
142.444262,
44.200496
]
}
},
{
"type":"Feature",
"properties":{
"Name":"市立智恵文小学校",
"Jusho":"北海道名寄市字智恵文12線南3",
"Capacity":"－",
"la":"44.43702400000",
"ln":"142.39553000000"
},
"geometry":{
"type":"Point",
"coordinates":[
142.39553,
44.437024
]
}
},
{
"type":"Feature",
"properties":{
"Name":"市立中名寄小学校",
"Jusho":"北海道名寄市字日彰285",
"Capacity":"－",
"la":"44.33312200000",
"ln":"142.51024800000"
},
"geometry":{
"type":"Point",
"coordinates":[
142.510248,
44.333122
]
}
},
{
"type":"Feature",
"properties":{
"Name":"市立東風連小学校",
"Jusho":"北海道名寄市風連町字東風連3396",
"Capacity":"－",
"la":"44.30382200000",
"ln":"142.46499000000"
},
"geometry":{
"type":"Point",
"coordinates":[
142.46499,
44.303822
]
}
},
{
"type":"Feature",
"properties":{
"Name":"市立風連下多寄小学校",
"Jusho":"北海道名寄市風連町字瑞生1558",
"Capacity":"－",
"la":"44.29544400000",
"ln":"142.39556400000"
},
"geometry":{
"type":"Point",
"coordinates":[
142.395564,
44.295444
]
}
},
{
"type":"Feature",
"properties":{
"Name":"市立風連中央小学校",
"Jusho":"北海道名寄市風連町西町201",
"Capacity":"－",
"la":"44.29001900000",
"ln":"142.41431300000"
},
"geometry":{
"type":"Point",
"coordinates":[
142.414313,
44.290019
]
}
},
{
"type":"Feature",
"properties":{
"Name":"市立豊西小学校",
"Jusho":"北海道名寄市西十五条南4",
"Capacity":"－",
"la":"44.35195100000",
"ln":"142.44253000000"
},
"geometry":{
"type":"Point",
"coordinates":[
142.44253,
44.351951
]
}
},
{
"type":"Feature",
"properties":{
"Name":"市立名寄小学校",
"Jusho":"北海道名寄市西一条南1",
"Capacity":"－",
"la":"44.35537900000",
"ln":"142.46166700000"
},
"geometry":{
"type":"Point",
"coordinates":[
142.461667,
44.355379
]
}
},
{
"type":"Feature",
"properties":{
"Name":"市立名寄西小学校",
"Jusho":"北海道名寄市西七条南1－8",
"Capacity":"－",
"la":"44.35461800000",
"ln":"142.45205700000"
},
"geometry":{
"type":"Point",
"coordinates":[
142.452057,
44.354618
]
}
},
{
"type":"Feature",
"properties":{
"Name":"市立名寄東小学校",
"Jusho":"北海道名寄市東三条南3",
"Capacity":"－",
"la":"44.35312200000",
"ln":"142.46991800000"
},
"geometry":{
"type":"Point",
"coordinates":[
142.469918,
44.353122
]
}
},
{
"type":"Feature",
"properties":{
"Name":"市立名寄南小学校",
"Jusho":"北海道名寄市西六条南12",
"Capacity":"－",
"la":"44.34286900000",
"ln":"142.45391900000"
},
"geometry":{
"type":"Point",
"coordinates":[
142.453919,
44.342869
]
}
},
{
"type":"Feature",
"properties":{
"Name":"山部小学校",
"Jusho":"北海道富良野市山部3町内",
"Capacity":"－",
"la":"43.24473300000",
"ln":"142.38405500000"
},
"geometry":{
"type":"Point",
"coordinates":[
142.384055,
43.244733
]
}
},
{
"type":"Feature",
"properties":{
"Name":"樹海小学校",
"Jusho":"北海道富良野市老節布市街",
"Capacity":"－",
"la":"43.23665214420",
"ln":"142.47305419200"
},
"geometry":{
"type":"Point",
"coordinates":[
142.473054192,
43.2366521442
]
}
},
{
"type":"Feature",
"properties":{
"Name":"扇山小学校",
"Jusho":"北海道富良野市緑町8番20号",
"Capacity":"－",
"la":"43.33630900000",
"ln":"142.39492700000"
},
"geometry":{
"type":"Point",
"coordinates":[
142.394927,
43.336309
]
}
},
{
"type":"Feature",
"properties":{
"Name":"鳥沼小学校",
"Jusho":"北海道富良野市東鳥沼1",
"Capacity":"－",
"la":"43.34463600000",
"ln":"142.43936500000"
},
"geometry":{
"type":"Point",
"coordinates":[
142.439365,
43.344636
]
}
},
{
"type":"Feature",
"properties":{
"Name":"東小学校",
"Jusho":"北海道富良野市北麻町8番1号",
"Capacity":"－",
"la":"43.34572500000",
"ln":"142.40228700000"
},
"geometry":{
"type":"Point",
"coordinates":[
142.402287,
43.345725
]
}
},
{
"type":"Feature",
"properties":{
"Name":"富良野小学校",
"Jusho":"北海道富良野市若松町10番1号",
"Capacity":"－",
"la":"43.34472500000",
"ln":"142.38351100000"
},
"geometry":{
"type":"Point",
"coordinates":[
142.383511,
43.344725
]
}
},
{
"type":"Feature",
"properties":{
"Name":"麓郷小学校",
"Jusho":"北海道富良野市南麓郷",
"Capacity":"－",
"la":"43.30254300000",
"ln":"142.53183900000"
},
"geometry":{
"type":"Point",
"coordinates":[
142.531839,
43.302543
]
}
},
{
"type":"Feature",
"properties":{
"Name":"旧中央小学校体育館",
"Jusho":"北海道上川郡鷹栖町",
"Capacity":"－",
"la":"43.87876429090",
"ln":"142.33542470400"
},
"geometry":{
"type":"Point",
"coordinates":[
142.335424704,
43.8787642909
]
}
},
{
"type":"Feature",
"properties":{
"Name":"鷹栖小学校",
"Jusho":"北海道上川郡鷹栖町北1条1丁目",
"Capacity":"－",
"la":"43.84974600000",
"ln":"142.35872900000"
},
"geometry":{
"type":"Point",
"coordinates":[
142.358729,
43.849746
]
}
},
{
"type":"Feature",
"properties":{
"Name":"北野小学校",
"Jusho":"北海道上川郡鷹栖町12線3",
"Capacity":"－",
"la":"43.83064300000",
"ln":"142.32029600000"
},
"geometry":{
"type":"Point",
"coordinates":[
142.320296,
43.830643
]
}
},
{
"type":"Feature",
"properties":{
"Name":"志比内小学校",
"Jusho":"北海道上川郡東神楽町字志比内75番地",
"Capacity":"－",
"la":"43.64461800000",
"ln":"142.58206000000"
},
"geometry":{
"type":"Point",
"coordinates":[
142.58206,
43.644618
]
}
},
{
"type":"Feature",
"properties":{
"Name":"忠栄小学校",
"Jusho":"北海道上川郡東神楽町19号南5番地",
"Capacity":"－",
"la":"43.68961300000",
"ln":"142.49974100000"
},
"geometry":{
"type":"Point",
"coordinates":[
142.499741,
43.689613
]
}
},
{
"type":"Feature",
"properties":{
"Name":"東神楽小学校",
"Jusho":"北海道上川郡東神楽町南3条東1丁目2番1号",
"Capacity":"－",
"la":"43.69280400000",
"ln":"142.45070900000"
},
"geometry":{
"type":"Point",
"coordinates":[
142.450709,
43.692804
]
}
},
{
"type":"Feature",
"properties":{
"Name":"東聖小学校",
"Jusho":"北海道上川郡東神楽町ひじり野南1条2丁目1番1号",
"Capacity":"－",
"la":"43.71903300000",
"ln":"142.41434700000"
},
"geometry":{
"type":"Point",
"coordinates":[
142.414347,
43.719033
]
}
},
{
"type":"Feature",
"properties":{
"Name":"宇園別小学校",
"Jusho":"北海道上川郡当麻町宇園別2区",
"Capacity":"－",
"la":"43.83651000000",
"ln":"142.48355800000"
},
"geometry":{
"type":"Point",
"coordinates":[
142.483558,
43.83651
]
}
},
{
"type":"Feature",
"properties":{
"Name":"旧伊香牛小学校体育館",
"Jusho":"北海道上川郡当麻町伊香牛2区",
"Capacity":"－",
"la":"43.87440432570",
"ln":"142.52004060800"
},
"geometry":{
"type":"Point",
"coordinates":[
142.520040608,
43.8744043257
]
}
},
{
"type":"Feature",
"properties":{
"Name":"旧開明小学校体育館",
"Jusho":"北海道上川郡当麻町開明2区",
"Capacity":"－",
"la":"43.82770900000",
"ln":"142.58110600000"
},
"geometry":{
"type":"Point",
"coordinates":[
142.581106,
43.827709
]
}
},
{
"type":"Feature",
"properties":{
"Name":"旧北星小学校体育館",
"Jusho":"北海道上川郡当麻町北星1区",
"Capacity":"－",
"la":"43.84866975250",
"ln":"142.52448587500"
},
"geometry":{
"type":"Point",
"coordinates":[
142.524485875,
43.8486697525
]
}
},
{
"type":"Feature",
"properties":{
"Name":"当麻小学校",
"Jusho":"北海道上川郡当麻町3条東3丁目13番1号",
"Capacity":"－",
"la":"43.82448500000",
"ln":"142.51186200000"
},
"geometry":{
"type":"Point",
"coordinates":[
142.511862,
43.824485
]
}
},
{
"type":"Feature",
"properties":{
"Name":"中央小学校",
"Jusho":"北海道上川郡比布町寿町4丁目",
"Capacity":"700",
"la":"43.88103300000",
"ln":"142.47997300000"
},
"geometry":{
"type":"Point",
"coordinates":[
142.479973,
43.881033
]
}
},
{
"type":"Feature",
"properties":{
"Name":"蘭留小学校",
"Jusho":"北海道上川郡比布町北9線14号",
"Capacity":"700",
"la":"43.92544400000",
"ln":"142.48016400000"
},
"geometry":{
"type":"Point",
"coordinates":[
142.480164,
43.925444
]
}
},
{
"type":"Feature",
"properties":{
"Name":"愛山小学校",
"Jusho":"北海道上川郡愛別町字愛山325",
"Capacity":"－",
"la":"43.86593100000",
"ln":"142.68390100000"
},
"geometry":{
"type":"Point",
"coordinates":[
142.683901,
43.865931
]
}
},
{
"type":"Feature",
"properties":{
"Name":"愛別小学校",
"Jusho":"北海道上川郡愛別町字北町327",
"Capacity":"－",
"la":"43.90850600000",
"ln":"142.57885000000"
},
"geometry":{
"type":"Point",
"coordinates":[
142.57885,
43.908506
]
}
},
{
"type":"Feature",
"properties":{
"Name":"協和小学校",
"Jusho":"北海道上川郡愛別町字協和306",
"Capacity":"－",
"la":"43.94880700000",
"ln":"142.59834600000"
},
"geometry":{
"type":"Point",
"coordinates":[
142.598346,
43.948807
]
}
},
{
"type":"Feature",
"properties":{
"Name":"中里小学校",
"Jusho":"北海道上川郡愛別町字中央369",
"Capacity":"－",
"la":"43.90045400000",
"ln":"142.64470700000"
},
"geometry":{
"type":"Point",
"coordinates":[
142.644707,
43.900454
]
}
},
{
"type":"Feature",
"properties":{
"Name":"旧越路小学校グラウンド",
"Jusho":"北海道上川郡上川町越路",
"Capacity":"－",
"la":"43.86922993530",
"ln":"142.74146924500"
},
"geometry":{
"type":"Point",
"coordinates":[
142.741469245,
43.8692299353
]
}
},
{
"type":"Feature",
"properties":{
"Name":"旧層雲峡小学校",
"Jusho":"北海道上川郡上川町層雲峡",
"Capacity":"900",
"la":"43.72590100000",
"ln":"142.94416600000"
},
"geometry":{
"type":"Point",
"coordinates":[
142.944166,
43.725901
]
}
},
{
"type":"Feature",
"properties":{
"Name":"旧東雲小学校",
"Jusho":"北海道上川郡上川町東雲",
"Capacity":"200",
"la":"43.84271200000",
"ln":"142.71184400000"
},
"geometry":{
"type":"Point",
"coordinates":[
142.711844,
43.842712
]
}
},
{
"type":"Feature",
"properties":{
"Name":"上川小学校",
"Jusho":"北海道上川郡上川町新町379",
"Capacity":"12800",
"la":"43.84818500000",
"ln":"142.77653300000"
},
"geometry":{
"type":"Point",
"coordinates":[
142.776533,
43.848185
]
}
},
{
"type":"Feature",
"properties":{
"Name":"東川小学校",
"Jusho":"北海道上川郡東川町北町1丁目1番1号",
"Capacity":"1930",
"la":"43.69883200000",
"ln":"142.50767500000"
},
"geometry":{
"type":"Point",
"coordinates":[
142.507675,
43.698832
]
}
},
{
"type":"Feature",
"properties":{
"Name":"東川第１小学校",
"Jusho":"北海道上川郡東川町西10号北24番地",
"Capacity":"1160",
"la":"43.73055100000",
"ln":"142.49153500000"
},
"geometry":{
"type":"Point",
"coordinates":[
142.491535,
43.730551
]
}
},
{
"type":"Feature",
"properties":{
"Name":"東川第２小学校",
"Jusho":"北海道上川郡東川町西4号北32番地",
"Capacity":"1100",
"la":"43.71738600000",
"ln":"142.53000600000"
},
"geometry":{
"type":"Point",
"coordinates":[
142.530006,
43.717386
]
}
},
{
"type":"Feature",
"properties":{
"Name":"東川第３小学校",
"Jusho":"北海道上川郡東川町東8号南1番地",
"Capacity":"1010",
"la":"43.66769800000",
"ln":"142.56020000000"
},
"geometry":{
"type":"Point",
"coordinates":[
142.5602,
43.667698
]
}
},
{
"type":"Feature",
"properties":{
"Name":"旧旭小学校",
"Jusho":"北海道上川郡美瑛町字旭第2",
"Capacity":"200",
"la":"43.66036000000",
"ln":"142.41542500000"
},
"geometry":{
"type":"Point",
"coordinates":[
142.415425,
43.66036
]
}
},
{
"type":"Feature",
"properties":{
"Name":"旧宇莫別小学校",
"Jusho":"北海道上川郡美瑛町字中宇莫別第2",
"Capacity":"200",
"la":"43.58170802850",
"ln":"142.59897125700"
},
"geometry":{
"type":"Point",
"coordinates":[
142.598971257,
43.5817080285
]
}
},
{
"type":"Feature",
"properties":{
"Name":"旧五稜小学校",
"Jusho":"北海道上川郡美瑛町字五稜第5",
"Capacity":"200",
"la":"43.59485217940",
"ln":"142.38243325300"
},
"geometry":{
"type":"Point",
"coordinates":[
142.382433253,
43.5948521794
]
}
},
{
"type":"Feature",
"properties":{
"Name":"旧置杵牛小学校",
"Jusho":"北海道上川郡美瑛町字置杵牛中央",
"Capacity":"－",
"la":"43.56509875810",
"ln":"142.57312773000"
},
"geometry":{
"type":"Point",
"coordinates":[
142.57312773,
43.5650987581
]
}
},
{
"type":"Feature",
"properties":{
"Name":"旧美田小学校",
"Jusho":"北海道上川郡美瑛町字美田第2",
"Capacity":"200",
"la":"43.61036348780",
"ln":"142.40178423800"
},
"geometry":{
"type":"Point",
"coordinates":[
142.401784238,
43.6103634878
]
}
},
{
"type":"Feature",
"properties":{
"Name":"旧俵真布小学校",
"Jusho":"北海道上川郡美瑛町字俵真布中央",
"Capacity":"200",
"la":"43.58999600000",
"ln":"142.63603400000"
},
"geometry":{
"type":"Point",
"coordinates":[
142.636034,
43.589996
]
}
},
{
"type":"Feature",
"properties":{
"Name":"旧北瑛小学校",
"Jusho":"北海道上川郡美瑛町北瑛第2",
"Capacity":"200",
"la":"43.62387406410",
"ln":"142.44623696400"
},
"geometry":{
"type":"Point",
"coordinates":[
142.446236964,
43.6238740641
]
}
},
{
"type":"Feature",
"properties":{
"Name":"美瑛小学校",
"Jusho":"北海道上川郡美瑛町西町2－－",
"Capacity":"1200",
"la":"43.58728700000",
"ln":"142.46026900000"
},
"geometry":{
"type":"Point",
"coordinates":[
142.460269,
43.587287
]
}
},
{
"type":"Feature",
"properties":{
"Name":"美瑛東小学校",
"Jusho":"北海道上川郡美瑛町丸山2-8－5",
"Capacity":"1000",
"la":"43.58287100000",
"ln":"142.47812900000"
},
"geometry":{
"type":"Point",
"coordinates":[
142.478129,
43.582871
]
}
},
{
"type":"Feature",
"properties":{
"Name":"美進小学校",
"Jusho":"北海道上川郡美瑛町字下宇莫別朝日",
"Capacity":"200",
"la":"43.61014700000",
"ln":"142.49223700000"
},
"geometry":{
"type":"Point",
"coordinates":[
142.492237,
43.610147
]
}
},
{
"type":"Feature",
"properties":{
"Name":"美沢小学校",
"Jusho":"北海道上川郡美瑛町字美沢16線",
"Capacity":"200",
"la":"43.54384900000",
"ln":"142.52993200000"
},
"geometry":{
"type":"Point",
"coordinates":[
142.529932,
43.543849
]
}
},
{
"type":"Feature",
"properties":{
"Name":"上富良野小学校",
"Jusho":"北海道空知郡上富良野町宮町1丁目3番13号",
"Capacity":"－",
"la":"43.45818900000",
"ln":"142.47110800000"
},
"geometry":{
"type":"Point",
"coordinates":[
142.471108,
43.458189
]
}
},
{
"type":"Feature",
"properties":{
"Name":"上富良野西小学校",
"Jusho":"北海道空知郡上富良野町扇町3丁目",
"Capacity":"－",
"la":"43.47121500000",
"ln":"142.46191400000"
},
"geometry":{
"type":"Point",
"coordinates":[
142.461914,
43.471215
]
}
},
{
"type":"Feature",
"properties":{
"Name":"東中小学校",
"Jusho":"北海道空知郡上富良野町東8線北18号",
"Capacity":"－",
"la":"43.40925800000",
"ln":"142.48794100000"
},
"geometry":{
"type":"Point",
"coordinates":[
142.487941,
43.409258
]
}
},
{
"type":"Feature",
"properties":{
"Name":"旭中小学校",
"Jusho":"北海道空知郡中富良野町東9線北12号",
"Capacity":"－",
"la":"43.37778000000",
"ln":"142.46844600000"
},
"geometry":{
"type":"Point",
"coordinates":[
142.468446,
43.37778
]
}
},
{
"type":"Feature",
"properties":{
"Name":"宇文小学校",
"Jusho":"北海道空知郡中富良野町東4線北7号",
"Capacity":"－",
"la":"43.37491800000",
"ln":"142.42286700000"
},
"geometry":{
"type":"Point",
"coordinates":[
142.422867,
43.374918
]
}
},
{
"type":"Feature",
"properties":{
"Name":"西中小学校",
"Jusho":"北海道空知郡中富良野町東1線北18号",
"Capacity":"－",
"la":"43.42796900000",
"ln":"142.44519500000"
},
"geometry":{
"type":"Point",
"coordinates":[
142.445195,
43.427969
]
}
},
{
"type":"Feature",
"properties":{
"Name":"中富良野小学校",
"Jusho":"北海道空知郡中富良野町北町8番8号",
"Capacity":"－",
"la":"43.40886600000",
"ln":"142.42734900000"
},
"geometry":{
"type":"Point",
"coordinates":[
142.427349,
43.408866
]
}
},
{
"type":"Feature",
"properties":{
"Name":"南中小学校",
"Jusho":"北海道空知郡中富良野町鹿討農場",
"Capacity":"－",
"la":"43.39259100000",
"ln":"142.39449200000"
},
"geometry":{
"type":"Point",
"coordinates":[
142.394492,
43.392591
]
}
},
{
"type":"Feature",
"properties":{
"Name":"本幸小学校",
"Jusho":"北海道空知郡中富良野町ベベルイ",
"Capacity":"－",
"la":"43.38452200000",
"ln":"142.52431700000"
},
"geometry":{
"type":"Point",
"coordinates":[
142.524317,
43.384522
]
}
},
{
"type":"Feature",
"properties":{
"Name":"幾寅小学校",
"Jusho":"北海道空知郡南富良野町字幾寅845",
"Capacity":"－",
"la":"43.16532100000",
"ln":"142.56748800000"
},
"geometry":{
"type":"Point",
"coordinates":[
142.567488,
43.165321
]
}
},
{
"type":"Feature",
"properties":{
"Name":"金山小学校",
"Jusho":"北海道空知郡南富良野町字金山364",
"Capacity":"－",
"la":"43.13988600000",
"ln":"142.41613700000"
},
"geometry":{
"type":"Point",
"coordinates":[
142.416137,
43.139886
]
}
},
{
"type":"Feature",
"properties":{
"Name":"北落合小学校",
"Jusho":"北海道空知郡南富良野町北落合159",
"Capacity":"－",
"la":"43.18823900000",
"ln":"142.66303500000"
},
"geometry":{
"type":"Point",
"coordinates":[
142.663035,
43.188239
]
}
},
{
"type":"Feature",
"properties":{
"Name":"落合小学校",
"Jusho":"北海道空知郡南富良野町落合265番地",
"Capacity":"－",
"la":"43.12439800000",
"ln":"142.66483200000"
},
"geometry":{
"type":"Point",
"coordinates":[
142.664832,
43.124398
]
}
},
{
"type":"Feature",
"properties":{
"Name":"旧三和小学校グランド",
"Jusho":"北海道上川郡和寒町字三和",
"Capacity":"－",
"la":"44.02147819020",
"ln":"142.36428794100"
},
"geometry":{
"type":"Point",
"coordinates":[
142.364287941,
44.0214781902
]
}
},
{
"type":"Feature",
"properties":{
"Name":"旧西和小学校グランド",
"Jusho":"北海道上川郡和寒町字西和",
"Capacity":"－",
"la":"44.02328897290",
"ln":"142.30297418100"
},
"geometry":{
"type":"Point",
"coordinates":[
142.302974181,
44.0232889729
]
}
},
{
"type":"Feature",
"properties":{
"Name":"旧大成小学校グランド",
"Jusho":"北海道上川郡和寒町字大成",
"Capacity":"－",
"la":"44.06958981710",
"ln":"142.41546500700"
},
"geometry":{
"type":"Point",
"coordinates":[
142.415465007,
44.0695898171
]
}
},
{
"type":"Feature",
"properties":{
"Name":"旧中和小学校グランド",
"Jusho":"北海道上川郡和寒町字中和",
"Capacity":"－",
"la":"43.99632139950",
"ln":"142.40723265900"
},
"geometry":{
"type":"Point",
"coordinates":[
142.407232659,
43.9963213995
]
}
},
{
"type":"Feature",
"properties":{
"Name":"旧福原小学校グランド",
"Jusho":"北海道上川郡和寒町字福原",
"Capacity":"－",
"la":"43.97576748850",
"ln":"142.28348015800"
},
"geometry":{
"type":"Point",
"coordinates":[
142.283480158,
43.9757674885
]
}
},
{
"type":"Feature",
"properties":{
"Name":"旧北原小学校グランド",
"Jusho":"北海道上川郡和寒町字北原",
"Capacity":"－",
"la":"44.05207801460",
"ln":"142.37415600000"
},
"geometry":{
"type":"Point",
"coordinates":[
142.374156,
44.0520780146
]
}
},
{
"type":"Feature",
"properties":{
"Name":"和寒小学校グランド",
"Jusho":"北海道上川郡和寒町字北町",
"Capacity":"－",
"la":"44.02823700000",
"ln":"142.41174700000"
},
"geometry":{
"type":"Point",
"coordinates":[
142.411747,
44.028237
]
}
},
{
"type":"Feature",
"properties":{
"Name":"旧西岡小学校グラウンド",
"Jusho":"北海道上川郡剣淵町西岡町1201番地",
"Capacity":"－",
"la":"44.09030501460",
"ln":"142.31535600800"
},
"geometry":{
"type":"Point",
"coordinates":[
142.315356008,
44.0903050146
]
}
},
{
"type":"Feature",
"properties":{
"Name":"旧東静川小学校グラウンド",
"Jusho":"北海道上川郡剣淵町藤本町115番地",
"Capacity":"－",
"la":"44.13196175130",
"ln":"142.39375515900"
},
"geometry":{
"type":"Point",
"coordinates":[
142.393755159,
44.1319617513
]
}
},
{
"type":"Feature",
"properties":{
"Name":"剣淵小学校",
"Jusho":"北海道上川郡剣淵町西町23番1号",
"Capacity":"－",
"la":"44.09867600000",
"ln":"142.35397800000"
},
"geometry":{
"type":"Point",
"coordinates":[
142.353978,
44.098676
]
}
},
{
"type":"Feature",
"properties":{
"Name":"一の橋小学校",
"Jusho":"北海道上川郡下川町",
"Capacity":"－",
"la":"44.31766043710",
"ln":"142.76639047000"
},
"geometry":{
"type":"Point",
"coordinates":[
142.76639047,
44.3176604371
]
}
},
{
"type":"Feature",
"properties":{
"Name":"旧厚生小学校",
"Jusho":"北海道中川郡美深町字西里101番地",
"Capacity":"－",
"la":"44.54234301560",
"ln":"142.32257445000"
},
"geometry":{
"type":"Point",
"coordinates":[
142.32257445,
44.5423430156
]
}
},
{
"type":"Feature",
"properties":{
"Name":"美深小学校",
"Jusho":"北海道中川郡美深町字敷島108",
"Capacity":"－",
"la":"44.48985000000",
"ln":"142.34550200000"
},
"geometry":{
"type":"Point",
"coordinates":[
142.345502,
44.48985
]
}
},
{
"type":"Feature",
"properties":{
"Name":"音更小学校",
"Jusho":"北海道河東郡音更町元町1番地",
"Capacity":"－",
"la":"42.99620900000",
"ln":"143.19637800000"
},
"geometry":{
"type":"Point",
"coordinates":[
143.196378,
42.996209
]
}
},
{
"type":"Feature",
"properties":{
"Name":"下音更小学校",
"Jusho":"北海道河東郡音更町木野西通12丁目8番地",
"Capacity":"－",
"la":"42.95871400000",
"ln":"143.20199200000"
},
"geometry":{
"type":"Point",
"coordinates":[
143.201992,
42.958714
]
}
},
{
"type":"Feature",
"properties":{
"Name":"下士幌小学校",
"Jusho":"北海道河東郡音更町字下士幌北2線東51番地",
"Capacity":"－",
"la":"42.94730100000",
"ln":"143.26007000000"
},
"geometry":{
"type":"Point",
"coordinates":[
143.26007,
42.947301
]
}
},
{
"type":"Feature",
"properties":{
"Name":"旧東中音更小学校",
"Jusho":"北海道河東郡音更町字中音更西1線47番地",
"Capacity":"－",
"la":"43.11958400000",
"ln":"143.18637200000"
},
"geometry":{
"type":"Point",
"coordinates":[
143.186372,
43.119584
]
}
},
{
"type":"Feature",
"properties":{
"Name":"駒場小学校",
"Jusho":"北海道河東郡音更町駒場北町2番地",
"Capacity":"－",
"la":"43.05181300000",
"ln":"143.18282100000"
},
"geometry":{
"type":"Point",
"coordinates":[
143.182821,
43.051813
]
}
},
{
"type":"Feature",
"properties":{
"Name":"昭和小学校",
"Jusho":"北海道河東郡音更町字東和東1線19番地",
"Capacity":"－",
"la":"42.99579400000",
"ln":"143.24223500000"
},
"geometry":{
"type":"Point",
"coordinates":[
143.242235,
42.995794
]
}
},
{
"type":"Feature",
"properties":{
"Name":"西中音更小学校",
"Jusho":"北海道河東郡音更町字西中音更北15線7番地",
"Capacity":"－",
"la":"43.13732900000",
"ln":"143.09815700000"
},
"geometry":{
"type":"Point",
"coordinates":[
143.098157,
43.137329
]
}
},
{
"type":"Feature",
"properties":{
"Name":"東士狩小学校",
"Jusho":"北海道河東郡音更町字東士狩西7線52番地",
"Capacity":"－",
"la":"43.01645500000",
"ln":"143.14702000000"
},
"geometry":{
"type":"Point",
"coordinates":[
143.14702,
43.016455
]
}
},
{
"type":"Feature",
"properties":{
"Name":"東士幌小学校",
"Jusho":"北海道河東郡音更町字東音更東4線15番地",
"Capacity":"－",
"la":"43.04284400000",
"ln":"143.26001000000"
},
"geometry":{
"type":"Point",
"coordinates":[
143.26001,
43.042844
]
}
},
{
"type":"Feature",
"properties":{
"Name":"南中音更小学校",
"Jusho":"北海道河東郡音更町字南中音更北4線8番地",
"Capacity":"－",
"la":"43.08841600000",
"ln":"143.07616100000"
},
"geometry":{
"type":"Point",
"coordinates":[
143.076161,
43.088416
]
}
},
{
"type":"Feature",
"properties":{
"Name":"豊田小学校",
"Jusho":"北海道河東郡音更町字豊田東4線27番地",
"Capacity":"－",
"la":"43.09317400000",
"ln":"143.27334000000"
},
"geometry":{
"type":"Point",
"coordinates":[
143.27334,
43.093174
]
}
},
{
"type":"Feature",
"properties":{
"Name":"木野東小学校",
"Jusho":"北海道河東郡音更町木野東通5丁目6番地",
"Capacity":"－",
"la":"42.94613300000",
"ln":"143.20838100000"
},
"geometry":{
"type":"Point",
"coordinates":[
143.208381,
42.946133
]
}
},
{
"type":"Feature",
"properties":{
"Name":"柳町小学校",
"Jusho":"北海道河東郡音更町柳町南区14番地",
"Capacity":"－",
"la":"42.96844800000",
"ln":"143.21158700000"
},
"geometry":{
"type":"Point",
"coordinates":[
143.211587,
42.968448
]
}
},
{
"type":"Feature",
"properties":{
"Name":"緑陽台小学校",
"Jusho":"北海道河東郡音更町字下音更北7線西7番地",
"Capacity":"－",
"la":"42.96782400000",
"ln":"143.19093700000"
},
"geometry":{
"type":"Point",
"coordinates":[
143.190937,
42.967824
]
}
},
{
"type":"Feature",
"properties":{
"Name":"鈴蘭小学校",
"Jusho":"北海道河東郡音更町すずらん台北町2丁目1",
"Capacity":"－",
"la":"42.95446400000",
"ln":"143.18421600000"
},
"geometry":{
"type":"Point",
"coordinates":[
143.184216,
42.954464
]
}
},
{
"type":"Feature",
"properties":{
"Name":"下居辺小学校",
"Jusho":"北海道河東郡士幌町下居辺西2－14",
"Capacity":"－",
"la":"43.12242200000",
"ln":"143.37360500000"
},
"geometry":{
"type":"Point",
"coordinates":[
143.373605,
43.122422
]
}
},
{
"type":"Feature",
"properties":{
"Name":"佐倉小学校",
"Jusho":"北海道河東郡士幌町士幌東7－32",
"Capacity":"－",
"la":"43.14216900000",
"ln":"143.30480400000"
},
"geometry":{
"type":"Point",
"coordinates":[
143.304804,
43.142169
]
}
},
{
"type":"Feature",
"properties":{
"Name":"士幌小学校",
"Jusho":"北海道河東郡士幌町士幌西2－64",
"Capacity":"－",
"la":"43.16888500000",
"ln":"143.24331000000"
},
"geometry":{
"type":"Point",
"coordinates":[
143.24331,
43.168885
]
}
},
{
"type":"Feature",
"properties":{
"Name":"上居辺小学校",
"Jusho":"北海道河東郡士幌町士幌東7－75",
"Capacity":"－",
"la":"43.17822100000",
"ln":"143.30966500000"
},
"geometry":{
"type":"Point",
"coordinates":[
143.309665,
43.178221
]
}
},
{
"type":"Feature",
"properties":{
"Name":"新田小学校",
"Jusho":"北海道河東郡士幌町上音更21-93",
"Capacity":"－",
"la":"43.18665800000",
"ln":"143.13906900000"
},
"geometry":{
"type":"Point",
"coordinates":[
143.139069,
43.186658
]
}
},
{
"type":"Feature",
"properties":{
"Name":"西上音更小学校",
"Jusho":"北海道河東郡士幌町上音更西3-229",
"Capacity":"－",
"la":"43.21429600000",
"ln":"143.21281200000"
},
"geometry":{
"type":"Point",
"coordinates":[
143.212812,
43.214296
]
}
},
{
"type":"Feature",
"properties":{
"Name":"中士幌小学校",
"Jusho":"北海道河東郡士幌町中士幌西2-88",
"Capacity":"－",
"la":"43.10567000000",
"ln":"143.23084100000"
},
"geometry":{
"type":"Point",
"coordinates":[
143.230841,
43.10567
]
}
},
{
"type":"Feature",
"properties":{
"Name":"北中音更小学校",
"Jusho":"北海道河東郡士幌町中音更西3－80",
"Capacity":"－",
"la":"43.17467300000",
"ln":"143.19609900000"
},
"geometry":{
"type":"Point",
"coordinates":[
143.196099,
43.174673
]
}
},
{
"type":"Feature",
"properties":{
"Name":"旧上音更小学校グランド",
"Jusho":"北海道河東郡上士幌町字上音更東1線274",
"Capacity":"－",
"la":"43.24604500000",
"ln":"143.24908400000"
},
"geometry":{
"type":"Point",
"coordinates":[
143.249084,
43.246045
]
}
},
{
"type":"Feature",
"properties":{
"Name":"旧東居辺小学校グランド",
"Jusho":"北海道河東郡上士幌町字居辺東15線229",
"Capacity":"－",
"la":"43.21652500000",
"ln":"143.37215600000"
},
"geometry":{
"type":"Point",
"coordinates":[
143.372156,
43.216525
]
}
},
{
"type":"Feature",
"properties":{
"Name":"上士幌小学校",
"Jusho":"北海道河東郡上士幌町上士幌東1線233番地",
"Capacity":"2300",
"la":"43.23110300000",
"ln":"143.27969300000"
},
"geometry":{
"type":"Point",
"coordinates":[
143.279693,
43.231103
]
}
},
{
"type":"Feature",
"properties":{
"Name":"萩ケ岡小学校",
"Jusho":"北海道河東郡上士幌町居辺東6線300番地",
"Capacity":"530",
"la":"43.28112600000",
"ln":"143.32810100000"
},
"geometry":{
"type":"Point",
"coordinates":[
143.328101,
43.281126
]
}
},
{
"type":"Feature",
"properties":{
"Name":"北居辺小学校",
"Jusho":"北海道河東郡上士幌町居辺東9線235番地",
"Capacity":"500",
"la":"43.22566100000",
"ln":"143.33396500000"
},
"geometry":{
"type":"Point",
"coordinates":[
143.333965,
43.225661
]
}
},
{
"type":"Feature",
"properties":{
"Name":"北門小学校",
"Jusho":"北海道河東郡上士幌町居辺東15線291番地",
"Capacity":"580",
"la":"43.26751900000",
"ln":"143.38498500000"
},
"geometry":{
"type":"Point",
"coordinates":[
143.384985,
43.267519
]
}
},
{
"type":"Feature",
"properties":{
"Name":"瓜幕小学校体育館",
"Jusho":"北海道河東郡鹿追町瓜幕東3丁目8",
"Capacity":"7550",
"la":"43.16932400000",
"ln":"143.02843900000"
},
"geometry":{
"type":"Point",
"coordinates":[
143.028439,
43.169324
]
}
},
{
"type":"Feature",
"properties":{
"Name":"笹川小学校体育館",
"Jusho":"北海道河東郡鹿追町笹川北9線10-31",
"Capacity":"3830",
"la":"43.13210400000",
"ln":"142.99113800000"
},
"geometry":{
"type":"Point",
"coordinates":[
142.991138,
43.132104
]
}
},
{
"type":"Feature",
"properties":{
"Name":"鹿追小学校体育館",
"Jusho":"北海道河東郡鹿追町東町3丁目2",
"Capacity":"12960",
"la":"43.09729097230",
"ln":"142.99172173900"
},
"geometry":{
"type":"Point",
"coordinates":[
142.991721739,
43.0972909723
]
}
},
{
"type":"Feature",
"properties":{
"Name":"上幌内小学校体育館",
"Jusho":"北海道河東郡鹿追町上幌内4線北",
"Capacity":"5240",
"la":"43.14992800000",
"ln":"142.93913800000"
},
"geometry":{
"type":"Point",
"coordinates":[
142.939138,
43.149928
]
}
},
{
"type":"Feature",
"properties":{
"Name":"通明小学校体育館",
"Jusho":"北海道河東郡鹿追町中瓜幕西20線25",
"Capacity":"5710",
"la":"43.17111200000",
"ln":"143.08141200000"
},
"geometry":{
"type":"Point",
"coordinates":[
143.081412,
43.171112
]
}
},
{
"type":"Feature",
"properties":{
"Name":"旧上佐幌小学校",
"Jusho":"北海道上川郡新得町字上佐幌基線86番地",
"Capacity":"－",
"la":"43.13390744830",
"ln":"142.86205065800"
},
"geometry":{
"type":"Point",
"coordinates":[
142.862050658,
43.1339074483
]
}
},
{
"type":"Feature",
"properties":{
"Name":"屈足南小学校",
"Jusho":"北海道上川郡新得町屈足柏町2丁目63",
"Capacity":"－",
"la":"43.10382600000",
"ln":"142.90514700000"
},
"geometry":{
"type":"Point",
"coordinates":[
142.905147,
43.103826
]
}
},
{
"type":"Feature",
"properties":{
"Name":"新得小学校",
"Jusho":"北海道上川郡新得町西2条北1丁目1",
"Capacity":"－",
"la":"43.08154800000",
"ln":"142.82707000000"
},
"geometry":{
"type":"Point",
"coordinates":[
142.82707,
43.081548
]
}
},
{
"type":"Feature",
"properties":{
"Name":"旧下佐幌小学校",
"Jusho":"北海道上川郡清水町字下佐幌基線98",
"Capacity":"－",
"la":"43.04571184860",
"ln":"142.89095741800"
},
"geometry":{
"type":"Point",
"coordinates":[
142.890957418,
43.0457118486
]
}
},
{
"type":"Feature",
"properties":{
"Name":"旧熊牛小学校",
"Jusho":"北海道上川郡清水町字熊牛68",
"Capacity":"－",
"la":"43.01390114310",
"ln":"142.95228308700"
},
"geometry":{
"type":"Point",
"coordinates":[
142.952283087,
43.0139011431
]
}
},
{
"type":"Feature",
"properties":{
"Name":"旧松沢小学校",
"Jusho":"北海道上川郡清水町字熊牛11",
"Capacity":"－",
"la":"42.97681039990",
"ln":"142.97842218700"
},
"geometry":{
"type":"Point",
"coordinates":[
142.978422187,
42.9768103999
]
}
},
{
"type":"Feature",
"properties":{
"Name":"旧北熊牛小学校",
"Jusho":"北海道上川郡清水町字熊牛125",
"Capacity":"－",
"la":"43.06866475900",
"ln":"142.93563667400"
},
"geometry":{
"type":"Point",
"coordinates":[
142.935636674,
43.068664759
]
}
},
{
"type":"Feature",
"properties":{
"Name":"御影小学校",
"Jusho":"北海道上川郡清水町御影東2条3丁目2",
"Capacity":"－",
"la":"42.94329000000",
"ln":"142.94040200000"
},
"geometry":{
"type":"Point",
"coordinates":[
142.940402,
42.94329
]
}
},
{
"type":"Feature",
"properties":{
"Name":"清水小学校",
"Jusho":"北海道上川郡清水町字清水第2線71",
"Capacity":"－",
"la":"43.01905700000",
"ln":"142.87379200000"
},
"geometry":{
"type":"Point",
"coordinates":[
142.873792,
43.019057
]
}
},
{
"type":"Feature",
"properties":{
"Name":"美蔓福祉館（旧美蔓小学校）",
"Jusho":"北海道上川郡清水町字美蔓西23線85",
"Capacity":"－",
"la":"43.03760901900",
"ln":"142.97272593500"
},
"geometry":{
"type":"Point",
"coordinates":[
142.972725935,
43.037609019
]
}
},
{
"type":"Feature",
"properties":{
"Name":"芽室小学校",
"Jusho":"北海道河西郡芽室町東4条南2丁目1",
"Capacity":"－",
"la":"42.90821500000",
"ln":"143.05636700000"
},
"geometry":{
"type":"Point",
"coordinates":[
143.056367,
42.908215
]
}
},
{
"type":"Feature",
"properties":{
"Name":"芽室西小学校",
"Jusho":"北海道河西郡芽室町西3条6丁目2",
"Capacity":"－",
"la":"42.91613100000",
"ln":"143.04339600000"
},
"geometry":{
"type":"Point",
"coordinates":[
143.043396,
42.916131
]
}
},
{
"type":"Feature",
"properties":{
"Name":"芽室南小学校",
"Jusho":"北海道河西郡芽室町新生南6線25",
"Capacity":"－",
"la":"42.89260600000",
"ln":"143.05859000000"
},
"geometry":{
"type":"Point",
"coordinates":[
143.05859,
42.892606
]
}
},
{
"type":"Feature",
"properties":{
"Name":"旧栄小学校グラウンド",
"Jusho":"北海道河西郡芽室町栄3線24",
"Capacity":"－",
"la":"42.82159382090",
"ln":"143.06674339000"
},
"geometry":{
"type":"Point",
"coordinates":[
143.06674339,
42.8215938209
]
}
},
{
"type":"Feature",
"properties":{
"Name":"旧祥栄小学校グラウンド",
"Jusho":"北海道河西郡芽室町祥栄西14線2",
"Capacity":"－",
"la":"42.96641795430",
"ln":"143.04049787900"
},
"geometry":{
"type":"Point",
"coordinates":[
143.040497879,
42.9664179543
]
}
},
{
"type":"Feature",
"properties":{
"Name":"旧上伏古小学校グラウンド",
"Jusho":"北海道河西郡芽室町上伏古9線18",
"Capacity":"－",
"la":"42.79638433870",
"ln":"143.00699011200"
},
"geometry":{
"type":"Point",
"coordinates":[
143.006990112,
42.7963843387
]
}
},
{
"type":"Feature",
"properties":{
"Name":"旧西士狩小学校グラウンド",
"Jusho":"北海道河西郡芽室町西士狩北4線48",
"Capacity":"－",
"la":"42.94351050420",
"ln":"143.09224073900"
},
"geometry":{
"type":"Point",
"coordinates":[
143.092240739,
42.9435105042
]
}
},
{
"type":"Feature",
"properties":{
"Name":"旧中伏古小学校グラウンド",
"Jusho":"北海道河西郡芽室町中伏古5線18",
"Capacity":"－",
"la":"42.85789268490",
"ln":"143.07126808600"
},
"geometry":{
"type":"Point",
"coordinates":[
143.071268086,
42.8578926849
]
}
},
{
"type":"Feature",
"properties":{
"Name":"旧平和小学校グラウンド",
"Jusho":"北海道河西郡芽室町平和西16線19",
"Capacity":"－",
"la":"43.00006956590",
"ln":"143.02411185300"
},
"geometry":{
"type":"Point",
"coordinates":[
143.024111853,
43.0000695659
]
}
},
{
"type":"Feature",
"properties":{
"Name":"旧明正小学校グラウンド",
"Jusho":"北海道河西郡芽室町坂の上10線47",
"Capacity":"－",
"la":"42.83046777540",
"ln":"143.02168626200"
},
"geometry":{
"type":"Point",
"coordinates":[
143.021686262,
42.8304677754
]
}
},
{
"type":"Feature",
"properties":{
"Name":"旧毛根小学校グラウンド",
"Jusho":"北海道河西郡芽室町毛根北5線9",
"Capacity":"－",
"la":"42.94405200000",
"ln":"143.01397200000"
},
"geometry":{
"type":"Point",
"coordinates":[
143.013972,
42.944052
]
}
},
{
"type":"Feature",
"properties":{
"Name":"上美生小学校",
"Jusho":"北海道河西郡芽室町上美生4線38",
"Capacity":"－",
"la":"42.80347300000",
"ln":"142.95399300000"
},
"geometry":{
"type":"Point",
"coordinates":[
142.953993,
42.803473
]
}
},
{
"type":"Feature",
"properties":{
"Name":"上札内小学校",
"Jusho":"北海道河西郡中札内村上札内134",
"Capacity":"－",
"la":"42.63896600000",
"ln":"143.09564900000"
},
"geometry":{
"type":"Point",
"coordinates":[
143.095649,
42.638966
]
}
},
{
"type":"Feature",
"properties":{
"Name":"更別小学校（体育館）",
"Jusho":"北海道河西郡更別村字更別南1線101",
"Capacity":"－",
"la":"42.65560800000",
"ln":"143.19412000000"
},
"geometry":{
"type":"Point",
"coordinates":[
143.19412,
42.655608
]
}
},
{
"type":"Feature",
"properties":{
"Name":"旧中島小学校体育館",
"Jusho":"北海道広尾郡大樹町字中島172番地",
"Capacity":"－",
"la":"42.43444500000",
"ln":"143.36331200000"
},
"geometry":{
"type":"Point",
"coordinates":[
143.363312,
42.434445
]
}
},
{
"type":"Feature",
"properties":{
"Name":"旧歴舟小学校体育館",
"Jusho":"北海道広尾郡大樹町字芽武183番地",
"Capacity":"－",
"la":"42.47713701520",
"ln":"143.36841146100"
},
"geometry":{
"type":"Point",
"coordinates":[
143.368411461,
42.4771370152
]
}
},
{
"type":"Feature",
"properties":{
"Name":"大樹小学校体育館",
"Jusho":"北海道広尾郡大樹町東本通54番地",
"Capacity":"－",
"la":"42.49565600000",
"ln":"143.28014900000"
},
"geometry":{
"type":"Point",
"coordinates":[
143.280149,
42.495656
]
}
},
{
"type":"Feature",
"properties":{
"Name":"旧音調津小学校",
"Jusho":"北海道広尾郡広尾町音調津117",
"Capacity":"500",
"la":"42.22061900000",
"ln":"143.31567400000"
},
"geometry":{
"type":"Point",
"coordinates":[
143.315674,
42.220619
]
}
},
{
"type":"Feature",
"properties":{
"Name":"広尾小学校",
"Jusho":"北海道広尾郡広尾町西4条9丁目2",
"Capacity":"2000",
"la":"42.28671300000",
"ln":"143.30883300000"
},
"geometry":{
"type":"Point",
"coordinates":[
143.308833,
42.286713
]
}
},
{
"type":"Feature",
"properties":{
"Name":"広尾第二小学校",
"Jusho":"北海道広尾郡広尾町公園通南4丁目9",
"Capacity":"2000",
"la":"42.30018000000",
"ln":"143.30365900000"
},
"geometry":{
"type":"Point",
"coordinates":[
143.303659,
42.30018
]
}
},