var o={
"type": "FeatureCollection",
"features": [
{
"type": "Feature",
"properties": {
"Name": "アイスアリーナ・総合プール",
"Jusho": "岩手県盛岡市本宮字松幅100－",
"Capacity": "3901",
"la": "39.69099975020",
"ln": "141.12039374300"
},
"geometry": {
"type": "Point",
"coordinates": [
141.120393743,
39.6909997502
]
}
},
{
"type": "Feature",
"properties": {
"Name": "つなぎ地区活動センター",
"Jusho": "岩手県盛岡市繋堂ヶ沢36番地1",
"Capacity": "166",
"la": "39.68369500000",
"ln": "141.01502700000"
},
"geometry": {
"type": "Point",
"coordinates": [
141.015027,
39.683695
]
}
},
{
"type": "Feature",
"properties": {
"Name": "つなぎ老人憩いの家",
"Jusho": "岩手県盛岡市繋字舘市100番10号",
"Capacity": "16",
"la": "39.67452400000",
"ln": "141.02019100000"
},
"geometry": {
"type": "Point",
"coordinates": [
141.020191,
39.674524
]
}
},
{
"type": "Feature",
"properties": {
"Name": "ふれあいランド岩手",
"Jusho": "岩手県盛岡市三本柳8地割1番地3",
"Capacity": "6645",
"la": "39.65626078970",
"ln": "141.16699836500"
},
"geometry": {
"type": "Point",
"coordinates": [
141.166998365,
39.6562607897
]
}
},
{
"type": "Feature",
"properties": {
"Name": "マリオス",
"Jusho": "岩手県盛岡市盛岡駅西通二丁目9番1号",
"Capacity": "5000",
"la": "39.70119095200",
"ln": "141.13348465700"
},
"geometry": {
"type": "Point",
"coordinates": [
141.133484657,
39.701190952
]
}
},
{
"type": "Feature",
"properties": {
"Name": "みたけ児童センター",
"Jusho": "岩手県盛岡市みたけ四丁目14番36号",
"Capacity": "67",
"la": "39.74523927460",
"ln": "141.11878709500"
},
"geometry": {
"type": "Point",
"coordinates": [
141.118787095,
39.7452392746
]
}
},
{
"type": "Feature",
"properties": {
"Name": "みたけ地区活動センター",
"Jusho": "岩手県盛岡市みたけ四丁目10番52号",
"Capacity": "129",
"la": "39.74315583150",
"ln": "141.12129233100"
},
"geometry": {
"type": "Point",
"coordinates": [
141.121292331,
39.7431558315
]
}
},
{
"type": "Feature",
"properties": {
"Name": "愛宕山老人福祉センター",
"Jusho": "岩手県盛岡市愛宕下14",
"Capacity": "39",
"la": "39.71321000000",
"ln": "141.16056900000"
},
"geometry": {
"type": "Point",
"coordinates": [
141.160569,
39.71321
]
}
},
{
"type": "Feature",
"properties": {
"Name": "芋田向地区介護予防センター",
"Jusho": "岩手県盛岡市玉山区好摩字上山1-46",
"Capacity": "43",
"la": "39.86789268170",
"ln": "141.16963209500"
},
"geometry": {
"type": "Point",
"coordinates": [
141.169632095,
39.8678926817
]
}
},
{
"type": "Feature",
"properties": {
"Name": "芋田地区コミュニティセンター",
"Jusho": "岩手県盛岡市玉山区芋田字下芋田109番地2",
"Capacity": "39",
"la": "39.86628086060",
"ln": "141.17706676800"
},
"geometry": {
"type": "Point",
"coordinates": [
141.177066768,
39.8662808606
]
}
},
{
"type": "Feature",
"properties": {
"Name": "宇津野公民館",
"Jusho": "岩手県盛岡市川目第9地割",
"Capacity": "50",
"la": "39.67713400000",
"ln": "141.18814600000"
},
"geometry": {
"type": "Point",
"coordinates": [
141.188146,
39.677134
]
}
},
{
"type": "Feature",
"properties": {
"Name": "永井児童センター",
"Jusho": "岩手県盛岡市永井18地割28番1号",
"Capacity": "55",
"la": "39.65268600000",
"ln": "141.14441300000"
},
"geometry": {
"type": "Point",
"coordinates": [
141.144413,
39.652686
]
}
},
{
"type": "Feature",
"properties": {
"Name": "永井地区コミュニティセンター",
"Jusho": "岩手県盛岡市玉山区永井字永井沢117番地1",
"Capacity": "42",
"la": "39.90746500000",
"ln": "141.18862600000"
},
"geometry": {
"type": "Point",
"coordinates": [
141.188626,
39.907465
]
}
},
{
"type": "Feature",
"properties": {
"Name": "乙部児童センター",
"Jusho": "岩手県盛岡市乙部8地割3番4号",
"Capacity": "67",
"la": "39.61478600000",
"ln": "141.20056100000"
},
"geometry": {
"type": "Point",
"coordinates": [
141.200561,
39.614786
]
}
},
{
"type": "Feature",
"properties": {
"Name": "乙部体育館",
"Jusho": "岩手県盛岡市乙部6地割79番1",
"Capacity": "154",
"la": "39.61599517540",
"ln": "141.19318777400"
},
"geometry": {
"type": "Point",
"coordinates": [
141.193187774,
39.6159951754
]
}
},
{
"type": "Feature",
"properties": {
"Name": "乙部地区公民館",
"Jusho": "岩手県盛岡市乙部6地割79番1",
"Capacity": "201",
"la": "39.61608100000",
"ln": "141.19339500000"
},
"geometry": {
"type": "Point",
"coordinates": [
141.193395,
39.616081
]
}
},
{
"type": "Feature",
"properties": {
"Name": "乙部老人福祉センター",
"Jusho": "岩手県盛岡市乙部28地割34番5号",
"Capacity": "35",
"la": "39.60697400000",
"ln": "141.20004400000"
},
"geometry": {
"type": "Point",
"coordinates": [
141.200044,
39.606974
]
}
},
{
"type": "Feature",
"properties": {
"Name": "下太田児童センター・下太田老人福祉センター",
"Jusho": "岩手県盛岡市下太田榊14番地22",
"Capacity": "133",
"la": "39.69617500000",
"ln": "141.11711300000"
},
"geometry": {
"type": "Point",
"coordinates": [
141.117113,
39.696175
]
}
},
{
"type": "Feature",
"properties": {
"Name": "下田川崎地区コミュニティセンター",
"Jusho": "岩手県盛岡市玉山区下田字上下田89-3",
"Capacity": "54",
"la": "39.85266100000",
"ln": "141.15930400000"
},
"geometry": {
"type": "Point",
"coordinates": [
141.159304,
39.852661
]
}
},
{
"type": "Feature",
"properties": {
"Name": "下田保育園",
"Jusho": "岩手県盛岡市玉山区下田字生出袋80－",
"Capacity": "34",
"la": "39.84904700000",
"ln": "141.15744800000"
},
"geometry": {
"type": "Point",
"coordinates": [
141.157448,
39.849047
]
}
},
{
"type": "Feature",
"properties": {
"Name": "加賀野児童センター・加賀野老人福祉センター",
"Jusho": "岩手県盛岡市加賀野四丁目18番56号",
"Capacity": "111",
"la": "39.70918299910",
"ln": "141.16958800000"
},
"geometry": {
"type": "Point",
"coordinates": [
141.169588,
39.7091829991
]
}
},
{
"type": "Feature",
"properties": {
"Name": "加賀野地区活動センター",
"Jusho": "岩手県盛岡市加賀野四丁目18番55号",
"Capacity": "343",
"la": "39.70943300000",
"ln": "141.16965200000"
},
"geometry": {
"type": "Point",
"coordinates": [
141.169652,
39.709433
]
}
},
{
"type": "Feature",
"properties": {
"Name": "河南公民館",
"Jusho": "岩手県盛岡市松尾町3番1号",
"Capacity": "1981",
"la": "39.69623200000",
"ln": "141.15847800000"
},
"geometry": {
"type": "Point",
"coordinates": [
141.158478,
39.696232
]
}
},
{
"type": "Feature",
"properties": {
"Name": "河北児童センター",
"Jusho": "岩手県盛岡市西下台町10番46号",
"Capacity": "60",
"la": "39.71300700000",
"ln": "141.13506600000"
},
"geometry": {
"type": "Point",
"coordinates": [
141.135066,
39.713007
]
}
},
{
"type": "Feature",
"properties": {
"Name": "柿の木平グラウンド跡",
"Jusho": "岩手県盛岡市浅岸字向田5",
"Capacity": "700",
"la": "39.71006298840",
"ln": "141.18500613000"
},
"geometry": {
"type": "Point",
"coordinates": [
141.18500613,
39.7100629884
]
}
},
{
"type": "Feature",
"properties": {
"Name": "巻堀児童館",
"Jusho": "岩手県盛岡市玉山区巻堀字巻堀101－",
"Capacity": "41",
"la": "39.89231696180",
"ln": "141.19548853200"
},
"geometry": {
"type": "Point",
"coordinates": [
141.195488532,
39.8923169618
]
}
},
{
"type": "Feature",
"properties": {
"Name": "巻堀地区コミュニティセンター",
"Jusho": "岩手県盛岡市玉山区巻堀字巻堀33-2",
"Capacity": "51",
"la": "39.89299600000",
"ln": "141.19493000000"
},
"geometry": {
"type": "Point",
"coordinates": [
141.19493,
39.892996
]
}
},
{
"type": "Feature",
"properties": {
"Name": "岩手医大緑が丘グラウンド",
"Jusho": "岩手県盛岡市箱清水一丁目1番地内",
"Capacity": "11700",
"la": "39.73256118750",
"ln": "141.13859594000"
},
"geometry": {
"type": "Point",
"coordinates": [
141.13859594,
39.7325611875
]
}
},
{
"type": "Feature",
"properties": {
"Name": "岩手県工業技術センター",
"Jusho": "岩手県盛岡市飯岡新田3地割35番地2",
"Capacity": "649",
"la": "39.67580831890",
"ln": "141.12992274100"
},
"geometry": {
"type": "Point",
"coordinates": [
141.129922741,
39.6758083189
]
}
},
{
"type": "Feature",
"properties": {
"Name": "岩手県国際交流センター",
"Jusho": "岩手県盛岡市盛岡駅西通一丁目7番1号",
"Capacity": "123",
"la": "39.70197200000",
"ln": "141.13273800000"
},
"geometry": {
"type": "Point",
"coordinates": [
141.132738,
39.701972
]
}
},
{
"type": "Feature",
"properties": {
"Name": "岩手県視覚障害者福祉会館（盛岡盲人ホーム）",
"Jusho": "岩手県盛岡市本町通三丁目6番20号",
"Capacity": "42",
"la": "39.71039300000",
"ln": "141.14784000000"
},
"geometry": {
"type": "Point",
"coordinates": [
141.14784,
39.710393
]
}
},
{
"type": "Feature",
"properties": {
"Name": "岩手自動車学校",
"Jusho": "岩手県盛岡市高崩2番5号",
"Capacity": "5350",
"la": "39.68598967420",
"ln": "141.16376408900"
},
"geometry": {
"type": "Point",
"coordinates": [
141.163764089,
39.6859896742
]
}
},
{
"type": "Feature",
"properties": {
"Name": "岩手女子高等学校",
"Jusho": "岩手県盛岡市大沢川原一丁目5番34号",
"Capacity": "1250",
"la": "39.69948100000",
"ln": "141.14620400000"
},
"geometry": {
"type": "Point",
"coordinates": [
141.146204,
39.699481
]
}
},
{
"type": "Feature",
"properties": {
"Name": "岩手大学附属特別支援学校",
"Jusho": "岩手県盛岡市東安庭三丁目4番20号",
"Capacity": "2000",
"la": "39.67865000000",
"ln": "141.16731400000"
},
"geometry": {
"type": "Point",
"coordinates": [
141.167314,
39.67865
]
}
},
{
"type": "Feature",
"properties": {
"Name": "岩手大学野球部グラウンド",
"Jusho": "岩手県盛岡市上田四丁目3番",
"Capacity": "9645",
"la": "39.71969527870",
"ln": "141.13231252600"
},
"geometry": {
"type": "Point",
"coordinates": [
141.132312526,
39.7196952787
]
}
},
{
"type": "Feature",
"properties": {
"Name": "岩洞活性化センター",
"Jusho": "岩手県盛岡市玉山区薮川字外山35-45",
"Capacity": "128",
"la": "39.82803400000",
"ln": "141.36318900000"
},
"geometry": {
"type": "Point",
"coordinates": [
141.363189,
39.828034
]
}
},
{
"type": "Feature",
"properties": {
"Name": "岩洞生活改善センター",
"Jusho": "岩手県盛岡市玉山区薮川字外山35-44",
"Capacity": "29",
"la": "39.82780500000",
"ln": "141.36311600000"
},
"geometry": {
"type": "Point",
"coordinates": [
141.363116,
39.827805
]
}
},
{
"type": "Feature",
"properties": {
"Name": "玉山健康増進センター",
"Jusho": "岩手県盛岡市玉山区日戸字鷹高50-4",
"Capacity": "149",
"la": "39.79469100000",
"ln": "141.19216400000"
},
"geometry": {
"type": "Point",
"coordinates": [
141.192164,
39.794691
]
}
},
{
"type": "Feature",
"properties": {
"Name": "玉山商工会館",
"Jusho": "岩手県盛岡市玉山区好摩字芋田向85-29",
"Capacity": "50",
"la": "39.86458598960",
"ln": "141.16738966600"
},
"geometry": {
"type": "Point",
"coordinates": [
141.167389666,
39.8645859896
]
}
},
{
"type": "Feature",
"properties": {
"Name": "玉山総合福祉センター",
"Jusho": "岩手県盛岡市玉山区渋民字泉田77－",
"Capacity": "93",
"la": "39.84672331390",
"ln": "141.16697316000"
},
"geometry": {
"type": "Point",
"coordinates": [
141.16697316,
39.8467233139
]
}
},
{
"type": "Feature",
"properties": {
"Name": "玉山地区公民館",
"Jusho": "岩手県盛岡市玉山区日戸字鷹高50－6",
"Capacity": "57",
"la": "39.79559300000",
"ln": "141.19169000000"
},
"geometry": {
"type": "Point",
"coordinates": [
141.19169,
39.795593
]
}
},
{
"type": "Feature",
"properties": {
"Name": "玉山保育園",
"Jusho": "岩手県盛岡市玉山区日戸字市の坪59",
"Capacity": "25",
"la": "39.79716600000",
"ln": "141.19291900000"
},
"geometry": {
"type": "Point",
"coordinates": [
141.192919,
39.797166
]
}
},
{
"type": "Feature",
"properties": {
"Name": "勤労福祉会館",
"Jusho": "岩手県盛岡市紺屋町2番9号",
"Capacity": "1312",
"la": "39.70163100000",
"ln": "141.15609800000"
},
"geometry": {
"type": "Point",
"coordinates": [
141.156098,
39.701631
]
}
},
{
"type": "Feature",
"properties": {
"Name": "月が丘児童センタ",
"Jusho": "岩手県盛岡市-月が丘二丁目2番65号",
"Capacity": "64",
"la": "39.73136499910",
"ln": "141.10831700000"
},
"geometry": {
"type": "Point",
"coordinates": [
141.108317,
39.7313649991
]
}
},
{
"type": "Feature",
"properties": {
"Name": "県営野球場（第１駐車場）",
"Jusho": "岩手県盛岡市三ツ割四丁目9番",
"Capacity": "3190",
"la": "39.73059760840",
"ln": "141.16239602100"
},
"geometry": {
"type": "Point",
"coordinates": [
141.162396021,
39.7305976084
]
}
},
{
"type": "Feature",
"properties": {
"Name": "見前地区公民館",
"Jusho": "岩手県盛岡市津志田中央二丁目9番1号",
"Capacity": "110",
"la": "39.66178500000",
"ln": "141.15646800000"
},
"geometry": {
"type": "Point",
"coordinates": [
141.156468,
39.661785
]
}
},
{
"type": "Feature",
"properties": {
"Name": "好摩児童館",
"Jusho": "岩手県盛岡市玉山区好摩字野中69-85",
"Capacity": "36",
"la": "39.87762921980",
"ln": "141.16653736600"
},
"geometry": {
"type": "Point",
"coordinates": [
141.166537366,
39.8776292198
]
}
},
{
"type": "Feature",
"properties": {
"Name": "好摩体育館",
"Jusho": "岩手県盛岡市玉山区好摩字野中69-48",
"Capacity": "139",
"la": "39.87717476010",
"ln": "141.16724327500"
},
"geometry": {
"type": "Point",
"coordinates": [
141.167243275,
39.8771747601
]
}
},
{
"type": "Feature",
"properties": {
"Name": "好摩地区コミュニティセンター",
"Jusho": "岩手県盛岡市玉山区好摩字野中67－0",
"Capacity": "84",
"la": "39.87596700000",
"ln": "141.16793800000"
},
"geometry": {
"type": "Point",
"coordinates": [
141.167938,
39.875967
]
}
},
{
"type": "Feature",
"properties": {
"Name": "好摩東地区コミュニティセンター",
"Jusho": "岩手県盛岡市玉山区好摩字上山3-38",
"Capacity": "49",
"la": "39.87557299910",
"ln": "141.17582700000"
},
"geometry": {
"type": "Point",
"coordinates": [
141.175827,
39.8755729991
]
}
},
{
"type": "Feature",
"properties": {
"Name": "好摩保育所",
"Jusho": "岩手県盛岡市玉山区好摩字野中69－12",
"Capacity": "48",
"la": "39.87791723590",
"ln": "141.16683965100"
},
"geometry": {
"type": "Point",
"coordinates": [
141.166839651,
39.8779172359
]
}
},
{
"type": "Feature",
"properties": {
"Name": "好摩幼稚園",
"Jusho": "岩手県盛岡市玉山区好摩字上山13－",
"Capacity": "35",
"la": "39.87371100000",
"ln": "141.17586200000"
},
"geometry": {
"type": "Point",
"coordinates": [
141.175862,
39.873711
]
}
},
{
"type": "Feature",
"properties": {
"Name": "高松児童センター",
"Jusho": "岩手県盛岡市上田字宇登坂長根41番3号",
"Capacity": "65",
"la": "39.73083800000",
"ln": "141.15573000000"
},
"geometry": {
"type": "Point",
"coordinates": [
141.15573,
39.730838
]
}
},
{
"type": "Feature",
"properties": {
"Name": "高松老人憩いの家",
"Jusho": "岩手県盛岡市高松三丁目8番53号",
"Capacity": "40",
"la": "39.72831600000",
"ln": "141.14196700000"
},
"geometry": {
"type": "Point",
"coordinates": [
141.141967,
39.728316
]
}
},
{
"type": "Feature",
"properties": {
"Name": "桜城児童センター・桜城老人福祉センター",
"Jusho": "岩手県盛岡市大通三丁目8番18号",
"Capacity": "110",
"la": "39.70383600000",
"ln": "141.14040200000"
},
"geometry": {
"type": "Point",
"coordinates": [
141.140402,
39.703836
]
}
},
{
"type": "Feature",
"properties": {
"Name": "山王児童センター・山王老人福祉センター",
"Jusho": "岩手県盛岡市山王町10番25号",
"Capacity": "115",
"la": "39.70015100000",
"ln": "141.16503900000"
},
"geometry": {
"type": "Point",
"coordinates": [
141.165039,
39.700151
]
}
},
{
"type": "Feature",
"properties": {
"Name": "山岸児童センター・山岸老人福祉センター",
"Jusho": "岩手県盛岡市下米内一丁目3番18号",
"Capacity": "113",
"la": "39.71579899910",
"ln": "141.17430400000"
},
"geometry": {
"type": "Point",
"coordinates": [
141.174304,
39.7157989991
]
}
},
{
"type": "Feature",
"properties": {
"Name": "山岸地区活動センター",
"Jusho": "岩手県盛岡市山岸四丁目11番13号",
"Capacity": "172",
"la": "39.72053500000",
"ln": "141.17126200000"
},
"geometry": {
"type": "Point",
"coordinates": [
141.171262,
39.720535
]
}
},
{
"type": "Feature",
"properties": {
"Name": "山岸老人憩いの家",
"Jusho": "岩手県盛岡市山岸六丁目13番13号",
"Capacity": "39",
"la": "39.72807500000",
"ln": "141.17172900000"
},
"geometry": {
"type": "Point",
"coordinates": [
141.171729,
39.728075
]
}
},
{
"type": "Feature",
"properties": {
"Name": "山谷川目地区コミュニティセンター",
"Jusho": "岩手県盛岡市玉山区玉山字糠森73",
"Capacity": "29",
"la": "39.80979400000",
"ln": "141.21613000000"
},
"geometry": {
"type": "Point",
"coordinates": [
141.21613,
39.809794
]
}
},
{
"type": "Feature",
"properties": {
"Name": "山田地区コミュニティセンター",
"Jusho": "岩手県盛岡市玉山区下田字頭無15－2",
"Capacity": "45",
"la": "39.84899901680",
"ln": "141.14977195700"
},
"geometry": {
"type": "Point",
"coordinates": [
141.149771957,
39.8489990168
]
}
},
{
"type": "Feature",
"properties": {
"Name": "市立高等学校",
"Jusho": "岩手県盛岡市上太田上川原96番地",
"Capacity": "26568",
"la": "39.69920099910",
"ln": "141.08648700000"
},
"geometry": {
"type": "Point",
"coordinates": [
141.086487,
39.6992009991
]
}
},
{
"type": "Feature",
"properties": {
"Name": "手代森児童センター",
"Jusho": "岩手県盛岡市黒川6地割12番1号",
"Capacity": "81",
"la": "39.63877600000",
"ln": "141.18893200000"
},
"geometry": {
"type": "Point",
"coordinates": [
141.188932,
39.638776
]
}
},
{
"type": "Feature",
"properties": {
"Name": "就業改善センター（好摩地区公民館）",
"Jusho": "岩手県盛岡市玉山区好摩字野中69-48",
"Capacity": "90",
"la": "39.87725000000",
"ln": "141.16716900000"
},
"geometry": {
"type": "Point",
"coordinates": [
141.167169,
39.87725
]
}
},
{
"type": "Feature",
"properties": {
"Name": "舟田２地区コミュニティセンター",
"Jusho": "岩手県盛岡市玉山区下田字陣場54番地432",
"Capacity": "45",
"la": "39.83642300000",
"ln": "141.15292500000"
},
"geometry": {
"type": "Point",
"coordinates": [
141.152925,
39.836423
]
}
},
{
"type": "Feature",
"properties": {
"Name": "舟田地区介護予防センター",
"Jusho": "岩手県盛岡市玉山区下田字牡丹野59－4",
"Capacity": "63",
"la": "39.83728387720",
"ln": "141.16006120600"
},
"geometry": {
"type": "Point",
"coordinates": [
141.160061206,
39.8372838772
]
}
},
{
"type": "Feature",
"properties": {
"Name": "渋民駅前公民館",
"Jusho": "岩手県盛岡市玉山区下田字陣場",
"Capacity": "20",
"la": "39.83661060970",
"ln": "141.15310694200"
},
"geometry": {
"type": "Point",
"coordinates": [
141.153106942,
39.8366106097
]
}
},
{
"type": "Feature",
"properties": {
"Name": "渋民勤労者研修センター",
"Jusho": "岩手県盛岡市玉山区渋民字渋民13",
"Capacity": "57",
"la": "39.84666500000",
"ln": "141.17062800000"
},
"geometry": {
"type": "Point",
"coordinates": [
141.170628,
39.846665
]
}
},
{
"type": "Feature",
"properties": {
"Name": "渋民公民館",
"Jusho": "岩手県盛岡市玉山区渋民字鶴塚55",
"Capacity": "6221",
"la": "39.84925600000",
"ln": "141.16951400000"
},
"geometry": {
"type": "Point",
"coordinates": [
141.169514,
39.849256
]
}
},
{
"type": "Feature",
"properties": {
"Name": "渋民児童館",
"Jusho": "岩手県盛岡市玉山区渋民字鶴塚62－",
"Capacity": "43",
"la": "39.84863100000",
"ln": "141.16922500000"
},
"geometry": {
"type": "Point",
"coordinates": [
141.169225,
39.848631
]
}
},
{
"type": "Feature",
"properties": {
"Name": "渋民地区コミュニティセンター",
"Jusho": "岩手県盛岡市玉山区渋民字小前田16-2",
"Capacity": "45",
"la": "39.84305700000",
"ln": "141.16576200000"
},
"geometry": {
"type": "Point",
"coordinates": [
141.165762,
39.843057
]
}
},
{
"type": "Feature",
"properties": {
"Name": "渋民保育園",
"Jusho": "岩手県盛岡市玉山区渋民字渋民1－",
"Capacity": "36",
"la": "39.84487599910",
"ln": "141.17248300000"
},
"geometry": {
"type": "Point",
"coordinates": [
141.172483,
39.8448759991
]
}
},
{
"type": "Feature",
"properties": {
"Name": "小袋夏間木公民館",
"Jusho": "岩手県盛岡市玉山区好摩字夏間木",
"Capacity": "36",
"la": "39.87392213210",
"ln": "141.16314286900"
},
"geometry": {
"type": "Point",
"coordinates": [
141.163142869,
39.8739221321
]
}
},
{
"type": "Feature",
"properties": {
"Name": "松園児童センター・松園老人福祉センター",
"Jusho": "岩手県盛岡市西松園二丁目18番1号",
"Capacity": "117",
"la": "39.75427999910",
"ln": "141.16186800000"
},
"geometry": {
"type": "Point",
"coordinates": [
141.161868,
39.7542799991
]
}
},
{
"type": "Feature",
"properties": {
"Name": "松園地区活動センター",
"Jusho": "岩手県盛岡市西松園二丁目18番1号",
"Capacity": "225",
"la": "39.75411555960",
"ln": "141.16229281000"
},
"geometry": {
"type": "Point",
"coordinates": [
141.16229281,
39.7541155596
]
}
},
{
"type": "Feature",
"properties": {
"Name": "松内公民館",
"Jusho": "岩手県盛岡市玉山区松内字松内36-3",
"Capacity": "61",
"la": "39.88693083680",
"ln": "141.15647721600"
},
"geometry": {
"type": "Point",
"coordinates": [
141.156477216,
39.8869308368
]
}
},
{
"type": "Feature",
"properties": {
"Name": "上田公民館",
"Jusho": "岩手県盛岡市上田四丁目1番1号",
"Capacity": "390",
"la": "39.72038700000",
"ln": "141.13806800000"
},
"geometry": {
"type": "Point",
"coordinates": [
141.138068,
39.720387
]
}
},
{
"type": "Feature",
"properties": {
"Name": "上田児童センター・上田老人福祉センター",
"Jusho": "岩手県盛岡市上田四丁目5番18号",
"Capacity": "87",
"la": "39.72126700000",
"ln": "141.13489100000"
},
"geometry": {
"type": "Point",
"coordinates": [
141.134891,
39.721267
]
}
},
{
"type": "Feature",
"properties": {
"Name": "上堂児童センター・上堂老人福祉センター",
"Jusho": "岩手県盛岡市上堂三丁目17番10号",
"Capacity": "129",
"la": "39.72861900000",
"ln": "141.12717900000"
},
"geometry": {
"type": "Point",
"coordinates": [
141.127179,
39.728619
]
}
},
{
"type": "Feature",
"properties": {
"Name": "上飯岡児童センター",
"Jusho": "岩手県盛岡市上飯岡16番26号",
"Capacity": "69",
"la": "39.67177699960",
"ln": "141.10074275400"
},
"geometry": {
"type": "Point",
"coordinates": [
141.100742754,
39.6717769996
]
}
},
{
"type": "Feature",
"properties": {
"Name": "上米内児童センター・上米内老人福祉センター",
"Jusho": "岩手県盛岡市桜台二丁目18番15号",
"Capacity": "98",
"la": "39.74912699910",
"ln": "141.19664500000"
},
"geometry": {
"type": "Point",
"coordinates": [
141.196645,
39.7491269991
]
}
},
{
"type": "Feature",
"properties": {
"Name": "城西児童センター",
"Jusho": "岩手県盛岡市中屋敷町1番57号",
"Capacity": "71",
"la": "39.70595100000",
"ln": "141.12248400000"
},
"geometry": {
"type": "Point",
"coordinates": [
141.122484,
39.705951
]
}
},
{
"type": "Feature",
"properties": {
"Name": "城内地区コミュニティセンター",
"Jusho": "岩手県盛岡市玉山区玉山字城内37",
"Capacity": "42",
"la": "39.81662900000",
"ln": "141.20503500000"
},
"geometry": {
"type": "Point",
"coordinates": [
141.205035,
39.816629
]
}
},
{
"type": "Feature",
"properties": {
"Name": "仁王児童センター・仁王老人福祉センター",
"Jusho": "岩手県盛岡市名須川町21番1号",
"Capacity": "93",
"la": "39.71026799910",
"ln": "141.14962300000"
},
"geometry": {
"type": "Point",
"coordinates": [
141.149623,
39.7102679991
]
}
},
{
"type": "Feature",
"properties": {
"Name": "厨川児童センター・厨川老人福祉センター",
"Jusho": "岩手県盛岡市前九年三丁目7番1号",
"Capacity": "100",
"la": "39.71684499910",
"ln": "141.12111700000"
},
"geometry": {
"type": "Point",
"coordinates": [
141.121117,
39.7168449991
]
}
},
{
"type": "Feature",
"properties": {
"Name": "厨川地区活動センター",
"Jusho": "岩手県盛岡市前九年三丁目7番1号",
"Capacity": "252",
"la": "39.71715580290",
"ln": "141.12107689200"
},
"geometry": {
"type": "Point",
"coordinates": [
141.121076892,
39.7171558029
]
}
},
{
"type": "Feature",
"properties": {
"Name": "世代交流センター・見前児童センター",
"Jusho": "岩手県盛岡市西見前13地割25番3号",
"Capacity": "120",
"la": "39.64188199910",
"ln": "141.16303600000"
},
"geometry": {
"type": "Point",
"coordinates": [
141.163036,
39.6418819991
]
}
},
{
"type": "Feature",
"properties": {
"Name": "生出３地区コミュニティセンター",
"Jusho": "岩手県盛岡市玉山区下田字生出1038－0",
"Capacity": "43",
"la": "39.86909699910",
"ln": "141.11384000000"
},
"geometry": {
"type": "Point",
"coordinates": [
141.11384,
39.8690969991
]
}
},
{
"type": "Feature",
"properties": {
"Name": "生出児童館",
"Jusho": "岩手県盛岡市玉山区下田字仲平66-2",
"Capacity": "45",
"la": "39.85805382330",
"ln": "141.12413144300"
},
"geometry": {
"type": "Point",
"coordinates": [
141.124131443,
39.8580538233
]
}
},
{
"type": "Feature",
"properties": {
"Name": "盛岡スコーレ高等学校",
"Jusho": "岩手県盛岡市向中野才川2番地3",
"Capacity": "1491",
"la": "39.67976000000",
"ln": "141.13981600000"
},
"geometry": {
"type": "Point",
"coordinates": [
141.139816,
39.67976
]
}
},
{
"type": "Feature",
"properties": {
"Name": "盛岡競馬場",
"Jusho": "岩手県盛岡市新庄字上八木田10番地",
"Capacity": "87900",
"la": "39.69253450400",
"ln": "141.21903154000"
},
"geometry": {
"type": "Point",
"coordinates": [
141.21903154,
39.692534504
]
}
},
{
"type": "Feature",
"properties": {
"Name": "盛岡工業高等学校",
"Jusho": "岩手県盛岡市羽場18地割11番地1",
"Capacity": "19435",
"la": "39.65268799910",
"ln": "141.10449500000"
},
"geometry": {
"type": "Point",
"coordinates": [
141.104495,
39.6526879991
]
}
},
{
"type": "Feature",
"properties": {
"Name": "盛岡市武道館",
"Jusho": "岩手県盛岡市住吉町3番12号",
"Capacity": "381",
"la": "39.70317000000",
"ln": "141.16265000000"
},
"geometry": {
"type": "Point",
"coordinates": [
141.16265,
39.70317
]
}
},
{
"type": "Feature",
"properties": {
"Name": "盛岡自動車学校",
"Jusho": "岩手県盛岡市稲荷町3番9号",
"Capacity": "7500",
"la": "39.70985371790",
"ln": "141.11323626200"
},
"geometry": {
"type": "Point",
"coordinates": [
141.113236262,
39.7098537179
]
}
},
{
"type": "Feature",
"properties": {
"Name": "盛岡商業高等学校",
"Jusho": "岩手県盛岡市本宮二丁目35番1号",
"Capacity": "20500",
"la": "39.68698199910",
"ln": "141.13814900000"
},
"geometry": {
"type": "Point",
"coordinates": [
141.138149,
39.6869819991
]
}
},
{
"type": "Feature",
"properties": {
"Name": "盛岡第一高等学校",
"Jusho": "岩手県盛岡市上田三丁目2番1号",
"Capacity": "4960",
"la": "39.71447899910",
"ln": "141.14148200000"
},
"geometry": {
"type": "Point",
"coordinates": [
141.141482,
39.7144789991
]
}
},
{
"type": "Feature",
"properties": {
"Name": "盛岡第三高等学校",
"Jusho": "岩手県盛岡市高松四丁目17番16号",
"Capacity": "12490",
"la": "39.73086600000",
"ln": "141.13870400000"
},
"geometry": {
"type": "Point",
"coordinates": [
141.138704,
39.730866
]
}
},
{
"type": "Feature",
"properties": {
"Name": "盛岡第四高等学校",
"Jusho": "岩手県盛岡市津志田26地割17番地1",
"Capacity": "7700",
"la": "39.67178399910",
"ln": "141.15893200000"
},
"geometry": {
"type": "Point",
"coordinates": [
141.158932,
39.6717839991
]
}
},
{
"type": "Feature",
"properties": {
"Name": "盛岡短期大学跡",
"Jusho": "岩手県盛岡市住吉町1番48号",
"Capacity": "3150",
"la": "39.70173528960",
"ln": "141.16194173400"
},
"geometry": {
"type": "Point",
"coordinates": [
141.161941734,
39.7017352896
]
}
},
{
"type": "Feature",
"properties": {
"Name": "盛岡地域地場産業振興センター",
"Jusho": "岩手県盛岡市繋字尾入野64番地102",
"Capacity": "2521",
"la": "39.69296400000",
"ln": "141.02427800000"
},
"geometry": {
"type": "Point",
"coordinates": [
141.024278,
39.692964
]
}
},
{
"type": "Feature",
"properties": {
"Name": "盛岡南高等学校",
"Jusho": "岩手県盛岡市西見前20地割113番地1",
"Capacity": "9500",
"la": "39.64157899910",
"ln": "141.15605400000"
},
"geometry": {
"type": "Point",
"coordinates": [
141.156054,
39.6415789991
]
}
},
{
"type": "Feature",
"properties": {
"Name": "盛岡白百合学園",
"Jusho": "岩手県盛岡市山岸四丁目29番16号",
"Capacity": "5200",
"la": "39.72356942380",
"ln": "141.16558304100"
},
"geometry": {
"type": "Point",
"coordinates": [
141.165583041,
39.7235694238
]
}
},
{
"type": "Feature",
"properties": {
"Name": "盛岡八幡宮岩手護国神社境内",
"Jusho": "岩手県盛岡市八幡町13番1号",
"Capacity": "4050",
"la": "39.69622620220",
"ln": "141.16440807900"
},
"geometry": {
"type": "Point",
"coordinates": [
141.164408079,
39.6962262022
]
}
},
{
"type": "Feature",
"properties": {
"Name": "盛岡峰南高等支援学校",
"Jusho": "岩手県盛岡市下飯岡11地割152",
"Capacity": "2467",
"la": "39.67115000000",
"ln": "141.12842900000"
},
"geometry": {
"type": "Point",
"coordinates": [
141.128429,
39.67115
]
}
},
{
"type": "Feature",
"properties": {
"Name": "西厨川老人福祉センター",
"Jusho": "岩手県盛岡市北天昌寺町7番27号",
"Capacity": "38",
"la": "39.71238400000",
"ln": "141.11748400000"
},
"geometry": {
"type": "Point",
"coordinates": [
141.117484,
39.712384
]
}
},
{
"type": "Feature",
"properties": {
"Name": "西青山老人憩いの家",
"Jusho": "岩手県盛岡市西青山三丁目6番30号",
"Capacity": "62",
"la": "39.72234100000",
"ln": "141.10223200000"
},
"geometry": {
"type": "Point",
"coordinates": [
141.102232,
39.722341
]
}
},
{
"type": "Feature",
"properties": {
"Name": "西部公民館",
"Jusho": "岩手県盛岡市南青山町6番1号",
"Capacity": "339",
"la": "39.71837000000",
"ln": "141.11586000000"
},
"geometry": {
"type": "Point",
"coordinates": [
141.11586,
39.71837
]
}
},
{
"type": "Feature",
"properties": {
"Name": "青山児童センター",
"Jusho": "岩手県盛岡市青山二丁目6番11号",
"Capacity": "64",
"la": "39.72555573010",
"ln": "141.11375939300"
},
"geometry": {
"type": "Point",
"coordinates": [
141.113759393,
39.7255557301
]
}
},
{
"type": "Feature",
"properties": {
"Name": "青山地区活動センター",
"Jusho": "岩手県盛岡市青山三丁目37番7号",
"Capacity": "212",
"la": "39.72812426890",
"ln": "141.11072097100"
},
"geometry": {
"type": "Point",
"coordinates": [
141.110720971,
39.7281242689
]
}
},
{
"type": "Feature",
"properties": {
"Name": "青山老人福祉センター",
"Jusho": "岩手県盛岡市青山三丁目37番7号",
"Capacity": "68",
"la": "39.72807400000",
"ln": "141.11071800000"
},
"geometry": {
"type": "Point",
"coordinates": [
141.110718,
39.728074
]
}
},
{
"type": "Feature",
"properties": {
"Name": "青少年活動センター跡",
"Jusho": "岩手県盛岡市玉山区日戸字新田13-52",
"Capacity": "9355",
"la": "39.80096521930",
"ln": "141.24360537500"
},
"geometry": {
"type": "Point",
"coordinates": [
141.243605375,
39.8009652193
]
}
},
{
"type": "Feature",
"properties": {
"Name": "仙北児童センター・仙北老人福祉センター",
"Jusho": "岩手県盛岡市東仙北一丁目6番27",
"Capacity": "179",
"la": "39.68604100000",
"ln": "141.15598700000"
},
"geometry": {
"type": "Point",
"coordinates": [
141.155987,
39.686041
]
}
},
{
"type": "Feature",
"properties": {
"Name": "仙北地区活動センター",
"Jusho": "岩手県盛岡市仙北二丁目4番13号",
"Capacity": "228",
"la": "39.68596000000",
"ln": "141.14953200000"
},
"geometry": {
"type": "Point",
"coordinates": [
141.149532,
39.68596
]
}
},
{
"type": "Feature",
"properties": {
"Name": "川又地区コミュニティセンター",
"Jusho": "岩手県盛岡市玉山区川又字赤坂12－73",
"Capacity": "31",
"la": "39.78362700000",
"ln": "141.18238800000"
},
"geometry": {
"type": "Point",
"coordinates": [
141.182388,
39.783627
]
}
},
{
"type": "Feature",
"properties": {
"Name": "川目児童センター・川目老人福祉センター",
"Jusho": "岩手県盛岡市東山一丁目15番1号",
"Capacity": "127",
"la": "39.69209400000",
"ln": "141.17634600000"
},
"geometry": {
"type": "Point",
"coordinates": [
141.176346,
39.692094
]
}
},
{
"type": "Feature",
"properties": {
"Name": "太田地区活動センター",
"Jusho": "岩手県盛岡市中太田深持9番地",
"Capacity": "198",
"la": "39.69319100000",
"ln": "141.10067800000"
},
"geometry": {
"type": "Point",
"coordinates": [
141.100678,
39.693191
]
}
},
{
"type": "Feature",
"properties": {
"Name": "太田老人福祉センター",
"Jusho": "岩手県盛岡市上太田細工4",
"Capacity": "70",
"la": "39.69307400000",
"ln": "141.07844600000"
},
"geometry": {
"type": "Point",
"coordinates": [
141.078446,
39.693074
]
}
},
{
"type": "Feature",
"properties": {
"Name": "大ヶ生ふるさと学習センター",
"Jusho": "岩手県盛岡市大ケ生24地割73番12",
"Capacity": "3814",
"la": "39.61455076140",
"ln": "141.23463462500"
},
"geometry": {
"type": "Point",
"coordinates": [
141.234634625,
39.6145507614
]
}
},
{
"type": "Feature",
"properties": {
"Name": "大慈寺児童センター・大慈寺老人福祉センター",
"Jusho": "岩手県盛岡市茶畑二丁目16番20号",
"Capacity": "54",
"la": "39.69126800000",
"ln": "141.16047500000"
},
"geometry": {
"type": "Point",
"coordinates": [
141.160475,
39.691268
]
}
},
{
"type": "Feature",
"properties": {
"Name": "大新児童館",
"Jusho": "岩手県盛岡市南青山町13番3号",
"Capacity": "37",
"la": "39.71914400000",
"ln": "141.11392800000"
},
"geometry": {
"type": "Point",
"coordinates": [
141.113928,
39.719144
]
}
},
{
"type": "Feature",
"properties": {
"Name": "大台地区コミュニティセンター",
"Jusho": "岩手県盛岡市玉山区好摩字新田155－9",
"Capacity": "32",
"la": "39.89111200000",
"ln": "141.16567200000"
},
"geometry": {
"type": "Point",
"coordinates": [
141.165672,
39.891112
]
}
},
{
"type": "Feature",
"properties": {
"Name": "沢田浄水場",
"Jusho": "岩手県盛岡市東中野字沢田7",
"Capacity": "59",
"la": "39.68409398070",
"ln": "141.17700140600"
},
"geometry": {
"type": "Point",
"coordinates": [
141.177001406,
39.6840939807
]
}
},
{
"type": "Feature",
"properties": {
"Name": "地域福祉センター",
"Jusho": "岩手県盛岡市手代森14地割16番89",
"Capacity": "198",
"la": "39.65270800000",
"ln": "141.18511600000"
},
"geometry": {
"type": "Point",
"coordinates": [
141.185116,
39.652708
]
}
},
{
"type": "Feature",
"properties": {
"Name": "中央自動車学校",
"Jusho": "岩手県盛岡市西青山二丁目31番11号",
"Capacity": "6332",
"la": "39.72991300000",
"ln": "141.10322900000"
},
"geometry": {
"type": "Point",
"coordinates": [
141.103229,
39.729913
]
}
},
{
"type": "Feature",
"properties": {
"Name": "中野地区活動センター",
"Jusho": "岩手県盛岡市東安庭字小森57番地1",
"Capacity": "193",
"la": "39.68088100000",
"ln": "141.16876100000"
},
"geometry": {
"type": "Point",
"coordinates": [
141.168761,
39.680881
]
}
},
{
"type": "Feature",
"properties": {
"Name": "町村活性化センターー",
"Jusho": "岩手県盛岡市玉山区薮川字町村75－",
"Capacity": "68",
"la": "39.84765300000",
"ln": "141.45569700000"
},
"geometry": {
"type": "Point",
"coordinates": [
141.455697,
39.847653
]
}
},
{
"type": "Feature",
"properties": {
"Name": "津志田児童センター",
"Jusho": "岩手県盛岡市津志田中央二丁目11番1号",
"Capacity": "59",
"la": "39.66105200000",
"ln": "141.15676200000"
},
"geometry": {
"type": "Point",
"coordinates": [
141.156762,
39.661052
]
}
},
{
"type": "Feature",
"properties": {
"Name": "杜陵学園",
"Jusho": "岩手県盛岡市厨川二丁目3番1号",
"Capacity": "5456",
"la": "39.74217000000",
"ln": "141.13675900000"
},
"geometry": {
"type": "Point",
"coordinates": [
141.136759,
39.74217
]
}
},
{
"type": "Feature",
"properties": {
"Name": "杜陵高等学校",
"Jusho": "岩手県盛岡市上田二丁目3番1号",
"Capacity": "22263",
"la": "39.71503399910",
"ln": "141.14675900000"
},
"geometry": {
"type": "Point",
"coordinates": [
141.146759,
39.7150339991
]
}
},
{
"type": "Feature",
"properties": {
"Name": "杜陵児童センター",
"Jusho": "岩手県盛岡市-清水町13番34号",
"Capacity": "64",
"la": "39.69506500000",
"ln": "141.14745400000"
},
"geometry": {
"type": "Point",
"coordinates": [
141.147454,
39.695065
]
}
},
{
"type": "Feature",
"properties": {
"Name": "杜陵老人福祉センター",
"Jusho": "岩手県盛岡市南大通一丁目7番5号",
"Capacity": "60",
"la": "39.69826500000",
"ln": "141.15557500000"
},
"geometry": {
"type": "Point",
"coordinates": [
141.155575,
39.698265
]
}
},
{
"type": "Feature",
"properties": {
"Name": "都南公民館",
"Jusho": "岩手県盛岡市永井24地割10番地1",
"Capacity": "63",
"la": "39.65243900000",
"ln": "141.15481900000"
},
"geometry": {
"type": "Point",
"coordinates": [
141.154819,
39.652439
]
}
},
{
"type": "Feature",
"properties": {
"Name": "都南子どもの家",
"Jusho": "岩手県盛岡市津志田14地割20",
"Capacity": "79",
"la": "39.65500452840",
"ln": "141.16019476800"
},
"geometry": {
"type": "Point",
"coordinates": [
141.160194768,
39.6550045284
]
}
},
{
"type": "Feature",
"properties": {
"Name": "都南老人福祉センター",
"Jusho": "岩手県盛岡市湯沢1地割1番地39",
"Capacity": "68",
"la": "39.64011600000",
"ln": "141.08189000000"
},
"geometry": {
"type": "Point",
"coordinates": [
141.08189,
39.640116
]
}
},
{
"type": "Feature",
"properties": {
"Name": "土淵地区活動センター",
"Jusho": "岩手県盛岡市前潟四丁目4-30",
"Capacity": "167",
"la": "39.71025600000",
"ln": "141.09682500000"
},
"geometry": {
"type": "Point",
"coordinates": [
141.096825,
39.710256
]
}
},
{
"type": "Feature",
"properties": {
"Name": "東安庭公民館",
"Jusho": "岩手県盛岡市東安庭三丁目10番12号",
"Capacity": "50",
"la": "39.67950800000",
"ln": "141.16938200000"
},
"geometry": {
"type": "Point",
"coordinates": [
141.169382,
39.679508
]
}
},
{
"type": "Feature",
"properties": {
"Name": "湯沢児童センター",
"Jusho": "岩手県盛岡市湯沢6地割54番1号",
"Capacity": "59",
"la": "39.64818000000",
"ln": "141.10636500000"
},
"geometry": {
"type": "Point",
"coordinates": [
141.106365,
39.64818
]
}
},
{
"type": "Feature",
"properties": {
"Name": "日戸地区コミュニティセンターター",
"Jusho": "岩手県盛岡市玉山区日戸字古屋敷68-2",
"Capacity": "50",
"la": "39.79859400000",
"ln": "141.21581900000"
},
"geometry": {
"type": "Point",
"coordinates": [
141.215819,
39.798594
]
}
},
{
"type": "Feature",
"properties": {
"Name": "農民研修センター",
"Jusho": "岩手県盛岡市玉山区下田字仲平59－24",
"Capacity": "79",
"la": "39.85909300000",
"ln": "141.12686200000"
},
"geometry": {
"type": "Point",
"coordinates": [
141.126862,
39.859093
]
}
},
{
"type": "Feature",
"properties": {
"Name": "馬場状小屋地区コミュニティセンター",
"Jusho": "岩手県盛岡市玉山区馬場状小屋3番地3",
"Capacity": "34",
"la": "39.88202085780",
"ln": "141.19102187000"
},
"geometry": {
"type": "Point",
"coordinates": [
141.19102187,
39.8820208578
]
}
},
{
"type": "Feature",
"properties": {
"Name": "白沢地区コミュニティセンター",
"Jusho": "岩手県盛岡市玉山区玉山字宮前84番地5",
"Capacity": "36",
"la": "39.81668699910",
"ln": "141.19058600000"
},
"geometry": {
"type": "Point",
"coordinates": [
141.190586,
39.8166869991
]
}
},
{
"type": "Feature",
"properties": {
"Name": "飯岡地区公民館",
"Jusho": "岩手県盛岡市下飯岡8地割100番地",
"Capacity": "114",
"la": "39.66680299910",
"ln": "141.12374600000"
},
"geometry": {
"type": "Point",
"coordinates": [
141.123746,
39.6668029991
]
}
},
{
"type": "Feature",
"properties": {
"Name": "姫神地区振興センター",
"Jusho": "岩手県盛岡市玉山区馬場字葛巻104－",
"Capacity": "73",
"la": "39.89291599910",
"ln": "141.25599500000"
},
"geometry": {
"type": "Point",
"coordinates": [
141.255995,
39.8929159991
]
}
},
{
"type": "Feature",
"properties": {
"Name": "北松園児童センター・北松園老人福祉センター",
"Jusho": "岩手県盛岡市北松園四丁目1番4号",
"Capacity": "88",
"la": "39.76011700000",
"ln": "141.17472200000"
},
"geometry": {
"type": "Point",
"coordinates": [
141.174722,
39.760117
]
}
},
{
"type": "Feature",
"properties": {
"Name": "北松園児童センター小鳥沢分室",
"Jusho": "岩手県盛岡市小鳥沢一丁目11番1号",
"Capacity": "15",
"la": "39.76471600000",
"ln": "141.16832800000"
},
"geometry": {
"type": "Point",
"coordinates": [
141.168328,
39.764716
]
}
},
{
"type": "Feature",
"properties": {
"Name": "北厨川児童センター・北厨川老人福祉センター",
"Jusho": "岩手県盛岡市厨川一丁目14番1号",
"Capacity": "98",
"la": "39.74549499910",
"ln": "141.13129900000"
},
"geometry": {
"type": "Point",
"coordinates": [
141.131299,
39.7454949991
]
}
},
{
"type": "Feature",
"properties": {
"Name": "本宮児童センター・本宮老人福祉センター",
"Jusho": "岩手県盛岡市本宮字宮沢99番地1",
"Capacity": "117",
"la": "39.68771500000",
"ln": "141.12980000000"
},
"geometry": {
"type": "Point",
"coordinates": [
141.1298,
39.687715
]
}
},
{
"type": "Feature",
"properties": {
"Name": "本宮地区活動センター",
"Jusho": "岩手県盛岡市本宮字宮沢99番1号",
"Capacity": "147",
"la": "39.68765999910",
"ln": "141.12982100000"
},
"geometry": {
"type": "Point",
"coordinates": [
141.129821,
39.6876599991
]
}
},
{
"type": "Feature",
"properties": {
"Name": "門公民館",
"Jusho": "岩手県盛岡市門一丁目14番14号",
"Capacity": "50",
"la": "39.67017100000",
"ln": "141.17212800000"
},
"geometry": {
"type": "Point",
"coordinates": [
141.172128,
39.670171
]
}
},
{
"type": "Feature",
"properties": {
"Name": "柳青保育園",
"Jusho": "岩手県盛岡市玉山区下田字陣場42-63",
"Capacity": "13",
"la": "39.83646600000",
"ln": "141.15331000000"
},
"geometry": {
"type": "Point",
"coordinates": [
141.15331,
39.836466
]
}
},
{
"type": "Feature",
"properties": {
"Name": "薮川地区公民館",
"Jusho": "岩手県盛岡市玉山区薮川字外山93－",
"Capacity": "29",
"la": "39.78388800000",
"ln": "141.32937700000"
},
"geometry": {
"type": "Point",
"coordinates": [
141.329377,
39.783888
]
}
},
{
"type": "Feature",
"properties": {
"Name": "緑が丘児童センター・緑が丘老人福祉センター",
"Jusho": "岩手県盛岡市緑が丘三丁目19番18号",
"Capacity": "114",
"la": "39.73743800000",
"ln": "141.14475300000"
},
"geometry": {
"type": "Point",
"coordinates": [
141.144753,
39.737438
]
}
},
{
"type": "Feature",
"properties": {
"Name": "緑が丘地区活動センター",
"Jusho": "岩手県盛岡市黒石野二丁目14番1号",
"Capacity": "149",
"la": "39.74243400000",
"ln": "141.14582200000"
},
"geometry": {
"type": "Point",
"coordinates": [
141.145822,
39.742434
]
}
},
{
"type": "Feature",
"properties": {
"Name": "簗川地区振興センター",
"Jusho": "岩手県盛岡市簗川第5地割33番地1",
"Capacity": "1433",
"la": "39.66605600000",
"ln": "141.30033600000"
},
"geometry": {
"type": "Point",
"coordinates": [
141.300336,
39.666056
]
}
},
{
"type": "Feature",
"properties": {
"Name": "グリーンピア田老",
"Jusho": "岩手県宮古市田老字向新田148番地",
"Capacity": "－",
"la": "39.78957470060",
"ln": "141.97059305800"
},
"geometry": {
"type": "Point",
"coordinates": [
141.970593058,
39.7895747006
]
}
},
{
"type": "Feature",
"properties": {
"Name": "永田集会所",
"Jusho": "岩手県宮古市刈屋第2地割",
"Capacity": "－",
"la": "39.66889048090",
"ln": "141.73158862100"
},
"geometry": {
"type": "Point",
"coordinates": [
141.731588621,
39.6688904809
]
}
},
{
"type": "Feature",
"properties": {
"Name": "乙部地区自治会研修センター",
"Jusho": "岩手県宮古市田老字乙部11番地",
"Capacity": "－",
"la": "39.73802000000",
"ln": "141.97634400000"
},
"geometry": {
"type": "Point",
"coordinates": [
141.976344,
39.73802
]
}
},
{
"type": "Feature",
"properties": {
"Name": "下刈屋地区総合センター",
"Jusho": "岩手県宮古市刈屋第15地割92番地1",
"Capacity": "－",
"la": "39.63919700000",
"ln": "141.77295900000"
},
"geometry": {
"type": "Point",
"coordinates": [
141.772959,
39.639197
]
}
},
{
"type": "Feature",
"properties": {
"Name": "下川原子供会館",
"Jusho": "岩手県宮古市",
"Capacity": "－",
"la": "39.63828506480",
"ln": "141.83898790000"
},
"geometry": {
"type": "Point",
"coordinates": [
141.8389879,
39.6382850648
]
}
},
{
"type": "Feature",
"properties": {
"Name": "樫内地区集会施設",
"Jusho": "岩手県宮古市田老字樫内122番地",
"Capacity": "－",
"la": "39.71147400000",
"ln": "141.97046100000"
},
"geometry": {
"type": "Point",
"coordinates": [
141.970461,
39.711474
]
}
},
{
"type": "Feature",
"properties": {
"Name": "刈屋生活改善センター",
"Jusho": "岩手県宮古市",
"Capacity": "－",
"la": "39.64803200000",
"ln": "141.75691800000"
},
"geometry": {
"type": "Point",
"coordinates": [
141.756918,
39.648032
]
}
},
{
"type": "Feature",
"properties": {
"Name": "基幹集落センター",
"Jusho": "岩手県宮古市",
"Capacity": "－",
"la": "39.64544860920",
"ln": "141.75705763400"
},
"geometry": {
"type": "Point",
"coordinates": [
141.757057634,
39.6454486092
]
}
},
{
"type": "Feature",
"properties": {
"Name": "旧川代分校",
"Jusho": "岩手県宮古市",
"Capacity": "－",
"la": "39.50148659040",
"ln": "142.00859655800"
},
"geometry": {
"type": "Point",
"coordinates": [
142.008596558,
39.5014865904
]
}
},
{
"type": "Feature",
"properties": {
"Name": "旧白浜分校",
"Jusho": "岩手県宮古市白浜第1地割90番地1",
"Capacity": "－",
"la": "39.60947800000",
"ln": "141.98199700000"
},
"geometry": {
"type": "Point",
"coordinates": [
141.981997,
39.609478
]
}
},
{
"type": "Feature",
"properties": {
"Name": "勤労青少年体育センター",
"Jusho": "岩手県宮古市宮町三丁目6-40",
"Capacity": "－",
"la": "39.64053900000",
"ln": "141.94186300000"
},
"geometry": {
"type": "Point",
"coordinates": [
141.941863,
39.640539
]
}
},
{
"type": "Feature",
"properties": {
"Name": "近内地区センター",
"Jusho": "岩手県宮古市近内3－19－",
"Capacity": "－",
"la": "39.64753020780",
"ln": "141.91724309900"
},
"geometry": {
"type": "Point",
"coordinates": [
141.917243099,
39.6475302078
]
}
},
{
"type": "Feature",
"properties": {
"Name": "五番地区総合センター",
"Jusho": "岩手県宮古市和井内第7地割53番地1",
"Capacity": "－",
"la": "39.71409500000",
"ln": "141.72003400000"
},
"geometry": {
"type": "Point",
"coordinates": [
141.720034,
39.714095
]
}
},
{
"type": "Feature",
"properties": {
"Name": "荒谷防災センター",
"Jusho": "岩手県宮古市田老字荒谷112番地2",
"Capacity": "－",
"la": "39.74152200000",
"ln": "141.97181900000"
},
"geometry": {
"type": "Point",
"coordinates": [
141.971819,
39.741522
]
}
},
{
"type": "Feature",
"properties": {
"Name": "高齢者コミュニティセンター",
"Jusho": "岩手県宮古市田老字小林86-2",
"Capacity": "－",
"la": "39.73052900000",
"ln": "141.96009300000"
},
"geometry": {
"type": "Point",
"coordinates": [
141.960093,
39.730529
]
}
},
{
"type": "Feature",
"properties": {
"Name": "根城農村センター",
"Jusho": "岩手県宮古市老木第20地割7番地2",
"Capacity": "－",
"la": "39.62872100000",
"ln": "141.87098800000"
},
"geometry": {
"type": "Point",
"coordinates": [
141.870988,
39.628721
]
}
},
{
"type": "Feature",
"properties": {
"Name": "山口公民館",
"Jusho": "岩手県宮古市山口一丁目3番14号",
"Capacity": "－",
"la": "39.65026900000",
"ln": "141.93658600000"
},
"geometry": {
"type": "Point",
"coordinates": [
141.936586,
39.650269
]
}
},
{
"type": "Feature",
"properties": {
"Name": "四番地区総合センター",
"Jusho": "岩手県宮古市和井内第4地割27番地6",
"Capacity": "－",
"la": "39.69456700000",
"ln": "141.70918400000"
},
"geometry": {
"type": "Point",
"coordinates": [
141.709184,
39.694567
]
}
},
{
"type": "Feature",
"properties": {
"Name": "小山田地区センター",
"Jusho": "岩手県宮古市小山田3丁目4番5号",
"Capacity": "－",
"la": "39.63199784750",
"ln": "141.94006147800"
},
"geometry": {
"type": "Point",
"coordinates": [
141.940061478,
39.6319978475
]
}
},
{
"type": "Feature",
"properties": {
"Name": "小堀内地区集会施設",
"Jusho": "岩手県宮古市田老字向新田185番地1",
"Capacity": "－",
"la": "39.78736800000",
"ln": "141.96161000000"
},
"geometry": {
"type": "Point",
"coordinates": [
141.96161,
39.787368
]
}
},
{
"type": "Feature",
"properties": {
"Name": "松山地区センター",
"Jusho": "岩手県宮古市松山第8地割80番地5",
"Capacity": "－",
"la": "39.62177684590",
"ln": "141.91572475400"
},
"geometry": {
"type": "Point",
"coordinates": [
141.915724754,
39.6217768459
]
}
},
{
"type": "Feature",
"properties": {
"Name": "消防団第１９分団根城器具置場",
"Jusho": "岩手県宮古市",
"Capacity": "－",
"la": "39.62766426220",
"ln": "141.87046331900"
},
"geometry": {
"type": "Point",
"coordinates": [
141.870463319,
39.6276642622
]
}
},
{
"type": "Feature",
"properties": {
"Name": "消防団第２５分団屯所",
"Jusho": "岩手県宮古市",
"Capacity": "－",
"la": "39.52942534970",
"ln": "142.02979457700"
},
"geometry": {
"type": "Point",
"coordinates": [
142.029794577,
39.5294253497
]
}
},
{
"type": "Feature",
"properties": {
"Name": "新里高齢者コミュニティセンター",
"Jusho": "岩手県宮古市蟇目12-74-9",
"Capacity": "－",
"la": "39.62861000000",
"ln": "141.83817100000"
},
"geometry": {
"type": "Point",
"coordinates": [
141.838171,
39.62861
]
}
},
{
"type": "Feature",
"properties": {
"Name": "新里生涯学習センター",
"Jusho": "岩手県宮古市茂市第5地割5番地2",
"Capacity": "－",
"la": "39.61640837230",
"ln": "141.79939307500"
},
"geometry": {
"type": "Point",
"coordinates": [
141.799393075,
39.6164083723
]
}
},
{
"type": "Feature",
"properties": {
"Name": "新里福祉センター",
"Jusho": "岩手県宮古市茂市第2地割112番地1",
"Capacity": "－",
"la": "39.62630200000",
"ln": "141.79116300000"
},
"geometry": {
"type": "Point",
"coordinates": [
141.791163,
39.626302
]
}
},
{
"type": "Feature",
"properties": {
"Name": "新里保育所",
"Jusho": "岩手県宮古市大字茂市2－46－",
"Capacity": "－",
"la": "39.62578800000",
"ln": "141.79140400000"
},
"geometry": {
"type": "Point",
"coordinates": [
141.791404,
39.625788
]
}
},
{
"type": "Feature",
"properties": {
"Name": "新里保健センター",
"Jusho": "岩手県宮古市茂市第1地割115番地4",
"Capacity": "－",
"la": "39.62906742210",
"ln": "141.78667231100"
},
"geometry": {
"type": "Point",
"coordinates": [
141.786672311,
39.6290674221
]
}
},
{
"type": "Feature",
"properties": {
"Name": "神田地区集会施設",
"Jusho": "岩手県宮古市田老字和蒔48番地",
"Capacity": "－",
"la": "39.73403600000",
"ln": "141.94265300000"
},
"geometry": {
"type": "Point",
"coordinates": [
141.942653,
39.734036
]
}
},
{
"type": "Feature",
"properties": {
"Name": "水沢地区集会施設",
"Jusho": "岩手県宮古市田老字水沢南35番地",
"Capacity": "－",
"la": "39.80064100000",
"ln": "141.97553500000"
},
"geometry": {
"type": "Point",
"coordinates": [
141.975535,
39.800641
]
}
},
{
"type": "Feature",
"properties": {
"Name": "青倉地区集会施設",
"Jusho": "岩手県宮古市田老字立腰46番地2",
"Capacity": "－",
"la": "39.73965100000",
"ln": "141.88321900000"
},
"geometry": {
"type": "Point",
"coordinates": [
141.883219,
39.739651
]
}
},
{
"type": "Feature",
"properties": {
"Name": "青野滝地区集会施設",
"Jusho": "岩手県宮古市田老字青野滝17番地",
"Capacity": "－",
"la": "39.77212400000",
"ln": "141.99231400000"
},
"geometry": {
"type": "Point",
"coordinates": [
141.992314,
39.772124
]
}
},
{
"type": "Feature",
"properties": {
"Name": "摂待地区生活改善センター",
"Jusho": "岩手県宮古市田老字片巻19番地1",
"Capacity": "－",
"la": "39.80892300000",
"ln": "141.96251300000"
},
"geometry": {
"type": "Point",
"coordinates": [
141.962513,
39.808923
]
}
},
{
"type": "Feature",
"properties": {
"Name": "摂待和野地区集会施設",
"Jusho": "岩手県宮古市田老字摂待243番地2",
"Capacity": "－",
"la": "39.80906000000",
"ln": "141.94311000000"
},
"geometry": {
"type": "Point",
"coordinates": [
141.94311,
39.80906
]
}
},
{
"type": "Feature",
"properties": {
"Name": "千徳公民館",
"Jusho": "岩手県宮古市千徳町5番39号",
"Capacity": "－",
"la": "39.63328100000",
"ln": "141.91927100000"
},
"geometry": {
"type": "Point",
"coordinates": [
141.919271,
39.633281
]
}
},
{
"type": "Feature",
"properties": {
"Name": "総合福祉センター",
"Jusho": "岩手県宮古市小山田2-9-20",
"Capacity": "－",
"la": "39.63487000000",
"ln": "141.93991300000"
},
"geometry": {
"type": "Point",
"coordinates": [
141.939913,
39.63487
]
}
},
{
"type": "Feature",
"properties": {
"Name": "太長根地区総合センター",
"Jusho": "岩手県宮古市茂市第9地割32番地5",
"Capacity": "－",
"la": "39.62012700000",
"ln": "141.81127200000"
},
"geometry": {
"type": "Point",
"coordinates": [
141.811272,
39.620127
]
}
},
{
"type": "Feature",
"properties": {
"Name": "丹野地区総合センター",
"Jusho": "岩手県宮古市刈屋第6地割44番地1",
"Capacity": "－",
"la": "39.65338400000",
"ln": "141.74723300000"
},
"geometry": {
"type": "Point",
"coordinates": [
141.747233,
39.653384
]
}
},
{
"type": "Feature",
"properties": {
"Name": "中央公民館",
"Jusho": "岩手県宮古市築地一丁目3-9",
"Capacity": "－",
"la": "39.64356700000",
"ln": "141.95720600000"
},
"geometry": {
"type": "Point",
"coordinates": [
141.957206,
39.643567
]
}
},
{
"type": "Feature",
"properties": {
"Name": "中野地区総合センター",
"Jusho": "岩手県宮古市刈屋第13地割15番地2",
"Capacity": "－",
"la": "39.64328419390",
"ln": "141.76215175000"
},
"geometry": {
"type": "Point",
"coordinates": [
141.76215175,
39.6432841939
]
}
},
{
"type": "Feature",
"properties": {
"Name": "中里集会所",
"Jusho": "岩手県宮古市",
"Capacity": "－",
"la": "39.66294803960",
"ln": "141.73610323700"
},
"geometry": {
"type": "Point",
"coordinates": [
141.736103237,
39.6629480396
]
}
},
{
"type": "Feature",
"properties": {
"Name": "長沢農村センター",
"Jusho": "岩手県宮古市長沢第16地割123番地8",
"Capacity": "－",
"la": "39.60197000000",
"ln": "141.88855100000"
},
"geometry": {
"type": "Point",
"coordinates": [
141.888551,
39.60197
]
}
},
{
"type": "Feature",
"properties": {
"Name": "津軽石公民館",
"Jusho": "岩手県宮古市津軽石第2地割31番地",
"Capacity": "－",
"la": "39.58266800000",
"ln": "141.93964600000"
},
"geometry": {
"type": "Point",
"coordinates": [
141.939646,
39.582668
]
}
},
{
"type": "Feature",
"properties": {
"Name": "田鎖総合交流促進センター",
"Jusho": "岩手県宮古市田鎖第2地割118番地3",
"Capacity": "－",
"la": "39.62332100000",
"ln": "141.90140100000"
},
"geometry": {
"type": "Point",
"coordinates": [
141.901401,
39.623321
]
}
},
{
"type": "Feature",
"properties": {
"Name": "田老公民館",
"Jusho": "岩手県宮古市田老字館が森3",
"Capacity": "－",
"la": "39.73812500000",
"ln": "141.96935300000"
},
"geometry": {
"type": "Point",
"coordinates": [
141.969353,
39.738125
]
}
},
{
"type": "Feature",
"properties": {
"Name": "道の駅たろう",
"Jusho": "岩手県宮古市田老字重津部34番地2",
"Capacity": "－",
"la": "39.76334113650",
"ln": "141.96555014700"
},
"geometry": {
"type": "Point",
"coordinates": [
141.965550147,
39.7633411365
]
}
},
{
"type": "Feature",
"properties": {
"Name": "畑地区集会施設",
"Jusho": "岩手県宮古市田老字上沖86番地1",
"Capacity": "－",
"la": "39.78806403860",
"ln": "141.91552103100"
},
"geometry": {
"type": "Point",
"coordinates": [
141.915521031,
39.7880640386
]
}
},
{
"type": "Feature",
"properties": {
"Name": "八坂部落会館",
"Jusho": "岩手県宮古市",
"Capacity": "－",
"la": "39.63371875940",
"ln": "141.83480548900"
},
"geometry": {
"type": "Point",
"coordinates": [
141.834805489,
39.6337187594
]
}
},
{
"type": "Feature",
"properties": {
"Name": "腹帯生活改善センター",
"Jusho": "岩手県宮古市",
"Capacity": "－",
"la": "39.60370099910",
"ln": "141.76492300000"
},
"geometry": {
"type": "Point",
"coordinates": [
141.764923,
39.6037009991
]
}
},
{
"type": "Feature",
"properties": {
"Name": "平沢集会所",
"Jusho": "岩手県宮古市",
"Capacity": "－",
"la": "39.67638223540",
"ln": "141.72048176800"
},
"geometry": {
"type": "Point",
"coordinates": [
141.720481768,
39.6763822354
]
}
},
{
"type": "Feature",
"properties": {
"Name": "北山地区総合センター",
"Jusho": "岩手県宮古市刈屋第9地割57番地2",
"Capacity": "－",
"la": "39.66348300000",
"ln": "141.76501700000"
},
"geometry": {
"type": "Point",
"coordinates": [
141.765017,
39.663483
]
}
},
{
"type": "Feature",
"properties": {
"Name": "北地区公民館",
"Jusho": "岩手県宮古市重茂28-20",
"Capacity": "－",
"la": "39.63440083060",
"ln": "142.01115205700"
},
"geometry": {
"type": "Point",
"coordinates": [
142.011152057,
39.6344008306
]
}
},
{
"type": "Feature",
"properties": {
"Name": "末前神楽伝承館",
"Jusho": "岩手県宮古市田老字日影23番地",
"Capacity": "－",
"la": "39.74354036510",
"ln": "141.90824020100"
},
"geometry": {
"type": "Point",
"coordinates": [
141.908240201,
39.7435403651
]
}
},
{
"type": "Feature",
"properties": {
"Name": "養呂地地区生活改善センター",
"Jusho": "岩手県宮古市田老字養呂地73番地",
"Capacity": "－",
"la": "39.72834200000",
"ln": "141.92984300000"
},
"geometry": {
"type": "Point",
"coordinates": [
141.929843,
39.728342
]
}
},
{
"type": "Feature",
"properties": {
"Name": "林業活力センター",
"Jusho": "岩手県宮古市刈屋第4地割5番地",
"Capacity": "－",
"la": "39.66557400000",
"ln": "141.73364500000"
},
"geometry": {
"type": "Point",
"coordinates": [
141.733645,
39.665574
]
}
},
{
"type": "Feature",
"properties": {
"Name": "老人憩いの家",
"Jusho": "岩手県宮古市田老字小田代16番地",
"Capacity": "－",
"la": "39.72079600000",
"ln": "141.93025200000"
},
"geometry": {
"type": "Point",
"coordinates": [
141.930252,
39.720796
]
}
},
{
"type": "Feature",
"properties": {
"Name": "和井内ふるさと会館",
"Jusho": "岩手県宮古市和井内第17地割64番地2",
"Capacity": "－",
"la": "39.68563734500",
"ln": "141.71621307200"
},
"geometry": {
"type": "Point",
"coordinates": [
141.716213072,
39.685637345
]
}
},
{
"type": "Feature",
"properties": {
"Name": "和井内林産会館",
"Jusho": "岩手県宮古市和井内第13地割13番地1",
"Capacity": "－",
"la": "39.68869367990",
"ln": "141.71390630400"
},
"geometry": {
"type": "Point",
"coordinates": [
141.713906304,
39.6886936799
]
}
},
{
"type": "Feature",
"properties": {
"Name": "和野地区集会施設",
"Jusho": "岩手県宮古市田老字和野15番地",
"Capacity": "－",
"la": "39.74879900000",
"ln": "141.97791600000"
},
"geometry": {
"type": "Point",
"coordinates": [
141.977916,
39.748799
]
}
},
{
"type": "Feature",
"properties": {
"Name": "カメリアホール（中央公民館）",
"Jusho": "岩手県大船渡市盛町字内ノ目4-2",
"Capacity": "－",
"la": "39.08537799910",
"ln": "141.71062400000"
},
"geometry": {
"type": "Point",
"coordinates": [
141.710624,
39.0853779991
]
}
},
{
"type": "Feature",
"properties": {
"Name": "リアスホール",
"Jusho": "岩手県大船渡市盛町字下舘下18－",
"Capacity": "－",
"la": "39.07789600000",
"ln": "141.71022400000"
},
"geometry": {
"type": "Point",
"coordinates": [
141.710224,
39.077896
]
}
},
{
"type": "Feature",
"properties": {
"Name": "下船渡公民館",
"Jusho": "岩手県大船渡市大船渡町字下船渡26",
"Capacity": "－",
"la": "39.03676538470",
"ln": "141.71864352400"
},
"geometry": {
"type": "Point",
"coordinates": [
141.718643524,
39.0367653847
]
}
},
{
"type": "Feature",
"properties": {
"Name": "下中井公民館",
"Jusho": "岩手県大船渡市猪川町字中井沢53",
"Capacity": "－",
"la": "39.09088686690",
"ln": "141.71691702900"
},
"geometry": {
"type": "Point",
"coordinates": [
141.716917029,
39.0908868669
]
}
},
{
"type": "Feature",
"properties": {
"Name": "加茂神社",
"Jusho": "岩手県大船渡市大船渡町字猪頭28－0",
"Capacity": "－",
"la": "39.05896336770",
"ln": "141.71710442300"
},
"geometry": {
"type": "Point",
"coordinates": [
141.717104423,
39.0589633677
]
}
},
{
"type": "Feature",
"properties": {
"Name": "花菱縫製",
"Jusho": "岩手県大船渡市三陸町越喜来字杉下138-2",
"Capacity": "－",
"la": "39.11713901770",
"ln": "141.82107734800"
},
"geometry": {
"type": "Point",
"coordinates": [
141.821077348,
39.1171390177
]
}
},
{
"type": "Feature",
"properties": {
"Name": "気仙光陵支援学校",
"Jusho": "岩手県大船渡市立根町字宮田33-3",
"Capacity": "－",
"la": "39.10067700000",
"ln": "141.71478700000"
},
"geometry": {
"type": "Point",
"coordinates": [
141.714787,
39.100677
]
}
},
{
"type": "Feature",
"properties": {
"Name": "吉野町公民館",
"Jusho": "岩手県大船渡市盛町字権現堂3-6",
"Capacity": "－",
"la": "39.09048316440",
"ln": "141.70525821800"
},
"geometry": {
"type": "Point",
"coordinates": [
141.705258218,
39.0904831644
]
}
},
{
"type": "Feature",
"properties": {
"Name": "旧宿公民館",
"Jusho": "岩手県大船渡市赤崎町字跡浜125-2",
"Capacity": "－",
"la": "39.06961407690",
"ln": "141.73679181200"
},
"geometry": {
"type": "Point",
"coordinates": [
141.736791812,
39.0696140769
]
}
},
{
"type": "Feature",
"properties": {
"Name": "県立大船渡病院",
"Jusho": "岩手県大船渡市大船渡町字山馬越10－",
"Capacity": "－",
"la": "39.07262198000",
"ln": "141.70738841000"
},
"geometry": {
"type": "Point",
"coordinates": [
141.70738841,
39.07262198
]
}
},
{
"type": "Feature",
"properties": {
"Name": "後ノ入地域公民館",
"Jusho": "岩手県大船渡市赤崎町字後ノ入49",
"Capacity": "－",
"la": "39.07357293290",
"ln": "141.74392811100"
},
"geometry": {
"type": "Point",
"coordinates": [
141.743928111,
39.0735729329
]
}
},
{
"type": "Feature",
"properties": {
"Name": "碁石公民館",
"Jusho": "岩手県大船渡市末崎町字大豆沢60－",
"Capacity": "－",
"la": "38.99121673180",
"ln": "141.73578115400"
},
"geometry": {
"type": "Point",
"coordinates": [
141.735781154,
38.9912167318
]
}
},
{
"type": "Feature",
"properties": {
"Name": "碁石地区コミュニティーセンター",
"Jusho": "岩手県大船渡市末崎町字中森22",
"Capacity": "－",
"la": "38.99410300000",
"ln": "141.72857000000"
},
"geometry": {
"type": "Point",
"coordinates": [
141.72857,
38.994103
]
}
},
{
"type": "Feature",
"properties": {
"Name": "合同庁舎（沿岸広域振興局）",
"Jusho": "岩手県大船渡市猪川町字前田6－",
"Capacity": "－",
"la": "39.09517627280",
"ln": "141.70462959400"
},
"geometry": {
"type": "Point",
"coordinates": [
141.704629594,
39.0951762728
]
}
},
{
"type": "Feature",
"properties": {
"Name": "三十刈公民館",
"Jusho": "岩手県大船渡市末崎町字大豆沢98-2",
"Capacity": "－",
"la": "38.99228765610",
"ln": "141.73433894900"
},
"geometry": {
"type": "Point",
"coordinates": [
141.734338949,
38.9922876561
]
}
},
{
"type": "Feature",
"properties": {
"Name": "小規模多機能ホーム「平」",
"Jusho": "岩手県大船渡市字下平24－",
"Capacity": "－",
"la": "39.04284200000",
"ln": "141.71732500000"
},
"geometry": {
"type": "Point",
"coordinates": [
141.717325,
39.042842
]
}
},
{
"type": "Feature",
"properties": {
"Name": "上山公民館",
"Jusho": "岩手県大船渡市大船渡町赤沢16-4",
"Capacity": "－",
"la": "39.06516334200",
"ln": "141.71553434500"
},
"geometry": {
"type": "Point",
"coordinates": [
141.715534345,
39.065163342
]
}
},
{
"type": "Feature",
"properties": {
"Name": "職業安定所",
"Jusho": "岩手県大船渡市大船渡町字赤沢17-3大船渡合同庁舎",
"Capacity": "－",
"la": "39.06529901080",
"ln": "141.71467719600"
},
"geometry": {
"type": "Point",
"coordinates": [
141.714677196,
39.0652990108
]
}
},
{
"type": "Feature",
"properties": {
"Name": "神坂熊野神社",
"Jusho": "岩手県大船渡市末崎町字神坂26",
"Capacity": "－",
"la": "39.01309673100",
"ln": "141.71794727600"
},
"geometry": {
"type": "Point",
"coordinates": [
141.717947276,
39.013096731
]
}
},
{
"type": "Feature",
"properties": {
"Name": "赤崎地区公民館・漁村センター",
"Jusho": "岩手県大船渡市赤崎町字山口80-38",
"Capacity": "－",
"la": "39.06645299910",
"ln": "141.73785900000"
},
"geometry": {
"type": "Point",
"coordinates": [
141.737859,
39.0664529991
]
}
},
{
"type": "Feature",
"properties": {
"Name": "赤崎中井公民館",
"Jusho": "岩手県大船渡市赤崎町字中井38",
"Capacity": "－",
"la": "39.08938900000",
"ln": "141.71880400000"
},
"geometry": {
"type": "Point",
"coordinates": [
141.718804,
39.089389
]
}
},
{
"type": "Feature",
"properties": {
"Name": "赤崎町デイサービスセンター・菊田",
"Jusho": "岩手県大船渡市赤崎町字大洞1－",
"Capacity": "－",
"la": "39.06878905450",
"ln": "141.73938473700"
},
"geometry": {
"type": "Point",
"coordinates": [
141.739384737,
39.0687890545
]
}
},
{
"type": "Feature",
"properties": {
"Name": "前田公民館",
"Jusho": "岩手県大船渡市猪川町字前田5-8",
"Capacity": "－",
"la": "39.09549639320",
"ln": "141.70553054400"
},
"geometry": {
"type": "Point",
"coordinates": [
141.705530544,
39.0954963932
]
}
},
{
"type": "Feature",
"properties": {
"Name": "蔵ハウス",
"Jusho": "岩手県大船渡市盛町字町3－",
"Capacity": "－",
"la": "39.08668700000",
"ln": "141.70756000000"
},
"geometry": {
"type": "Point",
"coordinates": [
141.70756,
39.086687
]
}
},
{
"type": "Feature",
"properties": {
"Name": "大船渡高校",
"Jusho": "岩手県大船渡市猪川町字長洞7－",
"Capacity": "－",
"la": "39.09428900000",
"ln": "141.71673100000"
},
"geometry": {
"type": "Point",
"coordinates": [
141.716731,
39.094289
]
}
},
{
"type": "Feature",
"properties": {
"Name": "大船渡市市営住宅",
"Jusho": "岩手県大船渡市赤崎町字山口58－",
"Capacity": "－",
"la": "39.06265329350",
"ln": "141.74218763800"
},
"geometry": {
"type": "Point",
"coordinates": [
141.742187638,
39.0626532935
]
}
},
{
"type": "Feature",
"properties": {
"Name": "大船渡市役所",
"Jusho": "岩手県大船渡市盛町字宇津野沢15",
"Capacity": "－",
"la": "39.08190100000",
"ln": "141.70854700000"
},
"geometry": {
"type": "Point",
"coordinates": [
141.708547,
39.081901
]
}
},
{
"type": "Feature",
"properties": {
"Name": "大船渡地区公民館",
"Jusho": "岩手県大船渡市大船渡町字明神前10－4",
"Capacity": "－",
"la": "39.06199300000",
"ln": "141.71322700000"
},
"geometry": {
"type": "Point",
"coordinates": [
141.713227,
39.061993
]
}
},
{
"type": "Feature",
"properties": {
"Name": "大船渡東高校",
"Jusho": "岩手県大船渡市立根町字冷清水1－",
"Capacity": "－",
"la": "39.11186500000",
"ln": "141.71353400000"
},
"geometry": {
"type": "Point",
"coordinates": [
141.713534,
39.111865
]
}
},
{
"type": "Feature",
"properties": {
"Name": "蛸の浦地区公民館",
"Jusho": "岩手県大船渡市赤崎町字鳥沢219-5",
"Capacity": "－",
"la": "39.02871100000",
"ln": "141.74185100000"
},
"geometry": {
"type": "Point",
"coordinates": [
141.741851,
39.028711
]
}
},
{
"type": "Feature",
"properties": {
"Name": "蛸の浦保育園",
"Jusho": "岩手県大船渡市赤崎町字鳥沢62-2",
"Capacity": "－",
"la": "39.03304700000",
"ln": "141.74009300000"
},
"geometry": {
"type": "Point",
"coordinates": [
141.740093,
39.033047
]
}
},
{
"type": "Feature",
"properties": {
"Name": "担い手センター",
"Jusho": "岩手県大船渡市赤崎町字外口86-2",
"Capacity": "－",
"la": "39.02117200000",
"ln": "141.75675800000"
},
"geometry": {
"type": "Point",
"coordinates": [
141.756758,
39.021172
]
}
},
{
"type": "Feature",
"properties": {
"Name": "中野地域公民館",
"Jusho": "岩手県大船渡市末崎町字中野74-6",
"Capacity": "－",
"la": "39.01214263170",
"ln": "141.71292347400"
},
"geometry": {
"type": "Point",
"coordinates": [
141.712923474,
39.0121426317
]
}
},
{
"type": "Feature",
"properties": {
"Name": "猪川地区公民館",
"Jusho": "岩手県大船渡市猪川町字下権現堂8－1",
"Capacity": "－",
"la": "39.09308900000",
"ln": "141.70568500000"
},
"geometry": {
"type": "Point",
"coordinates": [
141.705685,
39.093089
]
}
},
{
"type": "Feature",
"properties": {
"Name": "長源寺",
"Jusho": "岩手県大船渡市末崎町字細浦150－",
"Capacity": "－",
"la": "39.01703104990",
"ln": "141.71280905800"
},
"geometry": {
"type": "Point",
"coordinates": [
141.712809058,
39.0170310499
]
}
},
{
"type": "Feature",
"properties": {
"Name": "天理教愛町分協会愛与布教所",
"Jusho": "岩手県大船渡市末崎町字細浦88-2",
"Capacity": "－",
"la": "39.01484289730",
"ln": "141.71194511600"
},
"geometry": {
"type": "Point",
"coordinates": [
141.711945116,
39.0148428973
]
}
},
{
"type": "Feature",
"properties": {
"Name": "南笹崎公民館",
"Jusho": "岩手県大船渡市大船渡町字笹崎17-5",
"Capacity": "－",
"la": "39.05543859840",
"ln": "141.71973443400"
},
"geometry": {
"type": "Point",
"coordinates": [
141.719734434,
39.0554385984
]
}
},
{
"type": "Feature",
"properties": {
"Name": "富沢二区公民館",
"Jusho": "岩手県大船渡市大船渡町字富沢42",
"Capacity": "－",
"la": "39.07201502510",
"ln": "141.71312992100"
},
"geometry": {
"type": "Point",
"coordinates": [
141.713129921,
39.0720150251
]
}
},
{
"type": "Feature",
"properties": {
"Name": "富美岡荘",
"Jusho": "岩手県大船渡市猪川町字富岡148",
"Capacity": "－",
"la": "39.10119300000",
"ln": "141.71771000000"
},
"geometry": {
"type": "Point",
"coordinates": [
141.71771,
39.101193
]
}
},
{
"type": "Feature",
"properties": {
"Name": "福祉の里センター",
"Jusho": "岩手県大船渡市立根町字田ノ上30-20",
"Capacity": "－",
"la": "39.10175905490",
"ln": "141.71836589800"
},
"geometry": {
"type": "Point",
"coordinates": [
141.718365898,
39.1017590549
]
}
},
{
"type": "Feature",
"properties": {
"Name": "本増寺",
"Jusho": "岩手県大船渡市大船渡町字猪頭42",
"Capacity": "－",
"la": "39.05619532040",
"ln": "141.71489400000"
},
"geometry": {
"type": "Point",
"coordinates": [
141.714894,
39.0561953204
]
}
},
{
"type": "Feature",
"properties": {
"Name": "末崎地区公民館・ふるさとセンター",
"Jusho": "岩手県大船渡市末崎町字平林81",
"Capacity": "－",
"la": "39.00440799910",
"ln": "141.70979900000"
},
"geometry": {
"type": "Point",
"coordinates": [
141.709799,
39.0044079991
]
}
},
{
"type": "Feature",
"properties": {
"Name": "明和保育園",
"Jusho": "岩手県大船渡市大船渡町上山165-3",
"Capacity": "－",
"la": "39.06440300000",
"ln": "141.71381600000"
},
"geometry": {
"type": "Point",
"coordinates": [
141.713816,
39.064403
]
}
},
{
"type": "Feature",
"properties": {
"Name": "ビバハウスいしどりや",
"Jusho": "岩手県花巻市石鳥谷町好地6-78-3",
"Capacity": "－",
"la": "39.49542205120",
"ln": "141.14992383600"
},
"geometry": {
"type": "Point",
"coordinates": [
141.149923836,
39.4954220512
]
}
},
{
"type": "Feature",
"properties": {
"Name": "花巻南高等学校",
"Jusho": "岩手県花巻市中北万丁目288－",
"Capacity": "－",
"la": "39.39340500000",
"ln": "141.08705400000"
},
"geometry": {
"type": "Point",
"coordinates": [
141.087054,
39.393405
]
}
},
{
"type": "Feature",
"properties": {
"Name": "花巻農業高等学校",
"Jusho": "岩手県花巻市葛1-68",
"Capacity": "－",
"la": "39.43923300000",
"ln": "141.14232400000"
},
"geometry": {
"type": "Point",
"coordinates": [
141.142324,
39.439233
]
}
},
{
"type": "Feature",
"properties": {
"Name": "花巻北高等学校",
"Jusho": "岩手県花巻市本舘54",
"Capacity": "－",
"la": "39.41126800000",
"ln": "141.11558600000"
},
"geometry": {
"type": "Point",
"coordinates": [
141.115586,
39.411268
]
}
},
{
"type": "Feature",
"properties": {
"Name": "花南振興センター",
"Jusho": "岩手県花巻市南城57",
"Capacity": "－",
"la": "39.37046400000",
"ln": "141.11925700000"
},
"geometry": {
"type": "Point",
"coordinates": [
141.119257,
39.370464
]
}
},
{
"type": "Feature",
"properties": {
"Name": "花南地区社会体育館",
"Jusho": "岩手県花巻市南城198－",
"Capacity": "－",
"la": "39.36951200000",
"ln": "141.12070500000"
},
"geometry": {
"type": "Point",
"coordinates": [
141.120705,
39.369512
]
}
},
{
"type": "Feature",
"properties": {
"Name": "花北振興センター",
"Jusho": "岩手県花巻市四日町一丁目1-29",
"Capacity": "－",
"la": "39.39687400000",
"ln": "141.11274700000"
},
"geometry": {
"type": "Point",
"coordinates": [
141.112747,
39.396874
]
}
},
{
"type": "Feature",
"properties": {
"Name": "外川目地区基幹集落センター（外川目振興センター）",
"Jusho": "岩手県花巻市大迫町外川目23-54－",
"Capacity": "－",
"la": "39.44357099910",
"ln": "141.31019300000"
},
"geometry": {
"type": "Point",
"coordinates": [
141.310193,
39.4435709991
]
}
},
{
"type": "Feature",
"properties": {
"Name": "外川目地区林業者等トレーニングセンター",
"Jusho": "岩手県花巻市大迫町外川目23-55",
"Capacity": "－",
"la": "39.44353419950",
"ln": "141.30997595900"
},
"geometry": {
"type": "Point",
"coordinates": [
141.309975959,
39.4435341995
]
}
},
{
"type": "Feature",
"properties": {
"Name": "亀ヶ森地区農業構造改善センター（亀ヶ森振興センター）",
"Jusho": "岩手県花巻市大迫町亀ヶ森8-24-8",
"Capacity": "－",
"la": "39.47916299910",
"ln": "141.24507700000"
},
"geometry": {
"type": "Point",
"coordinates": [
141.245077,
39.4791629991
]
}
},
{
"type": "Feature",
"properties": {
"Name": "亀ヶ森地区農業者トレーニングセンター",
"Jusho": "岩手県花巻市大迫町亀ヶ森8-90",
"Capacity": "－",
"la": "39.47953554580",
"ln": "141.24500907100"
},
"geometry": {
"type": "Point",
"coordinates": [
141.245009071,
39.4795355458
]
}
},
{
"type": "Feature",
"properties": {
"Name": "宮野目振興センター",
"Jusho": "岩手県花巻市西宮野目6－72",
"Capacity": "－",
"la": "39.42612700000",
"ln": "141.12876200000"
},
"geometry": {
"type": "Point",
"coordinates": [
141.128762,
39.426127
]
}
},
{
"type": "Feature",
"properties": {
"Name": "宮野目体育センター",
"Jusho": "岩手県花巻市西宮野目6-353－1",
"Capacity": "－",
"la": "39.42418000000",
"ln": "141.12894300000"
},
"geometry": {
"type": "Point",
"coordinates": [
141.128943,
39.42418
]
}
},
{
"type": "Feature",
"properties": {
"Name": "宮野目地区社会体育館",
"Jusho": "岩手県花巻市西宮野目6-353-6",
"Capacity": "－",
"la": "39.42453100000",
"ln": "141.12908500000"
},
"geometry": {
"type": "Point",
"coordinates": [
141.129085,
39.424531
]
}
},
{
"type": "Feature",
"properties": {
"Name": "勤労青少年ホーム",
"Jusho": "岩手県花巻市南川原272",
"Capacity": "－",
"la": "39.38261820330",
"ln": "141.11646454200"
},
"geometry": {
"type": "Point",
"coordinates": [
141.116464542,
39.3826182033
]
}
},
{
"type": "Feature",
"properties": {
"Name": "笹間振興センター",
"Jusho": "岩手県花巻市北笹間13-74－",
"Capacity": "－",
"la": "39.35761400000",
"ln": "141.05192200000"
},
"geometry": {
"type": "Point",
"coordinates": [
141.051922,
39.357614
]
}
},
{
"type": "Feature",
"properties": {
"Name": "笹間地区社会体育館",
"Jusho": "岩手県花巻市北笹間13-74－",
"Capacity": "－",
"la": "39.35761399910",
"ln": "141.05192200000"
},
"geometry": {
"type": "Point",
"coordinates": [
141.051922,
39.3576139991
]
}
},
{
"type": "Feature",
"properties": {
"Name": "市民体育館",
"Jusho": "岩手県花巻市城内1-43",
"Capacity": "－",
"la": "39.38851200000",
"ln": "141.11864000000"
},
"geometry": {
"type": "Point",
"coordinates": [
141.11864,
39.388512
]
}
},
{
"type": "Feature",
"properties": {
"Name": "新堀ふれあいセンター",
"Jusho": "岩手県花巻市石鳥谷町新堀40-27－",
"Capacity": "－",
"la": "39.48692834340",
"ln": "141.17174398600"
},
"geometry": {
"type": "Point",
"coordinates": [
141.171743986,
39.4869283434
]
}
},
{
"type": "Feature",
"properties": {
"Name": "新堀振興センター",
"Jusho": "岩手県花巻市石鳥谷町新堀40-27-2",
"Capacity": "－",
"la": "39.48682100000",
"ln": "141.17213700000"
},
"geometry": {
"type": "Point",
"coordinates": [
141.172137,
39.486821
]
}
},
{
"type": "Feature",
"properties": {
"Name": "生涯学園都市会館",
"Jusho": "岩手県花巻市花城町1-47",
"Capacity": "－",
"la": "39.39120300000",
"ln": "141.11567900000"
},
"geometry": {
"type": "Point",
"coordinates": [
141.115679,
39.391203
]
}
},
{
"type": "Feature",
"properties": {
"Name": "石鳥谷国際交流センター（好地振興センター）",
"Jusho": "岩手県花巻市石鳥谷町好地8-78-3",
"Capacity": "－",
"la": "39.49553131330",
"ln": "141.15031417100"
},
"geometry": {
"type": "Point",
"coordinates": [
141.150314171,
39.4955313133
]
}
},
{
"type": "Feature",
"properties": {
"Name": "石鳥谷生涯学習会館",
"Jusho": "岩手県花巻市石鳥谷町中寺林7－－",
"Capacity": "－",
"la": "39.48242813400",
"ln": "141.14337950800"
},
"geometry": {
"type": "Point",
"coordinates": [
141.143379508,
39.482428134
]
}
},
{
"type": "Feature",
"properties": {
"Name": "石鳥谷体育館",
"Jusho": "岩手県花巻市石鳥谷町中寺林7－－",
"Capacity": "－",
"la": "39.48118700000",
"ln": "141.14294500000"
},
"geometry": {
"type": "Point",
"coordinates": [
141.142945,
39.481187
]
}
},
{
"type": "Feature",
"properties": {
"Name": "総合体育館",
"Jusho": "岩手県花巻市松園町50",
"Capacity": "－",
"la": "39.40636700000",
"ln": "141.09668800000"
},
"geometry": {
"type": "Point",
"coordinates": [
141.096688,
39.406367
]
}
},
{
"type": "Feature",
"properties": {
"Name": "太田振興センター",
"Jusho": "岩手県花巻市太田32－63-3",
"Capacity": "－",
"la": "39.37305700000",
"ln": "141.05240500000"
},
"geometry": {
"type": "Point",
"coordinates": [
141.052405,
39.373057
]
}
},
{
"type": "Feature",
"properties": {
"Name": "太田地区社会体育館",
"Jusho": "岩手県花巻市太田31-292-2",
"Capacity": "－",
"la": "39.37539000000",
"ln": "141.05148800000"
},
"geometry": {
"type": "Point",
"coordinates": [
141.051488,
39.37539
]
}
},
{
"type": "Feature",
"properties": {
"Name": "大瀬川構造改善センター",
"Jusho": "岩手県花巻市石鳥谷町大瀬川10-45-2",
"Capacity": "－",
"la": "39.49994280930",
"ln": "141.11320850800"
},
"geometry": {
"type": "Point",
"coordinates": [
141.113208508,
39.4999428093
]
}
},
{
"type": "Feature",
"properties": {
"Name": "大瀬川振興センター",
"Jusho": "岩手県花巻市石鳥谷町大瀬川10-45-2",
"Capacity": "－",
"la": "39.50000699910",
"ln": "141.11336300000"
},
"geometry": {
"type": "Point",
"coordinates": [
141.113363,
39.5000069991
]
}
},
{
"type": "Feature",
"properties": {
"Name": "大迫ふるさとセンター",
"Jusho": "岩手県花巻市大迫町大迫10－6－",
"Capacity": "－",
"la": "39.47357500000",
"ln": "141.28273700000"
},
"geometry": {
"type": "Point",
"coordinates": [
141.282737,
39.473575
]
}
},
{
"type": "Feature",
"properties": {
"Name": "大迫高等学校",
"Jusho": "岩手県花巻市大迫町大迫9－9－",
"Capacity": "－",
"la": "39.47163800000",
"ln": "141.28720000000"
},
"geometry": {
"type": "Point",
"coordinates": [
141.2872,
39.471638
]
}
},
{
"type": "Feature",
"properties": {
"Name": "大迫体育館",
"Jusho": "岩手県花巻市大迫町大迫3-39",
"Capacity": "－",
"la": "39.46584500000",
"ln": "141.28977500000"
},
"geometry": {
"type": "Point",
"coordinates": [
141.289775,
39.465845
]
}
},
{
"type": "Feature",
"properties": {
"Name": "大迫労働安全衛生推進施設",
"Jusho": "岩手県花巻市大迫町内川目36-85",
"Capacity": "－",
"la": "39.49962266790",
"ln": "141.32448447800"
},
"geometry": {
"type": "Point",
"coordinates": [
141.324484478,
39.4996226679
]
}
},
{
"type": "Feature",
"properties": {
"Name": "定住交流センター",
"Jusho": "岩手県花巻市大通り一丁目2-21",
"Capacity": "－",
"la": "39.39187800000",
"ln": "141.11149600000"
},
"geometry": {
"type": "Point",
"coordinates": [
141.111496,
39.391878
]
}
},
{
"type": "Feature",
"properties": {
"Name": "東和高齢者コミュニティセンター（小山田振興センター）",
"Jusho": "岩手県花巻市東和町北川目2-289",
"Capacity": "－",
"la": "39.41683299910",
"ln": "141.22962900000"
},
"geometry": {
"type": "Point",
"coordinates": [
141.229629,
39.4168329991
]
}
},
{
"type": "Feature",
"properties": {
"Name": "東和高齢者創作館（成島振興センター）",
"Jusho": "岩手県花巻市東和町北成島5-212",
"Capacity": "－",
"la": "39.36308600000",
"ln": "141.20070000000"
},
"geometry": {
"type": "Point",
"coordinates": [
141.2007,
39.363086
]
}
},
{
"type": "Feature",
"properties": {
"Name": "東和体育館",
"Jusho": "岩手県花巻市東和町安俵6-53",
"Capacity": "－",
"la": "39.38579699910",
"ln": "141.22609500000"
},
"geometry": {
"type": "Point",
"coordinates": [
141.226095,
39.3857969991
]
}
},
{
"type": "Feature",
"properties": {
"Name": "東和農業者トレーニングセンター",
"Jusho": "岩手県花巻市東和町安俵6－16",
"Capacity": "－",
"la": "39.38552799910",
"ln": "141.22263600000"
},
"geometry": {
"type": "Point",
"coordinates": [
141.222636,
39.3855279991
]
}
},
{
"type": "Feature",
"properties": {
"Name": "湯口振興センター",
"Jusho": "岩手県花巻市円万寺字堰田53－",
"Capacity": "－",
"la": "39.39316600000",
"ln": "141.04790300000"
},
"geometry": {
"type": "Point",
"coordinates": [
141.047903,
39.393166
]
}
},
{
"type": "Feature",
"properties": {
"Name": "湯口地区社会体育館",
"Jusho": "岩手県花巻市円万寺字堰田52",
"Capacity": "－",
"la": "39.39312700000",
"ln": "141.04719400000"
},
"geometry": {
"type": "Point",
"coordinates": [
141.047194,
39.393127
]
}
},
{
"type": "Feature",
"properties": {
"Name": "湯本振興センター",
"Jusho": "岩手県花巻市湯本4-31-8",
"Capacity": "－",
"la": "39.44504800000",
"ln": "141.08703000000"
},
"geometry": {
"type": "Point",
"coordinates": [
141.08703,
39.445048
]
}
},
{
"type": "Feature",
"properties": {
"Name": "湯本地区社会体育館",
"Jusho": "岩手県花巻市湯本3-79",
"Capacity": "－",
"la": "39.44486500000",
"ln": "141.08536200000"
},
"geometry": {
"type": "Point",
"coordinates": [
141.085362,
39.444865
]
}
},
{
"type": "Feature",
"properties": {
"Name": "内川目地区農村環境改善センター（内川目振興センター）",
"Jusho": "岩手県花巻市大迫町内川目36-85",
"Capacity": "－",
"la": "39.49916499910",
"ln": "141.32443100000"
},
"geometry": {
"type": "Point",
"coordinates": [
141.324431,
39.4991649991
]
}
},
{
"type": "Feature",
"properties": {
"Name": "鍋倉ふれあい交流センター",
"Jusho": "岩手県花巻市鍋倉字地神77-3",
"Capacity": "－",
"la": "39.41133000000",
"ln": "141.06642800000"
},
"geometry": {
"type": "Point",
"coordinates": [
141.066428,
39.41133
]
}
},
{
"type": "Feature",
"properties": {
"Name": "二枚橋体育館",
"Jusho": "岩手県花巻市石鳥谷町南寺林5－43-7",
"Capacity": "－",
"la": "39.44449200000",
"ln": "141.13356100000"
},
"geometry": {
"type": "Point",
"coordinates": [
141.133561,
39.444492
]
}
},
{
"type": "Feature",
"properties": {
"Name": "八重畑定住促進センター（八重畑振興センター）",
"Jusho": "岩手県花巻市石鳥谷町猪鼻7-30－",
"Capacity": "－",
"la": "39.44921300000",
"ln": "141.17316500000"
},
"geometry": {
"type": "Point",
"coordinates": [
141.173165,
39.449213
]
}
},
{
"type": "Feature",
"properties": {
"Name": "八日市いきいき交流館（八日市振興センター）",
"Jusho": "岩手県花巻市石鳥谷町大興寺8－57-4",
"Capacity": "－",
"la": "39.47780899910",
"ln": "141.11851200000"
},
"geometry": {
"type": "Point",
"coordinates": [
141.118512,
39.4778089991
]
}
},
{
"type": "Feature",
"properties": {
"Name": "八日市構造改善センター",
"Jusho": "岩手県花巻市石鳥谷町大興寺8－20-3",
"Capacity": "－",
"la": "39.47771110520",
"ln": "141.11891646400"
},
"geometry": {
"type": "Point",
"coordinates": [
141.118916464,
39.4777111052
]
}
},
{
"type": "Feature",
"properties": {
"Name": "八幡交流センター",
"Jusho": "岩手県花巻市石鳥谷町八幡23－47",
"Capacity": "－",
"la": "39.46788852000",
"ln": "141.14447635500"
},
"geometry": {
"type": "Point",
"coordinates": [
141.144476355,
39.46788852
]
}
},
{
"type": "Feature",
"properties": {
"Name": "八幡振興センター",
"Jusho": "岩手県花巻市石鳥谷町八幡23－47",
"Capacity": "－",
"la": "39.46761100000",
"ln": "141.14435900000"
},
"geometry": {
"type": "Point",
"coordinates": [
141.144359,
39.467611
]
}
},
{
"type": "Feature",
"properties": {
"Name": "稗貫教育会館",
"Jusho": "岩手県花巻市四日町三丁目308",
"Capacity": "－",
"la": "39.40144198770",
"ln": "141.11975263500"
},
"geometry": {
"type": "Point",
"coordinates": [
141.119752635,
39.4014419877
]
}
},
{
"type": "Feature",
"properties": {
"Name": "富士大学",
"Jusho": "岩手県花巻市下根子450-3",
"Capacity": "－",
"la": "39.36063099910",
"ln": "141.10399700000"
},
"geometry": {
"type": "Point",
"coordinates": [
141.103997,
39.3606309991
]
}
},
{
"type": "Feature",
"properties": {
"Name": "武徳殿",
"Jusho": "岩手県花巻市城内11-45",
"Capacity": "－",
"la": "39.39060900000",
"ln": "141.12049800000"
},
"geometry": {
"type": "Point",
"coordinates": [
141.120498,
39.390609
]
}
},
{
"type": "Feature",
"properties": {
"Name": "文化会館",
"Jusho": "岩手県花巻市若葉町三丁目16-22",
"Capacity": "－",
"la": "39.38527300000",
"ln": "141.10141400000"
},
"geometry": {
"type": "Point",
"coordinates": [
141.101414,
39.385273
]
}
},
{
"type": "Feature",
"properties": {
"Name": "矢沢振興センター",
"Jusho": "岩手県花巻市高木19-24－4",
"Capacity": "－",
"la": "39.38480100000",
"ln": "141.14163600000"
},
"geometry": {
"type": "Point",
"coordinates": [
141.141636,
39.384801
]
}
},
{
"type": "Feature",
"properties": {
"Name": "矢沢地区社会体育館",
"Jusho": "岩手県花巻市高松5-42－",
"Capacity": "－",
"la": "39.38936100000",
"ln": "141.15676900000"
},
"geometry": {
"type": "Point",
"coordinates": [
141.156769,
39.389361
]
}
},
{
"type": "Feature",
"properties": {
"Name": "老人福祉センター",
"Jusho": "岩手県花巻市湯口字松原36-30",
"Capacity": "－",
"la": "39.40934499910",
"ln": "141.01497700000"
},
"geometry": {
"type": "Point",
"coordinates": [
141.014977,
39.4093449991
]
}
},
{
"type": "Feature",
"properties": {
"Name": "くにみ保育園",
"Jusho": "岩手県北上市稲瀬町上台586-2",
"Capacity": "60",
"la": "39.24847700000",
"ln": "141.12627700000"
},
"geometry": {
"type": "Point",
"coordinates": [
141.126277,
39.248477
]
}
},
{
"type": "Feature",
"properties": {
"Name": "さくらホール",
"Jusho": "岩手県北上市さくら通り2丁目1番1号",
"Capacity": "338",
"la": "39.29783300000",
"ln": "141.10946900000"
},
"geometry": {
"type": "Point",
"coordinates": [
141.109469,
39.297833
]
}
},
{
"type": "Feature",
"properties": {
"Name": "サンレック北上",
"Jusho": "岩手県北上市常盤台二丁目1番33号",
"Capacity": "165",
"la": "39.30036900000",
"ln": "141.11593700000"
},
"geometry": {
"type": "Point",
"coordinates": [
141.115937,
39.300369
]
}
},
{
"type": "Feature",
"properties": {
"Name": "ふるさと体験館北上",
"Jusho": "岩手県北上市和賀町山口23地割24番地5",
"Capacity": "240",
"la": "39.29642102430",
"ln": "140.97267849200"
},
"geometry": {
"type": "Point",
"coordinates": [
140.972678492,
39.2964210243
]
}
},
{
"type": "Feature",
"properties": {
"Name": "安楽寺",
"Jusho": "岩手県北上市稲瀬町上台205",
"Capacity": "25",
"la": "39.24857690990",
"ln": "141.12470424600"
},
"geometry": {
"type": "Point",
"coordinates": [
141.124704246,
39.2485769099
]
}
},
{
"type": "Feature",
"properties": {
"Name": "稲瀬地区交流センター",
"Jusho": "岩手県北上市稲瀬町前田276",
"Capacity": "60",
"la": "39.24600600000",
"ln": "141.12399700000"
},
"geometry": {
"type": "Point",
"coordinates": [
141.123997,
39.246006
]
}
},
{
"type": "Feature",
"properties": {
"Name": "羽山ふれあいセンター",
"Jusho": "岩手県北上市和賀町岩沢9地割1-3",
"Capacity": "50",
"la": "39.30103840200",
"ln": "140.93150711600"
},
"geometry": {
"type": "Point",
"coordinates": [
140.931507116,
39.301038402
]
}
},
{
"type": "Feature",
"properties": {
"Name": "横川目多目的集会施設",
"Jusho": "岩手県北上市和賀町横川目16地割283番地2",
"Capacity": "50",
"la": "39.32408600000",
"ln": "140.97979200000"
},
"geometry": {
"type": "Point",
"coordinates": [
140.979792,
39.324086
]
}
},
{
"type": "Feature",
"properties": {
"Name": "臥牛農業担手センター",
"Jusho": "岩手県北上市臥牛11地割48番地",
"Capacity": "50",
"la": "39.35915862300",
"ln": "141.17366763800"
},
"geometry": {
"type": "Point",
"coordinates": [
141.173667638,
39.359158623
]
}
},
{
"type": "Feature",
"properties": {
"Name": "岩崎地区交流センター",
"Jusho": "岩手県北上市和賀町岩崎18-53-8",
"Capacity": "50",
"la": "39.28155200000",
"ln": "141.04298500000"
},
"geometry": {
"type": "Point",
"coordinates": [
141.042985,
39.281552
]
}
},
{
"type": "Feature",
"properties": {
"Name": "鬼柳地区交流センター",
"Jusho": "岩手県北上市鬼柳町都鳥49",
"Capacity": "60",
"la": "39.27407900000",
"ln": "141.09533500000"
},
"geometry": {
"type": "Point",
"coordinates": [
141.095335,
39.274079
]
}
},
{
"type": "Feature",
"properties": {
"Name": "県立黒沢尻工業高等学校",
"Jusho": "岩手県北上市村崎野24地割19番地",
"Capacity": "273",
"la": "39.32716300000",
"ln": "141.12564700000"
},
"geometry": {
"type": "Point",
"coordinates": [
141.125647,
39.327163
]
}
},
{
"type": "Feature",
"properties": {
"Name": "県立黒沢尻北高等学校",
"Jusho": "岩手県北上市常盤台一丁目1番69号",
"Capacity": "89",
"la": "39.29702700000",
"ln": "141.12094300000"
},
"geometry": {
"type": "Point",
"coordinates": [
141.120943,
39.297027
]
}
},
{
"type": "Feature",
"properties": {
"Name": "県立北上翔南高等学校",
"Jusho": "岩手県北上市相去町高前壇13番地",
"Capacity": "195",
"la": "39.25908072480",
"ln": "141.09008219800"
},
"geometry": {
"type": "Point",
"coordinates": [
141.090082198,
39.2590807248
]
}
},
{
"type": "Feature",
"properties": {
"Name": "後藤児童館・公民館",
"Jusho": "岩手県北上市和賀町後藤11地割54番地4",
"Capacity": "60",
"la": "39.33523100000",
"ln": "141.03915400000"
},
"geometry": {
"type": "Point",
"coordinates": [
141.039154,
39.335231
]
}
},
{
"type": "Feature",
"properties": {
"Name": "後藤野公民館",
"Jusho": "岩手県北上市和賀町後藤1地割354番地",
"Capacity": "150",
"la": "39.33979090880",
"ln": "140.99354337000"
},
"geometry": {
"type": "Point",
"coordinates": [
140.99354337,
39.3397909088
]
}
},
{
"type": "Feature",
"properties": {
"Name": "口内地区交流センター",
"Jusho": "岩手県北上市口内町新町67",
"Capacity": "45",
"la": "39.29381000000",
"ln": "141.20511200000"
},
"geometry": {
"type": "Point",
"coordinates": [
141.205112,
39.29381
]
}
},
{
"type": "Feature",
"properties": {
"Name": "更木地区交流センター",
"Jusho": "岩手県北上市更木12－51－",
"Capacity": "45",
"la": "39.34259400000",
"ln": "141.14885800000"
},
"geometry": {
"type": "Point",
"coordinates": [
141.148858,
39.342594
]
}
},
{
"type": "Feature",
"properties": {
"Name": "江釣子１５区曽山公民館",
"Jusho": "岩手県北上市北鬼柳3地割75番地",
"Capacity": "50",
"la": "39.30741299910",
"ln": "141.10011000000"
},
"geometry": {
"type": "Point",
"coordinates": [
141.10011,
39.3074129991
]
}
},
{
"type": "Feature",
"properties": {
"Name": "江釣子１７区公民館",
"Jusho": "岩手県北上市北鬼柳21地割92番地1",
"Capacity": "20",
"la": "39.29158963140",
"ln": "141.09212158000"
},
"geometry": {
"type": "Point",
"coordinates": [
141.09212158,
39.2915896314
]
}
},
{
"type": "Feature",
"properties": {
"Name": "江釣子共同福祉施設",
"Jusho": "岩手県北上市鳩岡崎2地割51番地1",
"Capacity": "100",
"la": "39.31388900000",
"ln": "141.08546200000"
},
"geometry": {
"type": "Point",
"coordinates": [
141.085462,
39.313889
]
}
},
{
"type": "Feature",
"properties": {
"Name": "江釣子勤労者体育センター",
"Jusho": "岩手県北上市北鬼柳22地割52番地3",
"Capacity": "200",
"la": "39.29161100000",
"ln": "141.09703100000"
},
"geometry": {
"type": "Point",
"coordinates": [
141.097031,
39.291611
]
}
},
{
"type": "Feature",
"properties": {
"Name": "江釣子地区交流センター",
"Jusho": "岩手県北上市上江釣子17－16",
"Capacity": "130",
"la": "39.29822499910",
"ln": "141.07206500000"
},
"geometry": {
"type": "Point",
"coordinates": [
141.072065,
39.2982249991
]
}
},
{
"type": "Feature",
"properties": {
"Name": "江釣子転作営農研修センター",
"Jusho": "岩手県北上市下江釣子11地割118番地3",
"Capacity": "100",
"la": "39.29892300000",
"ln": "141.04102900000"
},
"geometry": {
"type": "Point",
"coordinates": [
141.041029,
39.298923
]
}
},
{
"type": "Feature",
"properties": {
"Name": "江釣子幼稚園",
"Jusho": "岩手県北上市滑田15地割57番地",
"Capacity": "250",
"la": "39.31690199910",
"ln": "141.06891600000"
},
"geometry": {
"type": "Point",
"coordinates": [
141.068916,
39.3169019991
]
}
},
{
"type": "Feature",
"properties": {
"Name": "江釣子老人福祉センター",
"Jusho": "岩手県北上市上江釣子17地割117番地1",
"Capacity": "25",
"la": "39.29812599910",
"ln": "141.07246000000"
},
"geometry": {
"type": "Point",
"coordinates": [
141.07246,
39.2981259991
]
}
},
{
"type": "Feature",
"properties": {
"Name": "黒岩地区交流センター",
"Jusho": "岩手県北上市黒岩19-36-2",
"Capacity": "50",
"la": "39.30973200000",
"ln": "141.15547000000"
},
"geometry": {
"type": "Point",
"coordinates": [
141.15547,
39.309732
]
}
},
{
"type": "Feature",
"properties": {
"Name": "黒沢尻西地区交流センター",
"Jusho": "岩手県北上市本石町1-6-20",
"Capacity": "70",
"la": "39.29113100000",
"ln": "141.11299600000"
},
"geometry": {
"type": "Point",
"coordinates": [
141.112996,
39.291131
]
}
},
{
"type": "Feature",
"properties": {
"Name": "黒沢尻体育館",
"Jusho": "岩手県北上市本石町二丁目5番1号",
"Capacity": "400",
"la": "39.29220600000",
"ln": "141.11651000000"
},
"geometry": {
"type": "Point",
"coordinates": [
141.11651,
39.292206
]
}
},
{
"type": "Feature",
"properties": {
"Name": "黒沢尻東地区交流センター",
"Jusho": "岩手県北上市中野町1-5-46",
"Capacity": "90",
"la": "39.28778700000",
"ln": "141.12460400000"
},
"geometry": {
"type": "Point",
"coordinates": [
141.124604,
39.287787
]
}
},
{
"type": "Feature",
"properties": {
"Name": "黒沢尻北地区交流センター",
"Jusho": "岩手県北上市常盤台1-30-20",
"Capacity": "60",
"la": "39.30463500000",
"ln": "141.12036700000"
},
"geometry": {
"type": "Point",
"coordinates": [
141.120367,
39.304635
]
}
},
{
"type": "Feature",
"properties": {
"Name": "市民江釣子体育館",
"Jusho": "岩手県北上市上江釣子17地割116番地",
"Capacity": "350",
"la": "39.29829334960",
"ln": "141.07191683800"
},
"geometry": {
"type": "Point",
"coordinates": [
141.071916838,
39.2982933496
]
}
},
{
"type": "Feature",
"properties": {
"Name": "市民和賀体育館",
"Jusho": "岩手県北上市和賀町竪川目2地割18番地2",
"Capacity": "500",
"la": "39.30569852540",
"ln": "140.99650174000"
},
"geometry": {
"type": "Point",
"coordinates": [
140.99650174,
39.3056985254
]
}
},
{
"type": "Feature",
"properties": {
"Name": "上台公民館",
"Jusho": "岩手県北上市稲瀬町上台200－",
"Capacity": "15",
"la": "39.24928638060",
"ln": "141.12574251800"
},
"geometry": {
"type": "Point",
"coordinates": [
141.125742518,
39.2492863806
]
}
},
{
"type": "Feature",
"properties": {
"Name": "仙人公民館",
"Jusho": "岩手県北上市和賀町仙人7地割5番地",
"Capacity": "15",
"la": "39.30761700000",
"ln": "140.91290100000"
},
"geometry": {
"type": "Point",
"coordinates": [
140.912901,
39.307617
]
}
},
{
"type": "Feature",
"properties": {
"Name": "専修大学北上高等学校",
"Jusho": "岩手県北上市新穀町二丁目4番64号",
"Capacity": "300",
"la": "39.29091600000",
"ln": "141.11066600000"
},
"geometry": {
"type": "Point",
"coordinates": [
141.110666,
39.290916
]
}
},
{
"type": "Feature",
"properties": {
"Name": "相去体育館",
"Jusho": "岩手県北上市相去町小糠沢19番地",
"Capacity": "200",
"la": "39.25708239420",
"ln": "141.11125966600"
},
"geometry": {
"type": "Point",
"coordinates": [
141.111259666,
39.2570823942
]
}
},
{
"type": "Feature",
"properties": {
"Name": "相去地区交流センター",
"Jusho": "岩手県北上市相去町小糠沢19",
"Capacity": "290",
"la": "39.25718500000",
"ln": "141.11121400000"
},
"geometry": {
"type": "Point",
"coordinates": [
141.111214,
39.257185
]
}
},
{
"type": "Feature",
"properties": {
"Name": "村崎野体育館",
"Jusho": "岩手県北上市北工業団地1地割7番地",
"Capacity": "350",
"la": "39.32976299910",
"ln": "141.12155000000"
},
"geometry": {
"type": "Point",
"coordinates": [
141.12155,
39.3297629991
]
}
},
{
"type": "Feature",
"properties": {
"Name": "津村田生活改善センター",
"Jusho": "岩手県北上市和賀町横川目27地割140番地2",
"Capacity": "50",
"la": "39.33348600000",
"ln": "140.98377900000"
},
"geometry": {
"type": "Point",
"coordinates": [
140.983779,
39.333486
]
}
},
{
"type": "Feature",
"properties": {
"Name": "藤根地区交流センター",
"Jusho": "岩手県北上市和賀町藤根14－47-3",
"Capacity": "60",
"la": "39.31648081990",
"ln": "141.03109347400"
},
"geometry": {
"type": "Point",
"coordinates": [
141.031093474,
39.3164808199
]
}
},
{
"type": "Feature",
"properties": {
"Name": "縄文館",
"Jusho": "岩手県北上市稲瀬町大谷地316",
"Capacity": "10",
"la": "39.24145361190",
"ln": "141.13055453600"
},
"geometry": {
"type": "Point",
"coordinates": [
141.130554536,
39.2414536119
]
}
},
{
"type": "Feature",
"properties": {
"Name": "二子地区交流センター",
"Jusho": "岩手県北上市二子町鳥喰前49-4",
"Capacity": "60",
"la": "39.32001700000",
"ln": "141.13821300000"
},
"geometry": {
"type": "Point",
"coordinates": [
141.138213,
39.320017
]
}
},
{
"type": "Feature",
"properties": {
"Name": "飯豊地区交流センター",
"Jusho": "岩手県北上市村崎野12-67-6",
"Capacity": "70",
"la": "39.33290400000",
"ln": "141.09933000000"
},
"geometry": {
"type": "Point",
"coordinates": [
141.09933,
39.332904
]
}
},
{
"type": "Feature",
"properties": {
"Name": "北上勤労者体育センター",
"Jusho": "岩手県北上市幸町1番30号",
"Capacity": "60",
"la": "39.28511899910",
"ln": "141.12098100000"
},
"geometry": {
"type": "Point",
"coordinates": [
141.120981,
39.2851189991
]
}
},
{
"type": "Feature",
"properties": {
"Name": "北上市総合福祉センター",
"Jusho": "岩手県北上市常盤台2丁目1番63号",
"Capacity": "35",
"la": "39.30050121510",
"ln": "141.11658124600"
},
"geometry": {
"type": "Point",
"coordinates": [
141.116581246,
39.3005012151
]
}
},
{
"type": "Feature",
"properties": {
"Name": "北上市民成田スポーツ交流館",
"Jusho": "岩手県北上市成田24地割23番地",
"Capacity": "300",
"la": "39.35048469840",
"ln": "141.12960731700"
},
"geometry": {
"type": "Point",
"coordinates": [
141.129607317,
39.3504846984
]
}
},
{
"type": "Feature",
"properties": {
"Name": "北上総合体育館",
"Jusho": "岩手県北上市相去町高前壇地内",
"Capacity": "1990",
"la": "39.25883399910",
"ln": "141.09289100000"
},
"geometry": {
"type": "Point",
"coordinates": [
141.092891,
39.2588339991
]
}
},
{
"type": "Feature",
"properties": {
"Name": "立花地区交流センター",
"Jusho": "岩手県北上市立花20-57－4",
"Capacity": "80",
"la": "39.28438500000",
"ln": "141.14199100000"
},
"geometry": {
"type": "Point",
"coordinates": [
141.141991,
39.284385
]
}
},
{
"type": "Feature",
"properties": {
"Name": "和賀地区交流センター",
"Jusho": "岩手県北上市和賀町竪川目2－8-2",
"Capacity": "210",
"la": "39.30595600000",
"ln": "140.99668000000"
},
"geometry": {
"type": "Point",
"coordinates": [
140.99668,
39.305956
]
}
},
{
"type": "Feature",
"properties": {
"Name": "和賀町総合福祉センター",
"Jusho": "岩手県北上市和賀町横川目10地割20番地3",
"Capacity": "35",
"la": "39.30666400000",
"ln": "140.97980236200"
},
"geometry": {
"type": "Point",
"coordinates": [
140.979802362,
39.306664
]
}
},
{
"type": "Feature",
"properties": {
"Name": "和賀農村環境改善センター",
"Jusho": "岩手県北上市和賀町堅川目1地割1番地13",
"Capacity": "150",
"la": "39.31116400000",
"ln": "140.99920200000"
},
"geometry": {
"type": "Point",
"coordinates": [
140.999202,
39.311164
]
}
},
{
"type": "Feature",
"properties": {
"Name": "プランドール・くじ会館",
"Jusho": "岩手県久慈市長内町28－03－8",
"Capacity": "－",
"la": "40.18529004070",
"ln": "141.78834163800"
},
"geometry": {
"type": "Point",
"coordinates": [
141.788341638,
40.1852900407
]
}
},
{
"type": "Feature",
"properties": {
"Name": "へいのくち公民館",
"Jusho": "岩手県久慈市夏井町閉伊口7－2-7",
"Capacity": "－",
"la": "40.21767946100",
"ln": "141.79021542000"
},
"geometry": {
"type": "Point",
"coordinates": [
141.79021542,
40.217679461
]
}
},
{
"type": "Feature",
"properties": {
"Name": "旭町公民館",
"Jusho": "岩手県久慈市旭町7-73",
"Capacity": "－",
"la": "40.20188400000",
"ln": "141.77438800000"
},
"geometry": {
"type": "Point",
"coordinates": [
141.774388,
40.201884
]
}
},
{
"type": "Feature",
"properties": {
"Name": "宇部公民館",
"Jusho": "岩手県久慈市宇部町5-41",
"Capacity": "－",
"la": "40.13109400000",
"ln": "141.78738700000"
},
"geometry": {
"type": "Point",
"coordinates": [
141.787387,
40.131094
]
}
},
{
"type": "Feature",
"properties": {
"Name": "宇部保育園",
"Jusho": "岩手県久慈市宇部町5－18",
"Capacity": "－",
"la": "40.13212671220",
"ln": "141.78461150500"
},
"geometry": {
"type": "Point",
"coordinates": [
141.784611505,
40.1321267122
]
}
},
{
"type": "Feature",
"properties": {
"Name": "羽黒山神社",
"Jusho": "岩手県久慈市畑田20-37－",
"Capacity": "－",
"la": "40.19420834210",
"ln": "141.72673858200"
},
"geometry": {
"type": "Point",
"coordinates": [
141.726738582,
40.1942083421
]
}
},
{
"type": "Feature",
"properties": {
"Name": "栄町町民会館",
"Jusho": "岩手県久慈市栄町32-49-2",
"Capacity": "－",
"la": "40.19511300000",
"ln": "141.76039100000"
},
"geometry": {
"type": "Point",
"coordinates": [
141.760391,
40.195113
]
}
},
{
"type": "Feature",
"properties": {
"Name": "横沼コミュニティーセンター",
"Jusho": "岩手県久慈市侍浜町横沼9-64-4",
"Capacity": "－",
"la": "40.26029367600",
"ln": "141.81031238200"
},
"geometry": {
"type": "Point",
"coordinates": [
141.810312382,
40.260293676
]
}
},
{
"type": "Feature",
"properties": {
"Name": "岡堀公民館",
"Jusho": "岩手県久慈市山形町戸呂町2-6－",
"Capacity": "－",
"la": "40.21584100000",
"ln": "141.54769000000"
},
"geometry": {
"type": "Point",
"coordinates": [
141.54769,
40.215841
]
}
},
{
"type": "Feature",
"properties": {
"Name": "下長内公民館",
"Jusho": "岩手県久慈市長内町28-73－",
"Capacity": "－",
"la": "40.18539700000",
"ln": "141.78342100000"
},
"geometry": {
"type": "Point",
"coordinates": [
141.783421,
40.185397
]
}
},
{
"type": "Feature",
"properties": {
"Name": "下日当公民館",
"Jusho": "岩手県久慈市小久慈町13－9-4",
"Capacity": "－",
"la": "40.16278101720",
"ln": "141.73906659800"
},
"geometry": {
"type": "Point",
"coordinates": [
141.739066598,
40.1627810172
]
}
},
{
"type": "Feature",
"properties": {
"Name": "下柏木公民館",
"Jusho": "岩手県久慈市小久慈町30-47-5",
"Capacity": "－",
"la": "40.17378625550",
"ln": "141.75283416900"
},
"geometry": {
"type": "Point",
"coordinates": [
141.752834169,
40.1737862555
]
}
},
{
"type": "Feature",
"properties": {
"Name": "夏井駅前大湊公民館",
"Jusho": "岩手県久慈市夏井町大崎13-50－",
"Capacity": "－",
"la": "40.21023300000",
"ln": "141.79457500000"
},
"geometry": {
"type": "Point",
"coordinates": [
141.794575,
40.210233
]
}
},
{
"type": "Feature",
"properties": {
"Name": "夏井公民館",
"Jusho": "岩手県久慈市夏井町早坂8－－",
"Capacity": "－",
"la": "40.21657100000",
"ln": "141.77377900000"
},
"geometry": {
"type": "Point",
"coordinates": [
141.773779,
40.216571
]
}
},
{
"type": "Feature",
"properties": {
"Name": "夏井地域ふれあい館",
"Jusho": "岩手県久慈市夏井町夏井1-88-5",
"Capacity": "－",
"la": "40.22067485170",
"ln": "141.75508487000"
},
"geometry": {
"type": "Point",
"coordinates": [
141.75508487,
40.2206748517
]
}
},
{
"type": "Feature",
"properties": {
"Name": "夏井農村地域交流館",
"Jusho": "岩手県久慈市夏井町夏井22-90－2",
"Capacity": "－",
"la": "40.23520531190",
"ln": "141.69594268200"
},
"geometry": {
"type": "Point",
"coordinates": [
141.695942682,
40.2352053119
]
}
},
{
"type": "Feature",
"properties": {
"Name": "荷軽部地区集落センター",
"Jusho": "岩手県久慈市山形町荷軽部3-7",
"Capacity": "－",
"la": "40.15090770070",
"ln": "141.50543774500"
},
"geometry": {
"type": "Point",
"coordinates": [
141.505437745,
40.1509077007
]
}
},
{
"type": "Feature",
"properties": {
"Name": "荷軽部保育園",
"Jusho": "岩手県久慈市山形町荷軽部3-58－",
"Capacity": "－",
"la": "40.15134800000",
"ln": "141.50414000000"
},
"geometry": {
"type": "Point",
"coordinates": [
141.50414,
40.151348
]
}
},
{
"type": "Feature",
"properties": {
"Name": "外屋敷子供会館",
"Jusho": "岩手県久慈市侍浜町外屋敷6－3",
"Capacity": "－",
"la": "40.27598639940",
"ln": "141.79386655600"
},
"geometry": {
"type": "Point",
"coordinates": [
141.793866556,
40.2759863994
]
}
},
{
"type": "Feature",
"properties": {
"Name": "角柄公民館",
"Jusho": "岩手県久慈市侍浜町角柄11－26－",
"Capacity": "－",
"la": "40.25186381490",
"ln": "141.73379878200"
},
"geometry": {
"type": "Point",
"coordinates": [
141.733798782,
40.2518638149
]
}
},
{
"type": "Feature",
"properties": {
"Name": "苅間沢集会所",
"Jusho": "岩手県久慈市山形町荷軽部8－7－",
"Capacity": "－",
"la": "40.17164728080",
"ln": "141.49848496000"
},
"geometry": {
"type": "Point",
"coordinates": [
141.49848496,
40.1716472808
]
}
},
{
"type": "Feature",
"properties": {
"Name": "岩瀬張公民館",
"Jusho": "岩手県久慈市小久慈町3-46-3",
"Capacity": "－",
"la": "40.15800376950",
"ln": "141.73308896500"
},
"geometry": {
"type": "Point",
"coordinates": [
141.733088965,
40.1580037695
]
}
},
{
"type": "Feature",
"properties": {
"Name": "久喜公民館",
"Jusho": "岩手県久慈市宇部町20－49－",
"Capacity": "－",
"la": "40.13694091810",
"ln": "141.84004268300"
},
"geometry": {
"type": "Point",
"coordinates": [
141.840042683,
40.1369409181
]
}
},
{
"type": "Feature",
"properties": {
"Name": "久喜保育園",
"Jusho": "岩手県久慈市宇部町20－46－",
"Capacity": "－",
"la": "40.13636199910",
"ln": "141.84015600000"
},
"geometry": {
"type": "Point",
"coordinates": [
141.840156,
40.1363619991
]
}
},
{
"type": "Feature",
"properties": {
"Name": "久慈高等学校",
"Jusho": "岩手県久慈市畑田26-96",
"Capacity": "－",
"la": "40.19218000000",
"ln": "141.74323800000"
},
"geometry": {
"type": "Point",
"coordinates": [
141.743238,
40.19218
]
}
},
{
"type": "Feature",
"properties": {
"Name": "久慈高等学校長内校",
"Jusho": "岩手県久慈市川崎町1－5",
"Capacity": "－",
"la": "40.19110400000",
"ln": "141.77696500000"
},
"geometry": {
"type": "Point",
"coordinates": [
141.776965,
40.191104
]
}
},
{
"type": "Feature",
"properties": {
"Name": "久慈市グランドホテル",
"Jusho": "岩手県久慈市川崎町10－5",
"Capacity": "－",
"la": "40.18963900790",
"ln": "141.77175053800"
},
"geometry": {
"type": "Point",
"coordinates": [
141.771750538,
40.1896390079
]
}
},
{
"type": "Feature",
"properties": {
"Name": "久慈市山形Ｂ＆Ｇ海洋センター",
"Jusho": "岩手県久慈市山形町川井13-70-2",
"Capacity": "－",
"la": "40.14126100000",
"ln": "141.56432600000"
},
"geometry": {
"type": "Point",
"coordinates": [
141.564326,
40.141261
]
}
},
{
"type": "Feature",
"properties": {
"Name": "久慈市山形総合センター",
"Jusho": "岩手県久慈市山形町川井8-30－",
"Capacity": "－",
"la": "40.14865900000",
"ln": "141.57152900000"
},
"geometry": {
"type": "Point",
"coordinates": [
141.571529,
40.148659
]
}
},
{
"type": "Feature",
"properties": {
"Name": "久慈市総合福祉センター",
"Jusho": "岩手県久慈市旭町7－27-3",
"Capacity": "－",
"la": "40.20326400000",
"ln": "141.77909600000"
},
"geometry": {
"type": "Point",
"coordinates": [
141.779096,
40.203264
]
}
},
{
"type": "Feature",
"properties": {
"Name": "久慈市文化会館（アンバーホール）",
"Jusho": "岩手県久慈市川崎町17－",
"Capacity": "－",
"la": "40.19192099910",
"ln": "141.77861300000"
},
"geometry": {
"type": "Point",
"coordinates": [
141.778613,
40.1919209991
]
}
},
{
"type": "Feature",
"properties": {
"Name": "久慈市文化財保管・展示施設",
"Jusho": "岩手県久慈市小久慈町37-32－",
"Capacity": "－",
"la": "40.17237900000",
"ln": "141.75973700000"
},
"geometry": {
"type": "Point",
"coordinates": [
141.759737,
40.172379
]
}
},
{
"type": "Feature",
"properties": {
"Name": "久慈市保健センター",
"Jusho": "岩手県久慈市川崎町11－",
"Capacity": "－",
"la": "40.19080560130",
"ln": "141.77128800000"
},
"geometry": {
"type": "Point",
"coordinates": [
141.771288,
40.1908056013
]
}
},
{
"type": "Feature",
"properties": {
"Name": "久慈市防災センター",
"Jusho": "岩手県久慈市長内町29-21－",
"Capacity": "－",
"la": "40.18791519390",
"ln": "141.78609571000"
},
"geometry": {
"type": "Point",
"coordinates": [
141.78609571,
40.1879151939
]
}
},
{
"type": "Feature",
"properties": {
"Name": "久慈市民体育館",
"Jusho": "岩手県久慈市新中の橋4－3-3",
"Capacity": "－",
"la": "40.19447599910",
"ln": "141.76874300000"
},
"geometry": {
"type": "Point",
"coordinates": [
141.768743,
40.1944759991
]
}
},
{
"type": "Feature",
"properties": {
"Name": "久慈市立園芸センター",
"Jusho": "岩手県久慈市宇部町12-8－",
"Capacity": "－",
"la": "40.12328400000",
"ln": "141.79924800000"
},
"geometry": {
"type": "Point",
"coordinates": [
141.799248,
40.123284
]
}
},
{
"type": "Feature",
"properties": {
"Name": "久慈市立中央公民館",
"Jusho": "岩手県久慈市新中の橋5-28-4",
"Capacity": "－",
"la": "40.19462299910",
"ln": "141.77009000000"
},
"geometry": {
"type": "Point",
"coordinates": [
141.77009,
40.1946229991
]
}
},
{
"type": "Feature",
"properties": {
"Name": "久慈市老人福祉センター",
"Jusho": "岩手県久慈市長内町9-67-2",
"Capacity": "－",
"la": "40.18225800000",
"ln": "141.76414600000"
},
"geometry": {
"type": "Point",
"coordinates": [
141.764146,
40.182258
]
}
},
{
"type": "Feature",
"properties": {
"Name": "久慈総合運動場",
"Jusho": "岩手県久慈市長内町28－05－",
"Capacity": "－",
"la": "40.17941480500",
"ln": "141.79111800000"
},
"geometry": {
"type": "Point",
"coordinates": [
141.791118,
40.179414805
]
}
},
{
"type": "Feature",
"properties": {
"Name": "久慈東高等学校",
"Jusho": "岩手県久慈市門前36－0",
"Capacity": "－",
"la": "40.20082500000",
"ln": "141.76307700000"
},
"geometry": {
"type": "Point",
"coordinates": [
141.763077,
40.200825
]
}
},
{
"type": "Feature",
"properties": {
"Name": "久慈東高等学校長内校舎",
"Jusho": "岩手県久慈市長内町43-81-2",
"Capacity": "－",
"la": "40.18113777810",
"ln": "141.80533723300"
},
"geometry": {
"type": "Point",
"coordinates": [
141.805337233,
40.1811377781
]
}
},
{
"type": "Feature",
"properties": {
"Name": "久慈湊保育園",
"Jusho": "岩手県久慈市湊町19-8－",
"Capacity": "－",
"la": "40.20139385580",
"ln": "141.79091441600"
},
"geometry": {
"type": "Point",
"coordinates": [
141.790914416,
40.2013938558
]
}
},
{
"type": "Feature",
"properties": {
"Name": "金刀比羅神社",
"Jusho": "岩手県久慈市湊町13-90",
"Capacity": "－",
"la": "40.20328507370",
"ln": "141.79155562100"
},
"geometry": {
"type": "Point",
"coordinates": [
141.791555621,
40.2032850737
]
}
},
{
"type": "Feature",
"properties": {
"Name": "桑畑漁村センター",
"Jusho": "岩手県久慈市侍浜町桑畑5－-2",
"Capacity": "－",
"la": "40.28849528440",
"ln": "141.79058663800"
},
"geometry": {
"type": "Point",
"coordinates": [
141.790586638,
40.2884952844
]
}
},
{
"type": "Feature",
"properties": {
"Name": "繋地区消防コミュニティセンター",
"Jusho": "岩手県久慈市山形町繋20-30-2",
"Capacity": "－",
"la": "40.14336699910",
"ln": "141.66010000000"
},
"geometry": {
"type": "Point",
"coordinates": [
141.6601,
40.1433669991
]
}
},
{
"type": "Feature",
"properties": {
"Name": "元木沢公民館",
"Jusho": "岩手県久慈市長内町36－2-3",
"Capacity": "－",
"la": "40.18926909420",
"ln": "141.79712291200"
},
"geometry": {
"type": "Point",
"coordinates": [
141.797122912,
40.1892690942
]
}
},
{
"type": "Feature",
"properties": {
"Name": "戸呂町地区集落センター",
"Jusho": "岩手県久慈市山形町戸呂町4-21-3",
"Capacity": "－",
"la": "40.20208600000",
"ln": "141.59121600000"
},
"geometry": {
"type": "Point",
"coordinates": [
141.591216,
40.202086
]
}
},
{
"type": "Feature",
"properties": {
"Name": "戸呂町保育園",
"Jusho": "岩手県久慈市山形町戸呂町5-35-39",
"Capacity": "－",
"la": "40.20101900000",
"ln": "141.59046600000"
},
"geometry": {
"type": "Point",
"coordinates": [
141.590466,
40.201019
]
}
},
{
"type": "Feature",
"properties": {
"Name": "高砂公民館",
"Jusho": "岩手県久慈市夏井町閉伊口1-28－",
"Capacity": "－",
"la": "40.22673252090",
"ln": "141.78349513900"
},
"geometry": {
"type": "Point",
"coordinates": [
141.783495139,
40.2267325209
]
}
},
{
"type": "Feature",
"properties": {
"Name": "国坂青少年会館",
"Jusho": "岩手県久慈市夏井町夏井10-9-5",
"Capacity": "－",
"la": "40.23139233160",
"ln": "141.72027806100"
},
"geometry": {
"type": "Point",
"coordinates": [
141.720278061,
40.2313923316
]
}
},
{
"type": "Feature",
"properties": {
"Name": "黒沼公民館",
"Jusho": "岩手県久慈市夏井町黒沼5－-2",
"Capacity": "－",
"la": "40.22056104250",
"ln": "141.76438129400"
},
"geometry": {
"type": "Point",
"coordinates": [
141.764381294,
40.2205610425
]
}
},
{
"type": "Feature",
"properties": {
"Name": "細野公民館",
"Jusho": "岩手県久慈市山根町細野3－25",
"Capacity": "－",
"la": "40.05531349320",
"ln": "141.68273764700"
},
"geometry": {
"type": "Point",
"coordinates": [
141.682737647,
40.0553134932
]
}
},
{
"type": "Feature",
"properties": {
"Name": "三崎林業センター",
"Jusho": "岩手県久慈市宇部町22-27-4",
"Capacity": "－",
"la": "40.14600625240",
"ln": "141.85027153600"
},
"geometry": {
"type": "Point",
"coordinates": [
141.850271536,
40.1460062524
]
}
},
{
"type": "Feature",
"properties": {
"Name": "三船十段記念館",
"Jusho": "岩手県久慈市川貫5-20-230",
"Capacity": "－",
"la": "40.18780799910",
"ln": "141.75896500000"
},
"geometry": {
"type": "Point",
"coordinates": [
141.758965,
40.1878079991
]
}
},
{
"type": "Feature",
"properties": {
"Name": "山形老人福祉センター",
"Jusho": "岩手県久慈市山形町川井12-60-2",
"Capacity": "－",
"la": "40.14526700000",
"ln": "141.56952300000"
},
"geometry": {
"type": "Point",
"coordinates": [
141.569523,
40.145267
]
}
},
{
"type": "Feature",
"properties": {
"Name": "山口地区農業技術伝承館",
"Jusho": "岩手県久慈市大川目町22-56－",
"Capacity": "－",
"la": "40.19096276560",
"ln": "141.70988965200"
},
"geometry": {
"type": "Point",
"coordinates": [
141.709889652,
40.1909627656
]
}
},
{
"type": "Feature",
"properties": {
"Name": "山口八幡宮",
"Jusho": "岩手県久慈市大川目町13-3",
"Capacity": "－",
"la": "40.18671839500",
"ln": "141.70759736200"
},
"geometry": {
"type": "Point",
"coordinates": [
141.707597362,
40.186718395
]
}
},
{
"type": "Feature",
"properties": {
"Name": "侍浜公民館",
"Jusho": "岩手県久慈市侍浜町向町8-3-2",
"Capacity": "－",
"la": "40.26879300000",
"ln": "141.79637700000"
},
"geometry": {
"type": "Point",
"coordinates": [
141.796377,
40.268793
]
}
},
{
"type": "Feature",
"properties": {
"Name": "慈光寺",
"Jusho": "岩手県久慈市大川目町22-62",
"Capacity": "－",
"la": "40.19299922750",
"ln": "141.70767217400"
},