var fukuoka={"type":"FeatureCollection","name":"fukuoka","features":[
{"type":"Feature","geometry":{"type":"Point","coordinates":[130.75,33.769]},"properties":{"Name":"イオンモール株式会社　イオンモール直方","Jusho":"福岡県直方市湯野原2-1-1","kouzui":"○","gake":"○","takashio":"○","jishin":"○","tsunami":"○","kaji":"○","naisui":"○","kazan":"×"}}
,{"type":"Feature","geometry":{"type":"Point","coordinates":[130.835,33.887]},"properties":{"Name":"夜宮公園","Jusho":"福岡県北九州市戸畑区一枝1-3","kouzui":"○","gake":"○","takashio":"○","jishin":"○","tsunami":"○","kaji":"○","naisui":"○","kazan":"×"}}
,{"type":"Feature","geometry":{"type":"Point","coordinates":[130.839,33.887]},"properties":{"Name":"一枝市民センター","Jusho":"福岡県北九州市戸畑区一枝1-8-1","kouzui":"○","gake":"○","takashio":"○","jishin":"○","tsunami":"○","kaji":"○","naisui":"○","kazan":"×"}}
,{"type":"Feature","geometry":{"type":"Point","coordinates":[130.84,33.885]},"properties":{"Name":"一枝小学校","Jusho":"福岡県北九州市戸畑区一枝2-7-1","kouzui":"○","gake":"○","takashio":"○","jishin":"○","tsunami":"○","kaji":"○","naisui":"○","kazan":"×"}}
,{"type":"Feature","geometry":{"type":"Point","coordinates":[130.819,33.891]},"properties":{"Name":"牧山小学校","Jusho":"福岡県北九州市戸畑区丸町2-15-25","kouzui":"○","gake":"○","takashio":"○","jishin":"○","tsunami":"○","kaji":"○","naisui":"○","kazan":"×"}}
,{"type":"Feature","geometry":{"type":"Point","coordinates":[130.818,33.889]},"properties":{"Name":"戸畑工業高等学校","Jusho":"福岡県北九州市戸畑区丸町3-10-1","kouzui":"×","gake":"×","takashio":"○","jishin":"×","tsunami":"○","kaji":"○","naisui":"×","kazan":"×"}}
,{"type":"Feature","geometry":{"type":"Point","coordinates":[130.844,33.892]},"properties":{"Name":"中原中学校","Jusho":"福岡県北九州市戸畑区境川2-6-1","kouzui":"○","gake":"○","takashio":"○","jishin":"○","tsunami":"○","kaji":"○","naisui":"○","kazan":"×"}}
,{"type":"Feature","geometry":{"type":"Point","coordinates":[130.841,33.875]},"properties":{"Name":"中央公園","Jusho":"福岡県北九州市戸畑区金比羅町1","kouzui":"○","gake":"○","takashio":"○","jishin":"○","tsunami":"○","kaji":"○","naisui":"○","kazan":"×"}}
,{"type":"Feature","geometry":{"type":"Point","coordinates":[130.824,33.889]},"properties":{"Name":"高生中学校","Jusho":"福岡県北九州市戸畑区高峰1-6-1","kouzui":"○","gake":"○","takashio":"○","jishin":"○","tsunami":"○","kaji":"○","naisui":"○","kazan":"×"}}
,{"type":"Feature","geometry":{"type":"Point","coordinates":[130.835,33.893]},"properties":{"Name":"飛幡中学校","Jusho":"福岡県北九州市戸畑区小芝1-8-20","kouzui":"○","gake":"○","takashio":"○","jishin":"○","tsunami":"○","kaji":"○","naisui":"○","kazan":"×"}}
,{"type":"Feature","geometry":{"type":"Point","coordinates":[130.835,33.895]},"properties":{"Name":"沢見市民センター","Jusho":"福岡県北九州市戸畑区小芝2-1-4","kouzui":"○","gake":"○","takashio":"○","jishin":"○","tsunami":"○","kaji":"○","naisui":"○","kazan":"×"}}
,{"type":"Feature","geometry":{"type":"Point","coordinates":[130.837,33.9]},"properties":{"Name":"三六市民センター","Jusho":"福岡県北九州市戸畑区小芝3-12-2","kouzui":"○","gake":"○","takashio":"○","jishin":"○","tsunami":"○","kaji":"○","naisui":"○","kazan":"×"}}
,{"type":"Feature","geometry":{"type":"Point","coordinates":[130.822,33.891]},"properties":{"Name":"牧山東市民センター","Jusho":"福岡県北九州市戸畑区新川町3-25","kouzui":"○","gake":"○","takashio":"×","jishin":"○","tsunami":"○","kaji":"○","naisui":"○","kazan":"×"}}
,{"type":"Feature","geometry":{"type":"Point","coordinates":[130.829,33.898]},"properties":{"Name":"戸畑中央小学校","Jusho":"福岡県北九州市戸畑区新池2-1-12","kouzui":"○","gake":"○","takashio":"○","jishin":"○","tsunami":"○","kaji":"○","naisui":"○","kazan":"×"}}
,{"type":"Feature","geometry":{"type":"Point","coordinates":[130.828,33.883]},"properties":{"Name":"大谷小学校","Jusho":"福岡県北九州市戸畑区菅原4-6-1","kouzui":"○","gake":"○","takashio":"○","jishin":"○","tsunami":"○","kaji":"○","naisui":"○","kazan":"×"}}
,{"type":"Feature","geometry":{"type":"Point","coordinates":[130.827,33.87]},"properties":{"Name":"美術の森公園","Jusho":"福岡県北九州市戸畑区西鞘ケ谷町21","kouzui":"×","gake":"×","takashio":"○","jishin":"×","tsunami":"○","kaji":"○","naisui":"×","kazan":"×"}}
,{"type":"Feature","geometry":{"type":"Point","coordinates":[130.833,33.878]},"properties":{"Name":"鞘ヶ谷市民センター","Jusho":"福岡県北九州市戸畑区西鞘ケ谷町3-17","kouzui":"○","gake":"○","takashio":"○","jishin":"○","tsunami":"○","kaji":"○","naisui":"○","kazan":"×"}}
,{"type":"Feature","geometry":{"type":"Point","coordinates":[130.84,33.891]},"properties":{"Name":"九州工業大学","Jusho":"福岡県北九州市戸畑区仙水町1-1","kouzui":"○","gake":"○","takashio":"○","jishin":"○","tsunami":"○","kaji":"○","naisui":"○","kazan":"×"}}
,{"type":"Feature","geometry":{"type":"Point","coordinates":[130.831,33.899]},"properties":{"Name":"東戸畑市民センター","Jusho":"福岡県北九州市戸畑区千防3-1-12","kouzui":"○","gake":"○","takashio":"○","jishin":"○","tsunami":"○","kaji":"○","naisui":"○","kazan":"×"}}
,{"type":"Feature","geometry":{"type":"Point","coordinates":[130.827,33.891]},"properties":{"Name":"北九州市立高等学校","Jusho":"福岡県北九州市戸畑区浅生1-10-1","kouzui":"○","gake":"○","takashio":"×","jishin":"○","tsunami":"○","kaji":"○","naisui":"○","kazan":"×"}}
,{"type":"Feature","geometry":{"type":"Point","coordinates":[130.828,33.893]},"properties":{"Name":"浅生スポーツセンター","Jusho":"福岡県北九州市戸畑区浅生2-1-1","kouzui":"○","gake":"○","takashio":"○","jishin":"○","tsunami":"○","kaji":"○","naisui":"○","kazan":"×"}}
,{"type":"Feature","geometry":{"type":"Point","coordinates":[130.825,33.895]},"properties":{"Name":"浅生市民センター","Jusho":"福岡県北九州市戸畑区浅生2-13-7","kouzui":"○","gake":"○","takashio":"×","jishin":"○","tsunami":"○","kaji":"○","naisui":"○","kazan":"×"}}
,{"type":"Feature","geometry":{"type":"Point","coordinates":[130.827,33.893]},"properties":{"Name":"浅生公園（旧浅生２号公園部分）","Jusho":"福岡県北九州市戸畑区浅生2-2","kouzui":"○","gake":"○","takashio":"○","jishin":"○","tsunami":"○","kaji":"○","naisui":"○","kazan":"×"}}
,{"type":"Feature","geometry":{"type":"Point","coordinates":[130.838,33.896]},"properties":{"Name":"あやめが丘小学校","Jusho":"福岡県北九州市戸畑区沢見2-3-1","kouzui":"○","gake":"○","takashio":"○","jishin":"○","tsunami":"○","kaji":"○","naisui":"○","kazan":"×"}}
,{"type":"Feature","geometry":{"type":"Point","coordinates":[130.843,33.894]},"properties":{"Name":"中原小学校","Jusho":"福岡県北九州市戸畑区中原西3-1-1","kouzui":"○","gake":"○","takashio":"○","jishin":"○","tsunami":"○","kaji":"○","naisui":"○","kazan":"×"}}
,{"type":"Feature","geometry":{"type":"Point","coordinates":[130.845,33.898]},"properties":{"Name":"中原市民センター","Jusho":"福岡県北九州市戸畑区中原東2-2-35","kouzui":"○","gake":"○","takashio":"○","jishin":"○","tsunami":"○","kaji":"○","naisui":"○","kazan":"×"}}
,{"type":"Feature","geometry":{"type":"Point","coordinates":[130.85,33.897]},"properties":{"Name":"中原公園","Jusho":"福岡県北九州市戸畑区中原東3-12","kouzui":"○","gake":"○","takashio":"○","jishin":"○","tsunami":"○","kaji":"○","naisui":"○","kazan":"×"}}
,{"type":"Feature","geometry":{"type":"Point","coordinates":[130.832,33.89]},"properties":{"Name":"ひびき高等学校","Jusho":"福岡県北九州市戸畑区天籟寺1-2-1","kouzui":"○","gake":"○","takashio":"○","jishin":"○","tsunami":"○","kaji":"○","naisui":"○","kazan":"×"}}
,{"type":"Feature","geometry":{"type":"Point","coordinates":[130.837,33.878]},"properties":{"Name":"鞘ヶ谷小学校","Jusho":"福岡県北九州市戸畑区東鞘ケ谷町4-1","kouzui":"○","gake":"○","takashio":"○","jishin":"○","tsunami":"○","kaji":"○","naisui":"○","kazan":"×"}}
,{"type":"Feature","geometry":{"type":"Point","coordinates":[130.83,33.88]},"properties":{"Name":"大谷中学校","Jusho":"福岡県北九州市戸畑区東大谷1-9-1","kouzui":"○","gake":"○","takashio":"○","jishin":"○","tsunami":"○","kaji":"○","naisui":"○","kazan":"×"}}
,{"type":"Feature","geometry":{"type":"Point","coordinates":[130.827,33.879]},"properties":{"Name":"大谷市民センター","Jusho":"福岡県北九州市戸畑区東大谷2-2-44","kouzui":"○","gake":"○","takashio":"○","jishin":"○","tsunami":"○","kaji":"○","naisui":"○","kazan":"×"}}
,{"type":"Feature","geometry":{"type":"Point","coordinates":[130.822,33.9]},"properties":{"Name":"西戸畑市民センター","Jusho":"福岡県北九州市戸畑区南鳥旗町3-17","kouzui":"○","gake":"○","takashio":"×","jishin":"○","tsunami":"○","kaji":"○","naisui":"○","kazan":"×"}}
,{"type":"Feature","geometry":{"type":"Point","coordinates":[130.838,33.882]},"properties":{"Name":"岩ヶ鼻公園","Jusho":"福岡県北九州市戸畑区福柳木1-20","kouzui":"○","gake":"○","takashio":"○","jishin":"○","tsunami":"○","kaji":"○","naisui":"○","kazan":"×"}}
,{"type":"Feature","geometry":{"type":"Point","coordinates":[130.818,33.887]},"properties":{"Name":"牧山展望公園","Jusho":"福岡県北九州市戸畑区牧山3-1","kouzui":"○","gake":"○","takashio":"○","jishin":"○","tsunami":"○","kaji":"○","naisui":"○","kazan":"×"}}
,{"type":"Feature","geometry":{"type":"Point","coordinates":[130.813,33.891]},"properties":{"Name":"牧山市民センター","Jusho":"福岡県北九州市戸畑区牧山4-1-22","kouzui":"○","gake":"○","takashio":"○","jishin":"○","tsunami":"○","kaji":"×","naisui":"○","kazan":"×"}}
,{"type":"Feature","geometry":{"type":"Point","coordinates":[130.809,33.891]},"properties":{"Name":"都島展望公園（山側）","Jusho":"福岡県北九州市戸畑区牧山4-11","kouzui":"×","gake":"×","takashio":"○","jishin":"×","tsunami":"○","kaji":"×","naisui":"×","kazan":"×"}}
,{"type":"Feature","geometry":{"type":"Point","coordinates":[130.807,33.892]},"properties":{"Name":"都島展望公園（海側）","Jusho":"福岡県北九州市戸畑区牧山海岸2","kouzui":"○","gake":"○","takashio":"×","jishin":"○","tsunami":"○","kaji":"○","naisui":"○","kazan":"×"}}
,{"type":"Feature","geometry":{"type":"Point","coordinates":[130.836,33.886]},"properties":{"Name":"夜宮青少年センター","Jusho":"福岡県北九州市戸畑区夜宮1-2-1","kouzui":"○","gake":"○","takashio":"○","jishin":"○","tsunami":"○","kaji":"○","naisui":"○","kazan":"×"}}
,{"type":"Feature","geometry":{"type":"Point","coordinates":[130.833,33.887]},"properties":{"Name":"天籟寺小学校","Jusho":"福岡県北九州市戸畑区夜宮2-1-1","kouzui":"○","gake":"○","takashio":"○","jishin":"○","tsunami":"○","kaji":"○","naisui":"○","kazan":"×"}}
,{"type":"Feature","geometry":{"type":"Point","coordinates":[130.832,33.886]},"properties":{"Name":"天籟寺市民センター","Jusho":"福岡県北九州市戸畑区夜宮2-4-15","kouzui":"○","gake":"○","takashio":"○","jishin":"○","tsunami":"○","kaji":"○","naisui":"○","kazan":"×"}}
,{"type":"Feature","geometry":{"type":"Point","coordinates":[130.834,33.885]},"properties":{"Name":"戸畑高等学校","Jusho":"福岡県北九州市戸畑区夜宮3-1-1","kouzui":"○","gake":"○","takashio":"○","jishin":"○","tsunami":"○","kaji":"○","naisui":"○","kazan":"×"}}
,{"type":"Feature","geometry":{"type":"Point","coordinates":[130.712,33.89]},"properties":{"Name":"北九州学術研究都市","Jusho":"福岡県北九州市若松区ひびきの2-1","kouzui":"○","gake":"○","takashio":"○","jishin":"○","tsunami":"○","kaji":"○","naisui":"○","kazan":"×"}}
,{"type":"Feature","geometry":{"type":"Point","coordinates":[130.712,33.893]},"properties":{"Name":"ひびきの小学校","Jusho":"福岡県北九州市若松区ひびきの北8-26","kouzui":"○","gake":"○","takashio":"○","jishin":"○","tsunami":"○","kaji":"○","naisui":"○","kazan":"×"}}
,{"type":"Feature","geometry":{"type":"Point","coordinates":[130.71,33.893]},"properties":{"Name":"ひびきの市民センター","Jusho":"福岡県北九州市若松区ひびきの北8-28","kouzui":"○","gake":"○","takashio":"○","jishin":"○","tsunami":"○","kaji":"○","naisui":"○","kazan":"×"}}
,{"type":"Feature","geometry":{"type":"Point","coordinates":[130.79,33.916]},"properties":{"Name":"小石公民館","Jusho":"福岡県北九州市若松区下原町7-11","kouzui":"○","gake":"○","takashio":"○","jishin":"×","tsunami":"×","kaji":"○","naisui":"○","kazan":"×"}}
,{"type":"Feature","geometry":{"type":"Point","coordinates":[130.676,33.907]},"properties":{"Name":"花野路中央公園","Jusho":"福岡県北九州市若松区花野路3-18","kouzui":"○","gake":"○","takashio":"○","jishin":"○","tsunami":"○","kaji":"○","naisui":"○","kazan":"×"}}
,{"type":"Feature","geometry":{"type":"Point","coordinates":[130.737,33.893]},"properties":{"Name":"島郷市民センター","Jusho":"福岡県北九州市若松区鴨生田2-1-1","kouzui":"○","gake":"○","takashio":"○","jishin":"○","tsunami":"○","kaji":"○","naisui":"○","kazan":"×"}}
,{"type":"Feature","geometry":{"type":"Point","coordinates":[130.735,33.896]},"properties":{"Name":"二島西公園","Jusho":"福岡県北九州市若松区鴨生田2-9","kouzui":"○","gake":"○","takashio":"○","jishin":"○","tsunami":"○","kaji":"○","naisui":"○","kazan":"×"}}
,{"type":"Feature","geometry":{"type":"Point","coordinates":[130.737,33.898]},"properties":{"Name":"鴨生田小学校","Jusho":"福岡県北九州市若松区鴨生田4-13-1","kouzui":"○","gake":"○","takashio":"○","jishin":"○","tsunami":"○","kaji":"○","naisui":"○","kazan":"×"}}
,{"type":"Feature","geometry":{"type":"Point","coordinates":[130.789,33.916]},"properties":{"Name":"小石小学校","Jusho":"福岡県北九州市若松区宮前町3-1","kouzui":"○","gake":"○","takashio":"○","jishin":"○","tsunami":"○","kaji":"○","naisui":"○","kazan":"×"}}
,{"type":"Feature","geometry":{"type":"Point","coordinates":[130.8,33.894]},"properties":{"Name":"若松体育館","Jusho":"福岡県北九州市若松区古前1-1-1","kouzui":"○","gake":"○","takashio":"×","jishin":"○","tsunami":"○","kaji":"○","naisui":"○","kazan":"×"}}
,{"type":"Feature","geometry":{"type":"Point","coordinates":[130.797,33.893]},"properties":{"Name":"岬ノ山公園","Jusho":"福岡県北九州市若松区古前1-26","kouzui":"×","gake":"×","takashio":"○","jishin":"×","tsunami":"○","kaji":"○","naisui":"×","kazan":"×"}}
,{"type":"Feature","geometry":{"type":"Point","coordinates":[130.794,33.893]},"properties":{"Name":"古前保育所","Jusho":"福岡県北九州市若松区古前1-28-17","kouzui":"○","gake":"○","takashio":"○","jishin":"○","tsunami":"○","kaji":"○","naisui":"○","kazan":"×"}}
,{"type":"Feature","geometry":{"type":"Point","coordinates":[130.795,33.893]},"properties":{"Name":"古前市民センター","Jusho":"福岡県北九州市若松区古前1-28-23","kouzui":"○","gake":"○","takashio":"×","jishin":"○","tsunami":"○","kaji":"○","naisui":"○","kazan":"×"}}
,{"type":"Feature","geometry":{"type":"Point","coordinates":[130.798,33.896]},"properties":{"Name":"くきのうみ小学校","Jusho":"福岡県北九州市若松区古前2-19-36","kouzui":"×","gake":"×","takashio":"○","jishin":"×","tsunami":"○","kaji":"○","naisui":"×","kazan":"×"}}
,{"type":"Feature","geometry":{"type":"Point","coordinates":[130.795,33.896]},"properties":{"Name":"ひびき園","Jusho":"福岡県北九州市若松区古前2-26-1","kouzui":"×","gake":"×","takashio":"○","jishin":"×","tsunami":"○","kaji":"○","naisui":"×","kazan":"×"}}
,{"type":"Feature","geometry":{"type":"Point","coordinates":[130.785,33.921]},"properties":{"Name":"ひびきコスモス公園","Jusho":"福岡県北九州市若松区向洋町","kouzui":"×","gake":"×","takashio":"×","jishin":"×","tsunami":"○","kaji":"○","naisui":"×","kazan":"×"}}
,{"type":"Feature","geometry":{"type":"Point","coordinates":[130.695,33.889]},"properties":{"Name":"高須公園","Jusho":"福岡県北九州市若松区高須東3-12","kouzui":"○","gake":"○","takashio":"○","jishin":"○","tsunami":"○","kaji":"○","naisui":"○","kazan":"×"}}
,{"type":"Feature","geometry":{"type":"Point","coordinates":[130.695,33.89]},"properties":{"Name":"高須小学校","Jusho":"福岡県北九州市若松区高須東4-14-1","kouzui":"○","gake":"○","takashio":"○","jishin":"○","tsunami":"○","kaji":"○","naisui":"○","kazan":"×"}}
,{"type":"Feature","geometry":{"type":"Point","coordinates":[130.693,33.893]},"properties":{"Name":"高須中学校","Jusho":"福岡県北九州市若松区高須北1-1-1","kouzui":"○","gake":"○","takashio":"○","jishin":"○","tsunami":"○","kaji":"○","naisui":"○","kazan":"×"}}
,{"type":"Feature","geometry":{"type":"Point","coordinates":[130.693,33.893]},"properties":{"Name":"高須市民センター","Jusho":"福岡県北九州市若松区高須北1-1-2","kouzui":"○","gake":"○","takashio":"○","jishin":"○","tsunami":"○","kaji":"○","naisui":"○","kazan":"×"}}
,{"type":"Feature","geometry":{"type":"Point","coordinates":[130.776,33.894]},"properties":{"Name":"石峯中学校","Jusho":"福岡県北九州市若松区今光1-12-8","kouzui":"○","gake":"○","takashio":"○","jishin":"○","tsunami":"○","kaji":"○","naisui":"○","kazan":"×"}}
,{"type":"Feature","geometry":{"type":"Point","coordinates":[130.774,33.894]},"properties":{"Name":"藤木小学校","Jusho":"福岡県北九州市若松区今光1-18-1","kouzui":"×","gake":"×","takashio":"○","jishin":"×","tsunami":"○","kaji":"○","naisui":"×","kazan":"×"}}
,{"type":"Feature","geometry":{"type":"Point","coordinates":[130.772,33.895]},"properties":{"Name":"今光西公園","Jusho":"福岡県北九州市若松区今光2-15","kouzui":"×","gake":"×","takashio":"○","jishin":"×","tsunami":"○","kaji":"○","naisui":"×","kazan":"×"}}
,{"type":"Feature","geometry":{"type":"Point","coordinates":[130.78,33.919]},"properties":{"Name":"向洋中学校","Jusho":"福岡県北九州市若松区小石本村町21-1","kouzui":"×","gake":"×","takashio":"○","jishin":"×","tsunami":"○","kaji":"○","naisui":"×","kazan":"×"}}
,{"type":"Feature","geometry":{"type":"Point","coordinates":[130.706,33.889]},"properties":{"Name":"ひびきの南公園","Jusho":"福岡県北九州市若松区小敷ひびきの3-1","kouzui":"○","gake":"○","takashio":"○","jishin":"○","tsunami":"○","kaji":"○","naisui":"○","kazan":"×"}}
,{"type":"Feature","geometry":{"type":"Point","coordinates":[130.792,33.913]},"properties":{"Name":"若松高等学校","Jusho":"福岡県北九州市若松区上原町15-13","kouzui":"○","gake":"○","takashio":"○","jishin":"○","tsunami":"○","kaji":"○","naisui":"○","kazan":"×"}}
,{"type":"Feature","geometry":{"type":"Point","coordinates":[130.795,33.906]},"properties":{"Name":"新大谷町東公園","Jusho":"福岡県北九州市若松区新大谷町2","kouzui":"○","gake":"○","takashio":"○","jishin":"○","tsunami":"○","kaji":"○","naisui":"○","kazan":"×"}}
,{"type":"Feature","geometry":{"type":"Point","coordinates":[130.799,33.912]},"properties":{"Name":"深町市民センター","Jusho":"福岡県北九州市若松区深町1-2-12","kouzui":"○","gake":"○","takashio":"○","jishin":"○","tsunami":"○","kaji":"○","naisui":"○","kazan":"×"}}
,{"type":"Feature","geometry":{"type":"Point","coordinates":[130.79,33.92]},"properties":{"Name":"赤崎小学校","Jusho":"福岡県北九州市若松区西小石町8-1","kouzui":"○","gake":"○","takashio":"○","jishin":"○","tsunami":"○","kaji":"○","naisui":"○","kazan":"×"}}
,{"type":"Feature","geometry":{"type":"Point","coordinates":[130.792,33.92]},"properties":{"Name":"赤崎市民センター","Jusho":"福岡県北九州市若松区西小石町8-2","kouzui":"○","gake":"○","takashio":"○","jishin":"○","tsunami":"○","kaji":"○","naisui":"○","kazan":"×"}}
,{"type":"Feature","geometry":{"type":"Point","coordinates":[130.793,33.911]},"properties":{"Name":"深町小学校","Jusho":"福岡県北九州市若松区西畑町13-1","kouzui":"×","gake":"×","takashio":"○","jishin":"×","tsunami":"○","kaji":"○","naisui":"×","kazan":"×"}}
,{"type":"Feature","geometry":{"type":"Point","coordinates":[130.687,33.904]},"properties":{"Name":"青葉台中央公園","Jusho":"福岡県北九州市若松区青葉台西1-14","kouzui":"○","gake":"○","takashio":"○","jishin":"○","tsunami":"○","kaji":"○","naisui":"○","kazan":"×"}}
,{"type":"Feature","geometry":{"type":"Point","coordinates":[130.687,33.905]},"properties":{"Name":"青葉市民センター","Jusho":"福岡県北九州市若松区青葉台西1-14-1","kouzui":"○","gake":"○","takashio":"○","jishin":"○","tsunami":"○","kaji":"○","naisui":"○","kazan":"×"}}
,{"type":"Feature","geometry":{"type":"Point","coordinates":[130.688,33.899]},"properties":{"Name":"青葉小学校","Jusho":"福岡県北九州市若松区青葉台西3-1-1","kouzui":"○","gake":"○","takashio":"○","jishin":"○","tsunami":"○","kaji":"○","naisui":"○","kazan":"×"}}
,{"type":"Feature","geometry":{"type":"Point","coordinates":[130.765,33.887]},"properties":{"Name":"ボートレース若松","Jusho":"福岡県北九州市若松区赤岩町13-1","kouzui":"○","gake":"○","takashio":"×","jishin":"○","tsunami":"○","kaji":"○","naisui":"○","kazan":"×"}}
,{"type":"Feature","geometry":{"type":"Point","coordinates":[130.783,33.895]},"properties":{"Name":"藤ノ木市民センター","Jusho":"福岡県北九州市若松区赤島町20-13","kouzui":"○","gake":"○","takashio":"○","jishin":"○","tsunami":"○","kaji":"○","naisui":"○","kazan":"×"}}
,{"type":"Feature","geometry":{"type":"Point","coordinates":[130.728,33.913]},"properties":{"Name":"響灘緑地","Jusho":"福岡県北九州市若松区大字安屋","kouzui":"○","gake":"○","takashio":"○","jishin":"○","tsunami":"○","kaji":"○","naisui":"○","kazan":"×"}}
,{"type":"Feature","geometry":{"type":"Point","coordinates":[130.728,33.933]},"properties":{"Name":"ひびき灘漁協脇田漁村センター（脇田公民館）","Jusho":"福岡県北九州市若松区大字安屋1742","kouzui":"○","gake":"○","takashio":"×","jishin":"×","tsunami":"×","kaji":"○","naisui":"○","kazan":"×"}}
,{"type":"Feature","geometry":{"type":"Point","coordinates":[130.723,33.93]},"properties":{"Name":"安屋公民館","Jusho":"福岡県北九州市若松区大字安屋2224-2","kouzui":"○","gake":"○","takashio":"×","jishin":"○","tsunami":"○","kaji":"○","naisui":"○","kazan":"×"}}
,{"type":"Feature","geometry":{"type":"Point","coordinates":[130.698,33.907]},"properties":{"Name":"江川小学校","Jusho":"福岡県北九州市若松区大字乙丸5","kouzui":"○","gake":"○","takashio":"○","jishin":"○","tsunami":"○","kaji":"○","naisui":"○","kazan":"×"}}
,{"type":"Feature","geometry":{"type":"Point","coordinates":[130.799,33.903]},"properties":{"Name":"高塔山公園","Jusho":"福岡県北九州市若松区大字修多羅","kouzui":"×","gake":"×","takashio":"○","jishin":"×","tsunami":"○","kaji":"○","naisui":"×","kazan":"×"}}
,{"type":"Feature","geometry":{"type":"Point","coordinates":[130.741,33.908]},"properties":{"Name":"花房小学校","Jusho":"福岡県北九州市若松区大字小竹2227","kouzui":"○","gake":"○","takashio":"○","jishin":"○","tsunami":"○","kaji":"○","naisui":"○","kazan":"×"}}
,{"type":"Feature","geometry":{"type":"Point","coordinates":[130.755,33.915]},"properties":{"Name":"外小竹公民館","Jusho":"福岡県北九州市若松区大字小竹967","kouzui":"×","gake":"×","takashio":"○","jishin":"×","tsunami":"×","kaji":"○","naisui":"×","kazan":"×"}}
,{"type":"Feature","geometry":{"type":"Point","coordinates":[130.73,33.917]},"properties":{"Name":"玄海青年の家","Jusho":"福岡県北九州市若松区大字竹並126-2","kouzui":"○","gake":"○","takashio":"○","jishin":"○","tsunami":"○","kaji":"○","naisui":"○","kazan":"×"}}
,{"type":"Feature","geometry":{"type":"Point","coordinates":[130.723,33.904]},"properties":{"Name":"洞北中学校","Jusho":"福岡県北九州市若松区大字竹並3087-1","kouzui":"○","gake":"○","takashio":"○","jishin":"○","tsunami":"○","kaji":"○","naisui":"○","kazan":"×"}}
,{"type":"Feature","geometry":{"type":"Point","coordinates":[130.746,33.889]},"properties":{"Name":"二島緑道","Jusho":"福岡県北九州市若松区大字二島","kouzui":"○","gake":"○","takashio":"×","jishin":"○","tsunami":"○","kaji":"○","naisui":"○","kazan":"×"}}
,{"type":"Feature","geometry":{"type":"Point","coordinates":[130.71,33.906]},"properties":{"Name":"蜑住公民館","Jusho":"福岡県北九州市若松区大字蜑住1307","kouzui":"○","gake":"○","takashio":"○","jishin":"×","tsunami":"×","kaji":"○","naisui":"○","kazan":"×"}}
,{"type":"Feature","geometry":{"type":"Point","coordinates":[130.791,33.894]},"properties":{"Name":"若松区第２２区公民館","Jusho":"福岡県北九州市若松区大池町10-4","kouzui":"○","gake":"○","takashio":"○","jishin":"×","tsunami":"×","kaji":"○","naisui":"○","kazan":"×"}}
,{"type":"Feature","geometry":{"type":"Point","coordinates":[130.758,33.888]},"properties":{"Name":"二島市民センター","Jusho":"福岡県北九州市若松区東二島2-7-3","kouzui":"○","gake":"○","takashio":"○","jishin":"○","tsunami":"○","kaji":"○","naisui":"○","kazan":"×"}}
,{"type":"Feature","geometry":{"type":"Point","coordinates":[130.756,33.889]},"properties":{"Name":"東二島公民館","Jusho":"福岡県北九州市若松区東二島3-8-20","kouzui":"×","gake":"×","takashio":"○","jishin":"×","tsunami":"×","kaji":"○","naisui":"×","kazan":"×"}}
,{"type":"Feature","geometry":{"type":"Point","coordinates":[130.748,33.894]},"properties":{"Name":"二島小学校","Jusho":"福岡県北九州市若松区東二島5-13-1","kouzui":"×","gake":"×","takashio":"○","jishin":"×","tsunami":"○","kaji":"○","naisui":"×","kazan":"×"}}
,{"type":"Feature","geometry":{"type":"Point","coordinates":[130.747,33.897]},"properties":{"Name":"二島中学校","Jusho":"福岡県北九州市若松区二島4-5-1","kouzui":"○","gake":"○","takashio":"○","jishin":"○","tsunami":"○","kaji":"○","naisui":"○","kazan":"×"}}
,{"type":"Feature","geometry":{"type":"Point","coordinates":[130.806,33.902]},"properties":{"Name":"修多羅市民センター","Jusho":"福岡県北九州市若松区白山1-9-13","kouzui":"○","gake":"○","takashio":"○","jishin":"○","tsunami":"○","kaji":"○","naisui":"○","kazan":"×"}}
,{"type":"Feature","geometry":{"type":"Point","coordinates":[130.805,33.905]},"properties":{"Name":"若松中央小学校","Jusho":"福岡県北九州市若松区白山2-1-1","kouzui":"○","gake":"○","takashio":"○","jishin":"○","tsunami":"○","kaji":"○","naisui":"○","kazan":"×"}}
,{"type":"Feature","geometry":{"type":"Point","coordinates":[130.802,33.907]},"properties":{"Name":"若松中学校","Jusho":"福岡県北九州市若松区白山2-12-45","kouzui":"○","gake":"○","takashio":"○","jishin":"○","tsunami":"○","kaji":"○","naisui":"○","kazan":"×"}}
,{"type":"Feature","geometry":{"type":"Point","coordinates":[130.812,33.905]},"properties":{"Name":"若松中央市民センター","Jusho":"福岡県北九州市若松区浜町1-1-2","kouzui":"○","gake":"○","takashio":"○","jishin":"○","tsunami":"○","kaji":"○","naisui":"○","kazan":"×"}}
,{"type":"Feature","geometry":{"type":"Point","coordinates":[130.746,33.899]},"properties":{"Name":"若松商業高等学校","Jusho":"福岡県北九州市若松区片山3-2-1","kouzui":"×","gake":"×","takashio":"○","jishin":"×","tsunami":"○","kaji":"○","naisui":"×","kazan":"×"}}
,{"type":"Feature","geometry":{"type":"Point","coordinates":[130.909,33.849]},"properties":{"Name":"安部山公園","Jusho":"福岡県北九州市小倉南区安部山3","kouzui":"×","gake":"×","takashio":"○","jishin":"×","tsunami":"○","kaji":"○","naisui":"×","kazan":"×"}}
,{"type":"Feature","geometry":{"type":"Point","coordinates":[130.901,33.835]},"properties":{"Name":"北九州市立総合農事センター","Jusho":"福岡県北九州市小倉南区横代東町1-6-1","kouzui":"○","gake":"○","takashio":"○","jishin":"×","tsunami":"×","kaji":"○","naisui":"○","kazan":"×"}}
,{"type":"Feature","geometry":{"type":"Point","coordinates":[130.905,33.837]},"properties":{"Name":"蜷田地域交流センター","Jusho":"福岡県北九州市小倉南区横代東町2-1-1","kouzui":"○","gake":"○","takashio":"×","jishin":"○","tsunami":"○","kaji":"○","naisui":"○","kazan":"×"}}
,{"type":"Feature","geometry":{"type":"Point","coordinates":[130.897,33.831]},"properties":{"Name":"横代市民センター","Jusho":"福岡県北九州市小倉南区横代東町4-13-1","kouzui":"○","gake":"○","takashio":"×","jishin":"○","tsunami":"○","kaji":"○","naisui":"○","kazan":"×"}}
,{"type":"Feature","geometry":{"type":"Point","coordinates":[130.892,33.83]},"properties":{"Name":"横代小学校","Jusho":"福岡県北九州市小倉南区横代南町2-4-1","kouzui":"○","gake":"○","takashio":"○","jishin":"○","tsunami":"○","kaji":"○","naisui":"○","kazan":"×"}}
,{"type":"Feature","geometry":{"type":"Point","coordinates":[130.897,33.834]},"properties":{"Name":"横代中学校","Jusho":"福岡県北九州市小倉南区横代北町3-5-1","kouzui":"○","gake":"○","takashio":"×","jishin":"○","tsunami":"○","kaji":"○","naisui":"○","kazan":"×"}}
,{"type":"Feature","geometry":{"type":"Point","coordinates":[130.964,33.845]},"properties":{"Name":"吉田公園","Jusho":"福岡県北九州市小倉南区下吉田3-19","kouzui":"×","gake":"×","takashio":"○","jishin":"×","tsunami":"○","kaji":"○","naisui":"×","kazan":"×"}}
,{"type":"Feature","geometry":{"type":"Point","coordinates":[130.94,33.83]},"properties":{"Name":"曽根体育館","Jusho":"福岡県北九州市小倉南区下曽根4-22-2","kouzui":"○","gake":"○","takashio":"×","jishin":"○","tsunami":"○","kaji":"○","naisui":"○","kazan":"×"}}
,{"type":"Feature","geometry":{"type":"Point","coordinates":[130.941,33.83]},"properties":{"Name":"曽根東市民センター","Jusho":"福岡県北九州市小倉南区下曽根4-22-3","kouzui":"○","gake":"○","takashio":"×","jishin":"○","tsunami":"○","kaji":"○","naisui":"○","kazan":"×"}}
,{"type":"Feature","geometry":{"type":"Point","coordinates":[130.916,33.844]},"properties":{"Name":"葛原小学校","Jusho":"福岡県北九州市小倉南区葛原4-24-1","kouzui":"○","gake":"○","takashio":"○","jishin":"○","tsunami":"○","kaji":"○","naisui":"○","kazan":"×"}}
,{"type":"Feature","geometry":{"type":"Point","coordinates":[130.922,33.842]},"properties":{"Name":"葛原公園","Jusho":"福岡県北九州市小倉南区葛原本町3-4","kouzui":"○","gake":"○","takashio":"○","jishin":"○","tsunami":"○","kaji":"○","naisui":"○","kazan":"×"}}
,{"type":"Feature","geometry":{"type":"Point","coordinates":[130.921,33.843]},"properties":{"Name":"葛原市民センター","Jusho":"福岡県北九州市小倉南区葛原本町3-4-34","kouzui":"○","gake":"○","takashio":"○","jishin":"○","tsunami":"○","kaji":"○","naisui":"○","kazan":"×"}}
,{"type":"Feature","geometry":{"type":"Point","coordinates":[130.867,33.842]},"properties":{"Name":"北九州市立大学後援会館","Jusho":"福岡県北九州市小倉南区蒲生3-4-1","kouzui":"○","gake":"○","takashio":"○","jishin":"○","tsunami":"○","kaji":"○","naisui":"○","kazan":"×"}}
,{"type":"Feature","geometry":{"type":"Point","coordinates":[130.931,33.808]},"properties":{"Name":"貫中央公園","Jusho":"福岡県北九州市小倉南区貫弥生が丘1-1","kouzui":"○","gake":"○","takashio":"○","jishin":"○","tsunami":"○","kaji":"○","naisui":"○","kazan":"×"}}
,{"type":"Feature","geometry":{"type":"Point","coordinates":[130.876,33.823]},"properties":{"Name":"企救丘小学校","Jusho":"福岡県北九州市小倉南区企救丘2-1-1","kouzui":"○","gake":"○","takashio":"○","jishin":"○","tsunami":"○","kaji":"○","naisui":"○","kazan":"×"}}
,{"type":"Feature","geometry":{"type":"Point","coordinates":[130.874,33.827]},"properties":{"Name":"志徳中学校","Jusho":"福岡県北九州市小倉南区企救丘4-4-1","kouzui":"○","gake":"○","takashio":"○","jishin":"○","tsunami":"○","kaji":"○","naisui":"○","kazan":"×"}}
,{"type":"Feature","geometry":{"type":"Point","coordinates":[130.948,33.849]},"properties":{"Name":"吉田にれの木坂公園","Jusho":"福岡県北九州市小倉南区吉田にれの木坂1-8","kouzui":"○","gake":"○","takashio":"○","jishin":"○","tsunami":"○","kaji":"○","naisui":"○","kazan":"×"}}
,{"type":"Feature","geometry":{"type":"Point","coordinates":[130.947,33.809]},"properties":{"Name":"朽網市民センター","Jusho":"福岡県北九州市小倉南区朽網西3-6-39","kouzui":"○","gake":"○","takashio":"○","jishin":"○","tsunami":"○","kaji":"○","naisui":"○","kazan":"×"}}
,{"type":"Feature","geometry":{"type":"Point","coordinates":[130.95,33.807]},"properties":{"Name":"朽網小学校","Jusho":"福岡県北九州市小倉南区朽網西5-12-1","kouzui":"○","gake":"○","takashio":"○","jishin":"○","tsunami":"○","kaji":"○","naisui":"○","kazan":"×"}}
,{"type":"Feature","geometry":{"type":"Point","coordinates":[130.954,33.804]},"properties":{"Name":"朽網中央公園","Jusho":"福岡県北九州市小倉南区朽網東1-12","kouzui":"○","gake":"○","takashio":"×","jishin":"○","tsunami":"○","kaji":"○","naisui":"○","kazan":"×"}}
,{"type":"Feature","geometry":{"type":"Point","coordinates":[130.959,33.801]},"properties":{"Name":"東朽網小学校","Jusho":"福岡県北九州市小倉南区朽網東3-4-1","kouzui":"○","gake":"○","takashio":"○","jishin":"○","tsunami":"○","kaji":"○","naisui":"○","kazan":"×"}}
,{"type":"Feature","geometry":{"type":"Point","coordinates":[130.967,33.805]},"properties":{"Name":"日豊スワロータウンつどいの家","Jusho":"福岡県北九州市小倉南区朽網東6-15-15","kouzui":"○","gake":"○","takashio":"○","jishin":"○","tsunami":"○","kaji":"○","naisui":"○","kazan":"×"}}
,{"type":"Feature","geometry":{"type":"Point","coordinates":[130.855,33.826]},"properties":{"Name":"長尾高野中央公園","Jusho":"福岡県北九州市小倉南区高野2-10","kouzui":"○","gake":"○","takashio":"○","jishin":"○","tsunami":"○","kaji":"○","naisui":"○","kazan":"×"}}
,{"type":"Feature","geometry":{"type":"Point","coordinates":[130.872,33.816]},"properties":{"Name":"北九州工業高等専門学校","Jusho":"福岡県北九州市小倉南区志井5-20-1","kouzui":"○","gake":"○","takashio":"○","jishin":"○","tsunami":"○","kaji":"○","naisui":"○","kazan":"×"}}
,{"type":"Feature","geometry":{"type":"Point","coordinates":[130.881,33.82]},"properties":{"Name":"志井公園","Jusho":"福岡県北九州市小倉南区志井公園1","kouzui":"○","gake":"○","takashio":"○","jishin":"○","tsunami":"○","kaji":"○","naisui":"○","kazan":"×"}}
,{"type":"Feature","geometry":{"type":"Point","coordinates":[130.888,33.853]},"properties":{"Name":"若宮公民館","Jusho":"福岡県北九州市小倉南区若園1-5-3","kouzui":"○","gake":"○","takashio":"○","jishin":"○","tsunami":"○","kaji":"○","naisui":"○","kazan":"×"}}
,{"type":"Feature","geometry":{"type":"Point","coordinates":[130.89,33.847]},"properties":{"Name":"若園小学校","Jusho":"福岡県北九州市小倉南区若園3-14-22","kouzui":"○","gake":"○","takashio":"○","jishin":"○","tsunami":"○","kaji":"○","naisui":"○","kazan":"×"}}
,{"type":"Feature","geometry":{"type":"Point","coordinates":[130.885,33.847]},"properties":{"Name":"若園市民センター","Jusho":"福岡県北九州市小倉南区若園4-1-50","kouzui":"○","gake":"○","takashio":"○","jishin":"○","tsunami":"○","kaji":"○","naisui":"○","kazan":"×"}}
,{"type":"Feature","geometry":{"type":"Point","coordinates":[130.883,33.847]},"properties":{"Name":"北九州高等学校","Jusho":"福岡県北九州市小倉南区若園5-1-1","kouzui":"○","gake":"○","takashio":"○","jishin":"○","tsunami":"○","kaji":"○","naisui":"○","kazan":"×"}}
,{"type":"Feature","geometry":{"type":"Point","coordinates":[130.877,33.833]},"properties":{"Name":"守恒市民センター","Jusho":"福岡県北九州市小倉南区守恒2-8-36","kouzui":"○","gake":"○","takashio":"○","jishin":"○","tsunami":"○","kaji":"○","naisui":"○","kazan":"×"}}
,{"type":"Feature","geometry":{"type":"Point","coordinates":[130.946,33.855]},"properties":{"Name":"沼新町中央公園","Jusho":"福岡県北九州市小倉南区沼新町3-4","kouzui":"○","gake":"○","takashio":"○","jishin":"○","tsunami":"○","kaji":"○","naisui":"○","kazan":"×"}}
,{"type":"Feature","geometry":{"type":"Point","coordinates":[130.939,33.848]},"properties":{"Name":"沼小学校","Jusho":"福岡県北九州市小倉南区沼本町2-4-1","kouzui":"○","gake":"○","takashio":"○","jishin":"○","tsunami":"○","kaji":"○","naisui":"○","kazan":"×"}}
,{"type":"Feature","geometry":{"type":"Point","coordinates":[130.932,33.843]},"properties":{"Name":"沼中学校","Jusho":"福岡県北九州市小倉南区沼緑町1-1-1","kouzui":"○","gake":"○","takashio":"○","jishin":"○","tsunami":"○","kaji":"○","naisui":"○","kazan":"×"}}
,{"type":"Feature","geometry":{"type":"Point","coordinates":[130.938,33.849]},"properties":{"Name":"沼市民センター","Jusho":"福岡県北九州市小倉南区沼緑町4-28-1","kouzui":"○","gake":"○","takashio":"○","jishin":"○","tsunami":"○","kaji":"○","naisui":"○","kazan":"×"}}
,{"type":"Feature","geometry":{"type":"Point","coordinates":[130.909,33.842]},"properties":{"Name":"上葛原中央公園","Jusho":"福岡県北九州市小倉南区上葛原1-7","kouzui":"○","gake":"○","takashio":"×","jishin":"○","tsunami":"○","kaji":"○","naisui":"○","kazan":"×"}}
,{"type":"Feature","geometry":{"type":"Point","coordinates":[130.922,33.816]},"properties":{"Name":"貫小学校","Jusho":"福岡県北九州市小倉南区上貫3-1-1","kouzui":"○","gake":"○","takashio":"○","jishin":"○","tsunami":"○","kaji":"○","naisui":"○","kazan":"×"}}
,{"type":"Feature","geometry":{"type":"Point","coordinates":[130.949,33.856]},"properties":{"Name":"高蔵市民センター","Jusho":"福岡県北九州市小倉南区上吉田3-1-1","kouzui":"○","gake":"○","takashio":"○","jishin":"○","tsunami":"○","kaji":"○","naisui":"○","kazan":"×"}}
,{"type":"Feature","geometry":{"type":"Point","coordinates":[130.948,33.858]},"properties":{"Name":"高蔵小学校","Jusho":"福岡県北九州市小倉南区上吉田3-11-1","kouzui":"○","gake":"○","takashio":"○","jishin":"○","tsunami":"○","kaji":"○","naisui":"○","kazan":"×"}}
,{"type":"Feature","geometry":{"type":"Point","coordinates":[130.89,33.832]},"properties":{"Name":"横代中央公園","Jusho":"福岡県北九州市小倉南区上石田3-10","kouzui":"×","gake":"×","takashio":"×","jishin":"○","tsunami":"○","kaji":"○","naisui":"×","kazan":"×"}}
,{"type":"Feature","geometry":{"type":"Point","coordinates":[130.944,33.813]},"properties":{"Name":"南曽根中学校","Jusho":"福岡県北九州市小倉南区上曽根5-12-1","kouzui":"○","gake":"○","takashio":"×","jishin":"○","tsunami":"○","kaji":"○","naisui":"○","kazan":"×"}}
,{"type":"Feature","geometry":{"type":"Point","coordinates":[130.88,33.83]},"properties":{"Name":"守恒小学校","Jusho":"福岡県北九州市小倉南区星和台2-1-1","kouzui":"○","gake":"○","takashio":"○","jishin":"○","tsunami":"○","kaji":"○","naisui":"○","kazan":"×"}}
,{"type":"Feature","geometry":{"type":"Point","coordinates":[130.921,33.817]},"properties":{"Name":"貫市民センター","Jusho":"福岡県北九州市小倉南区西貫1-11-1","kouzui":"○","gake":"○","takashio":"○","jishin":"○","tsunami":"○","kaji":"○","naisui":"○","kazan":"×"}}
,{"type":"Feature","geometry":{"type":"Point","coordinates":[130.952,33.821]},"properties":{"Name":"曽根新田自治公民館","Jusho":"福岡県北九州市小倉南区曽根新田北3-16-47","kouzui":"○","gake":"○","takashio":"×","jishin":"×","tsunami":"×","kaji":"○","naisui":"○","kazan":"×"}}
,{"type":"Feature","geometry":{"type":"Point","coordinates":[130.972,33.81]},"properties":{"Name":"朽網臨空公園","Jusho":"福岡県北九州市小倉南区大字朽網","kouzui":"○","gake":"○","takashio":"×","jishin":"○","tsunami":"○","kaji":"○","naisui":"○","kazan":"×"}}
,{"type":"Feature","geometry":{"type":"Point","coordinates":[130.958,33.8]},"properties":{"Name":"東朽網市民センター","Jusho":"福岡県北九州市小倉南区大字朽網1215-1","kouzui":"○","gake":"○","takashio":"×","jishin":"○","tsunami":"○","kaji":"○","naisui":"○","kazan":"×"}}
,{"type":"Feature","geometry":{"type":"Point","coordinates":[130.861,33.752]},"properties":{"Name":"呼野公民館","Jusho":"福岡県北九州市小倉南区大字呼野1185-1","kouzui":"○","gake":"○","takashio":"○","jishin":"○","tsunami":"○","kaji":"○","naisui":"○","kazan":"×"}}
,{"type":"Feature","geometry":{"type":"Point","coordinates":[130.84,33.813]},"properties":{"Name":"合馬竹林公園","Jusho":"福岡県北九州市小倉南区大字合馬","kouzui":"×","gake":"×","takashio":"○","jishin":"×","tsunami":"○","kaji":"○","naisui":"×","kazan":"×"}}
,{"type":"Feature","geometry":{"type":"Point","coordinates":[130.832,33.813]},"properties":{"Name":"合馬小学校","Jusho":"福岡県北九州市小倉南区大字合馬304","kouzui":"○","gake":"○","takashio":"○","jishin":"○","tsunami":"○","kaji":"○","naisui":"○","kazan":"×"}}
,{"type":"Feature","geometry":{"type":"Point","coordinates":[130.848,33.8]},"properties":{"Name":"すがお小学校","Jusho":"福岡県北九州市小倉南区大字山本393-6","kouzui":"○","gake":"○","takashio":"○","jishin":"○","tsunami":"○","kaji":"○","naisui":"○","kazan":"×"}}
,{"type":"Feature","geometry":{"type":"Point","coordinates":[130.868,33.765]},"properties":{"Name":"市丸公民館","Jusho":"福岡県北九州市小倉南区大字市丸454","kouzui":"○","gake":"○","takashio":"○","jishin":"×","tsunami":"×","kaji":"○","naisui":"○","kazan":"×"}}
,{"type":"Feature","geometry":{"type":"Point","coordinates":[130.868,33.763]},"properties":{"Name":"市丸小学校","Jusho":"福岡県北九州市小倉南区大字市丸472-2","kouzui":"○","gake":"○","takashio":"○","jishin":"○","tsunami":"○","kaji":"○","naisui":"○","kazan":"×"}}
,{"type":"Feature","geometry":{"type":"Point","coordinates":[130.88,33.804]},"properties":{"Name":"志井の森公園","Jusho":"福岡県北九州市小倉南区大字志井","kouzui":"×","gake":"×","takashio":"○","jishin":"×","tsunami":"○","kaji":"○","naisui":"×","kazan":"×"}}
,{"type":"Feature","geometry":{"type":"Point","coordinates":[130.875,33.815]},"properties":{"Name":"志井市民センター","Jusho":"福岡県北九州市小倉南区大字志井279","kouzui":"○","gake":"○","takashio":"○","jishin":"○","tsunami":"○","kaji":"○","naisui":"○","kazan":"×"}}
,{"type":"Feature","geometry":{"type":"Point","coordinates":[130.876,33.814]},"properties":{"Name":"志井小学校","Jusho":"福岡県北九州市小倉南区大字志井280","kouzui":"○","gake":"○","takashio":"○","jishin":"○","tsunami":"○","kaji":"○","naisui":"○","kazan":"×"}}
,{"type":"Feature","geometry":{"type":"Point","coordinates":[130.848,33.793]},"properties":{"Name":"春吉公民館","Jusho":"福岡県北九州市小倉南区大字春吉549-2","kouzui":"○","gake":"○","takashio":"○","jishin":"×","tsunami":"×","kaji":"○","naisui":"○","kazan":"×"}}
,{"type":"Feature","geometry":{"type":"Point","coordinates":[130.867,33.758]},"properties":{"Name":"小森公民館","Jusho":"福岡県北九州市小倉南区大字小森456-8","kouzui":"○","gake":"○","takashio":"○","jishin":"×","tsunami":"○","kaji":"○","naisui":"○","kazan":"×"}}
,{"type":"Feature","geometry":{"type":"Point","coordinates":[130.868,33.783]},"properties":{"Name":"新道寺第一公民館","Jusho":"福岡県北九州市小倉南区大字新道寺442-9","kouzui":"○","gake":"○","takashio":"○","jishin":"×","tsunami":"○","kaji":"○","naisui":"○","kazan":"×"}}
,{"type":"Feature","geometry":{"type":"Point","coordinates":[130.869,33.787]},"properties":{"Name":"新道寺小学校","Jusho":"福岡県北九州市小倉南区大字新道寺820-1","kouzui":"○","gake":"○","takashio":"○","jishin":"○","tsunami":"○","kaji":"○","naisui":"○","kazan":"×"}}
,{"type":"Feature","geometry":{"type":"Point","coordinates":[130.957,33.832]},"properties":{"Name":"曽根臨海公園","Jusho":"福岡県北九州市小倉南区大字曽根","kouzui":"○","gake":"○","takashio":"×","jishin":"○","tsunami":"○","kaji":"○","naisui":"○","kazan":"×"}}
,{"type":"Feature","geometry":{"type":"Point","coordinates":[130.911,33.82]},"properties":{"Name":"長野緑地","Jusho":"福岡県北九州市小倉南区大字長野","kouzui":"×","gake":"×","takashio":"○","jishin":"×","tsunami":"○","kaji":"○","naisui":"×","kazan":"×"}}
,{"type":"Feature","geometry":{"type":"Point","coordinates":[130.844,33.742]},"properties":{"Name":"かぐめよし少年自然の家","Jusho":"福岡県北九州市小倉南区大字頂吉451-1","kouzui":"○","gake":"○","takashio":"○","jishin":"○","tsunami":"○","kaji":"○","naisui":"○","kazan":"×"}}
,{"type":"Feature","geometry":{"type":"Point","coordinates":[130.824,33.818]},"properties":{"Name":"護聖寺本堂","Jusho":"福岡県北九州市小倉南区大字辻三307","kouzui":"○","gake":"○","takashio":"○","jishin":"×","tsunami":"×","kaji":"○","naisui":"○","kazan":"×"}}
,{"type":"Feature","geometry":{"type":"Point","coordinates":[130.842,33.778]},"properties":{"Name":"旧道原小学校","Jusho":"福岡県北九州市小倉南区大字道原1646","kouzui":"×","gake":"×","takashio":"○","jishin":"○","tsunami":"○","kaji":"○","naisui":"×","kazan":"×"}}
,{"type":"Feature","geometry":{"type":"Point","coordinates":[130.865,33.778]},"properties":{"Name":"東谷中学校","Jusho":"福岡県北九州市小倉南区大字木下499-1","kouzui":"○","gake":"○","takashio":"○","jishin":"○","tsunami":"○","kaji":"○","naisui":"○","kazan":"×"}}
,{"type":"Feature","geometry":{"type":"Point","coordinates":[130.866,33.779]},"properties":{"Name":"東谷市民センター","Jusho":"福岡県北九州市小倉南区大字木下704-1","kouzui":"○","gake":"○","takashio":"○","jishin":"○","tsunami":"○","kaji":"○","naisui":"○","kazan":"×"}}
,{"type":"Feature","geometry":{"type":"Point","coordinates":[130.95,33.847]},"properties":{"Name":"吉田小学校","Jusho":"福岡県北九州市小倉南区中吉田1-3-1","kouzui":"○","gake":"○","takashio":"○","jishin":"○","tsunami":"○","kaji":"○","naisui":"○","kazan":"×"}}
,{"type":"Feature","geometry":{"type":"Point","coordinates":[130.948,33.844]},"properties":{"Name":"吉田太陽の丘公園","Jusho":"福岡県北九州市小倉南区中吉田2-10","kouzui":"○","gake":"○","takashio":"×","jishin":"○","tsunami":"×","kaji":"○","naisui":"○","kazan":"×"}}
,{"type":"Feature","geometry":{"type":"Point","coordinates":[130.951,33.846]},"properties":{"Name":"吉田中学校","Jusho":"福岡県北九州市小倉南区中吉田3-8-1","kouzui":"○","gake":"○","takashio":"×","jishin":"○","tsunami":"○","kaji":"○","naisui":"○","kazan":"×"}}
,{"type":"Feature","geometry":{"type":"Point","coordinates":[130.954,33.849]},"properties":{"Name":"吉田市民センター","Jusho":"福岡県北九州市小倉南区中吉田6-27-5","kouzui":"○","gake":"○","takashio":"○","jishin":"○","tsunami":"○","kaji":"○","naisui":"○","kazan":"×"}}
,{"type":"Feature","geometry":{"type":"Point","coordinates":[130.938,33.824]},"properties":{"Name":"曽根中学校","Jusho":"福岡県北九州市小倉南区中曽根2-13-1","kouzui":"○","gake":"○","takashio":"×","jishin":"○","tsunami":"○","kaji":"○","naisui":"○","kazan":"×"}}
,{"type":"Feature","geometry":{"type":"Point","coordinates":[130.94,33.825]},"properties":{"Name":"曽根小学校","Jusho":"福岡県北九州市小倉南区中曽根3-9-1","kouzui":"○","gake":"○","takashio":"×","jishin":"○","tsunami":"○","kaji":"○","naisui":"○","kazan":"×"}}
,{"type":"Feature","geometry":{"type":"Point","coordinates":[130.939,33.823]},"properties":{"Name":"曽根市民センター","Jusho":"福岡県北九州市小倉南区中曽根3-9-7","kouzui":"○","gake":"○","takashio":"×","jishin":"○","tsunami":"○","kaji":"○","naisui":"○","kazan":"×"}}
,{"type":"Feature","geometry":{"type":"Point","coordinates":[130.945,33.828]},"properties":{"Name":"曽根公園","Jusho":"福岡県北九州市小倉南区中曽根東3-4","kouzui":"×","gake":"×","takashio":"×","jishin":"○","tsunami":"×","kaji":"○","naisui":"×","kazan":"×"}}
,{"type":"Feature","geometry":{"type":"Point","coordinates":[130.947,33.829]},"properties":{"Name":"曽根東小学校","Jusho":"福岡県北九州市小倉南区中曽根東3-5-1","kouzui":"○","gake":"○","takashio":"×","jishin":"○","tsunami":"×","kaji":"○","naisui":"○","kazan":"×"}}
,{"type":"Feature","geometry":{"type":"Point","coordinates":[130.855,33.821]},"properties":{"Name":"長尾市民センター","Jusho":"福岡県北九州市小倉南区長行西1-1-1","kouzui":"○","gake":"○","takashio":"○","jishin":"○","tsunami":"○","kaji":"○","naisui":"○","kazan":"×"}}
,{"type":"Feature","geometry":{"type":"Point","coordinates":[130.851,33.814]},"properties":{"Name":"私立　長行幼稚園","Jusho":"福岡県北九州市小倉南区長行西4-12-1","kouzui":"○","gake":"○","takashio":"○","jishin":"○","tsunami":"○","kaji":"○","naisui":"○","kazan":"×"}}
,{"type":"Feature","geometry":{"type":"Point","coordinates":[130.859,33.818]},"properties":{"Name":"長行小学校","Jusho":"福岡県北九州市小倉南区長行東3-8-1","kouzui":"○","gake":"○","takashio":"○","jishin":"○","tsunami":"○","kaji":"○","naisui":"○","kazan":"×"}}
,{"type":"Feature","geometry":{"type":"Point","coordinates":[130.857,33.822]},"properties":{"Name":"長尾小学校","Jusho":"福岡県北九州市小倉南区長尾4-30-1","kouzui":"○","gake":"○","takashio":"○","jishin":"○","tsunami":"○","kaji":"○","naisui":"○","kazan":"×"}}
,{"type":"Feature","geometry":{"type":"Point","coordinates":[130.915,33.831]},"properties":{"Name":"下長野公民館","Jusho":"福岡県北九州市小倉南区長野本町1-10-1","kouzui":"○","gake":"○","takashio":"×","jishin":"×","tsunami":"×","kaji":"○","naisui":"○","kazan":"×"}}
,{"type":"Feature","geometry":{"type":"Point","coordinates":[130.923,33.828]},"properties":{"Name":"津田町民つどいの家","Jusho":"福岡県北九州市小倉南区津田3-8-48","kouzui":"○","gake":"○","takashio":"×","jishin":"○","tsunami":"○","kaji":"○","naisui":"○","kazan":"×"}}
,{"type":"Feature","geometry":{"type":"Point","coordinates":[130.932,33.826]},"properties":{"Name":"田原公民館","Jusho":"福岡県北九州市小倉南区田原3-13-1","kouzui":"○","gake":"○","takashio":"×","jishin":"○","tsunami":"○","kaji":"○","naisui":"○","kazan":"×"}}
,{"type":"Feature","geometry":{"type":"Point","coordinates":[130.93,33.827]},"properties":{"Name":"田原市民センター","Jusho":"福岡県北九州市小倉南区田原3-16-31","kouzui":"○","gake":"○","takashio":"×","jishin":"○","tsunami":"○","kaji":"○","naisui":"○","kazan":"×"}}
,{"type":"Feature","geometry":{"type":"Point","coordinates":[130.928,33.82]},"properties":{"Name":"文化記念公園","Jusho":"福岡県北九州市小倉南区田原5-1","kouzui":"○","gake":"○","takashio":"○","jishin":"○","tsunami":"○","kaji":"○","naisui":"○","kazan":"×"}}
,{"type":"Feature","geometry":{"type":"Point","coordinates":[130.93,33.823]},"properties":{"Name":"田原中学校","Jusho":"福岡県北九州市小倉南区田原5-1-1","kouzui":"○","gake":"○","takashio":"○","jishin":"○","tsunami":"○","kaji":"○","naisui":"○","kazan":"×"}}
,{"type":"Feature","geometry":{"type":"Point","coordinates":[130.927,33.82]},"properties":{"Name":"文化記念体育施設管理事務所","Jusho":"福岡県北九州市小倉南区田原5-1-2","kouzui":"○","gake":"○","takashio":"○","jishin":"○","tsunami":"○","kaji":"○","naisui":"○","kazan":"×"}}
,{"type":"Feature","geometry":{"type":"Point","coordinates":[130.931,33.821]},"properties":{"Name":"小倉東高等学校","Jusho":"福岡県北九州市小倉南区田原5-2-1","kouzui":"○","gake":"○","takashio":"○","jishin":"○","tsunami":"○","kaji":"○","naisui":"○","kazan":"×"}}
,{"type":"Feature","geometry":{"type":"Point","coordinates":[130.928,33.83]},"properties":{"Name":"田原小学校","Jusho":"福岡県北九州市小倉南区田原新町2-1-1","kouzui":"○","gake":"○","takashio":"×","jishin":"○","tsunami":"×","kaji":"○","naisui":"○","kazan":"×"}}
,{"type":"Feature","geometry":{"type":"Point","coordinates":[130.901,33.845]},"properties":{"Name":"湯川市民センター","Jusho":"福岡県北九州市小倉南区湯川1-8-33","kouzui":"○","gake":"○","takashio":"○","jishin":"○","tsunami":"○","kaji":"○","naisui":"○","kazan":"×"}}
,{"type":"Feature","geometry":{"type":"Point","coordinates":[130.895,33.847]},"properties":{"Name":"湯川小学校","Jusho":"福岡県北九州市小倉南区湯川新町1-8-1","kouzui":"○","gake":"○","takashio":"○","jishin":"○","tsunami":"○","kaji":"○","naisui":"○","kazan":"×"}}
,{"type":"Feature","geometry":{"type":"Point","coordinates":[130.901,33.84]},"properties":{"Name":"湯川中央公園","Jusho":"福岡県北九州市小倉南区湯川新町3-24","kouzui":"×","gake":"×","takashio":"×","jishin":"○","tsunami":"○","kaji":"○","naisui":"×","kazan":"×"}}
,{"type":"Feature","geometry":{"type":"Point","coordinates":[130.904,33.84]},"properties":{"Name":"湯川中学校","Jusho":"福岡県北九州市小倉南区湯川新町4-25-1","kouzui":"○","gake":"○","takashio":"×","jishin":"○","tsunami":"○","kaji":"○","naisui":"○","kazan":"×"}}
,{"type":"Feature","geometry":{"type":"Point","coordinates":[130.856,33.811]},"properties":{"Name":"徳吉中央公園","Jusho":"福岡県北九州市小倉南区徳吉西3-1","kouzui":"×","gake":"×","takashio":"○","jishin":"○","tsunami":"○","kaji":"○","naisui":"×","kazan":"×"}}
,{"type":"Feature","geometry":{"type":"Point","coordinates":[130.856,33.812]},"properties":{"Name":"長行市民センター","Jusho":"福岡県北九州市小倉南区徳吉西3-3-16","kouzui":"○","gake":"○","takashio":"○","jishin":"○","tsunami":"○","kaji":"○","naisui":"○","kazan":"×"}}
,{"type":"Feature","geometry":{"type":"Point","coordinates":[130.865,33.813]},"properties":{"Name":"妙真寺","Jusho":"福岡県北九州市小倉南区徳吉東3-11-1","kouzui":"×","gake":"×","takashio":"○","jishin":"×","tsunami":"×","kaji":"○","naisui":"×","kazan":"×"}}
,{"type":"Feature","geometry":{"type":"Point","coordinates":[130.854,33.809]},"properties":{"Name":"両谷市民センター","Jusho":"福岡県北九州市小倉南区徳吉南1-6-10","kouzui":"○","gake":"○","takashio":"○","jishin":"○","tsunami":"○","kaji":"○","naisui":"○","kazan":"×"}}
,{"type":"Feature","geometry":{"type":"Point","coordinates":[130.853,33.809]},"properties":{"Name":"菅生中学校","Jusho":"福岡県北九州市小倉南区徳吉南2-2-1","kouzui":"○","gake":"○","takashio":"○","jishin":"○","tsunami":"○","kaji":"○","naisui":"○","kazan":"×"}}
,{"type":"Feature","geometry":{"type":"Point","coordinates":[130.87,33.824]},"properties":{"Name":"企救丘市民センター","Jusho":"福岡県北九州市小倉南区徳力4-17-5","kouzui":"○","gake":"○","takashio":"○","jishin":"○","tsunami":"○","kaji":"○","naisui":"○","kazan":"×"}}
,{"type":"Feature","geometry":{"type":"Point","coordinates":[130.863,33.827]},"properties":{"Name":"徳力地域交流センター","Jusho":"福岡県北九州市小倉南区徳力6-3-1","kouzui":"○","gake":"○","takashio":"○","jishin":"○","tsunami":"○","kaji":"○","naisui":"○","kazan":"×"}}
,{"type":"Feature","geometry":{"type":"Point","coordinates":[130.863,33.827]},"properties":{"Name":"広徳市民センター","Jusho":"福岡県北九州市小倉南区徳力6-3-2","kouzui":"○","gake":"○","takashio":"○","jishin":"○","tsunami":"○","kaji":"○","naisui":"○","kazan":"×"}}
,{"type":"Feature","geometry":{"type":"Point","coordinates":[130.869,33.84]},"properties":{"Name":"紫川河畔公園","Jusho":"福岡県北九州市小倉南区徳力新町1-1","kouzui":"×","gake":"×","takashio":"○","jishin":"○","tsunami":"○","kaji":"○","naisui":"×","kazan":"×"}}
,{"type":"Feature","geometry":{"type":"Point","coordinates":[130.868,33.836]},"properties":{"Name":"徳力小学校","Jusho":"福岡県北九州市小倉南区徳力新町2-2-1","kouzui":"○","gake":"○","takashio":"○","jishin":"○","tsunami":"○","kaji":"○","naisui":"○","kazan":"×"}}
,{"type":"Feature","geometry":{"type":"Point","coordinates":[130.886,33.843]},"properties":{"Name":"企救中学校","Jusho":"福岡県北九州市小倉南区南若園町1-1","kouzui":"○","gake":"○","takashio":"○","jishin":"○","tsunami":"○","kaji":"○","naisui":"○","kazan":"×"}}
,{"type":"Feature","geometry":{"type":"Point","coordinates":[130.865,33.835]},"properties":{"Name":"徳力市民センター","Jusho":"福岡県北九州市小倉南区南方2-5-37","kouzui":"○","gake":"○","takashio":"○","jishin":"○","tsunami":"○","kaji":"○","naisui":"○","kazan":"×"}}
,{"type":"Feature","geometry":{"type":"Point","coordinates":[130.862,33.83]},"properties":{"Name":"広徳小学校","Jusho":"福岡県北九州市小倉南区南方4-1-1","kouzui":"○","gake":"○","takashio":"○","jishin":"○","tsunami":"○","kaji":"○","naisui":"○","kazan":"×"}}
,{"type":"Feature","geometry":{"type":"Point","coordinates":[130.859,33.83]},"properties":{"Name":"広徳中学校","Jusho":"福岡県北九州市小倉南区南方4-13-1","kouzui":"○","gake":"○","takashio":"○","jishin":"○","tsunami":"○","kaji":"○","naisui":"○","kazan":"×"}}
,{"type":"Feature","geometry":{"type":"Point","coordinates":[130.879,33.839]},"properties":{"Name":"小倉南体育館","Jusho":"福岡県北九州市小倉南区日の出町2-5-1","kouzui":"○","gake":"○","takashio":"○","jishin":"○","tsunami":"○","kaji":"○","naisui":"○","kazan":"×"}}
,{"type":"Feature","geometry":{"type":"Point","coordinates":[130.882,33.857]},"properties":{"Name":"小倉南高等学校","Jusho":"福岡県北九州市小倉南区富士見1-9-1","kouzui":"○","gake":"○","takashio":"○","jishin":"○","tsunami":"○","kaji":"○","naisui":"○","kazan":"×"}}
,{"type":"Feature","geometry":{"type":"Point","coordinates":[130.882,33.86]},"properties":{"Name":"城野市民センター","Jusho":"福岡県北九州市小倉南区富士見3-1-3","kouzui":"○","gake":"○","takashio":"○","jishin":"○","tsunami":"○","kaji":"○","naisui":"○","kazan":"×"}}
,{"type":"Feature","geometry":{"type":"Point","coordinates":[130.881,33.859]},"properties":{"Name":"城野小学校","Jusho":"福岡県北九州市小倉南区富士見3-2-1","kouzui":"○","gake":"○","takashio":"○","jishin":"○","tsunami":"○","kaji":"○","naisui":"○","kazan":"×"}}
,{"type":"Feature","geometry":{"type":"Point","coordinates":[130.881,33.86]},"properties":{"Name":"城南中学校","Jusho":"福岡県北九州市小倉南区富士見3-3-1","kouzui":"○","gake":"○","takashio":"○","jishin":"○","tsunami":"○","kaji":"○","naisui":"○","kazan":"×"}}
,{"type":"Feature","geometry":{"type":"Point","coordinates":[130.879,33.86]},"properties":{"Name":"小倉商業高等学校","Jusho":"福岡県北九州市小倉南区富士見3-5-1","kouzui":"○","gake":"○","takashio":"○","jishin":"○","tsunami":"○","kaji":"○","naisui":"○","kazan":"×"}}
,{"type":"Feature","geometry":{"type":"Point","coordinates":[130.905,33.826]},"properties":{"Name":"舞ヶ丘中央公園","Jusho":"福岡県北九州市小倉南区舞ケ丘3-4","kouzui":"○","gake":"○","takashio":"○","jishin":"○","tsunami":"○","kaji":"○","naisui":"○","kazan":"×"}}
,{"type":"Feature","geometry":{"type":"Point","coordinates":[130.896,33.758]},"properties":{"Name":"北九州子どもの村小学校","Jusho":"福岡県北九州市小倉南区平尾台2-5-24","kouzui":"○","gake":"○","takashio":"○","jishin":"○","tsunami":"○","kaji":"○","naisui":"○","kazan":"×"}}
,{"type":"Feature","geometry":{"type":"Point","coordinates":[130.895,33.757]},"properties":{"Name":"平尾公民館","Jusho":"福岡県北九州市小倉南区平尾台2-6-1","kouzui":"○","gake":"○","takashio":"○","jishin":"×","tsunami":"×","kaji":"○","naisui":"○","kazan":"×"}}
,{"type":"Feature","geometry":{"type":"Point","coordinates":[130.88,33.849]},"properties":{"Name":"北方市民センター","Jusho":"福岡県北九州市小倉南区北方2-16-10","kouzui":"○","gake":"○","takashio":"○","jishin":"○","tsunami":"○","kaji":"○","naisui":"○","kazan":"×"}}
,{"type":"Feature","geometry":{"type":"Point","coordinates":[130.88,33.851]},"properties":{"Name":"北方小学校","Jusho":"福岡県北九州市小倉南区北方2-2-1","kouzui":"○","gake":"○","takashio":"○","jishin":"○","tsunami":"○","kaji":"○","naisui":"○","kazan":"×"}}
,{"type":"Feature","geometry":{"type":"Point","coordinates":[130.877,33.849]},"properties":{"Name":"北方地域交流センター","Jusho":"福岡県北九州市小倉南区北方3-31-1","kouzui":"○","gake":"○","takashio":"○","jishin":"○","tsunami":"○","kaji":"○","naisui":"○","kazan":"×"}}
,{"type":"Feature","geometry":{"type":"Point","coordinates":[130.879,33.845]},"properties":{"Name":"公立大学法人　北九州市立大学","Jusho":"福岡県北九州市小倉南区北方4-2-1","kouzui":"○","gake":"○","takashio":"○","jishin":"○","tsunami":"○","kaji":"○","naisui":"○","kazan":"×"}}
,{"type":"Feature","geometry":{"type":"Point","coordinates":[130.875,33.844]},"properties":{"Name":"小倉競馬場","Jusho":"福岡県北九州市小倉南区北方4-5-1","kouzui":"○","gake":"○","takashio":"○","jishin":"○","tsunami":"○","kaji":"○","naisui":"○","kazan":"×"}}
,{"type":"Feature","geometry":{"type":"Point","coordinates":[130.883,33.836]},"properties":{"Name":"葉山中央公園","Jusho":"福岡県北九州市小倉南区葉山町3","kouzui":"○","gake":"○","takashio":"○","jishin":"○","tsunami":"○","kaji":"○","naisui":"○","kazan":"×"}}
,{"type":"Feature","geometry":{"type":"Point","coordinates":[130.882,33.835]},"properties":{"Name":"守恒中学校","Jusho":"福岡県北九州市小倉南区葉山町3-3-10","kouzui":"○","gake":"○","takashio":"○","jishin":"○","tsunami":"○","kaji":"○","naisui":"○","kazan":"×"}}
,{"type":"Feature","geometry":{"type":"Point","coordinates":[130.863,33.887]},"properties":{"Name":"小倉高等学校","Jusho":"福岡県北九州市小倉北区愛宕2-8-1","kouzui":"○","gake":"○","takashio":"○","jishin":"○","tsunami":"○","kaji":"○","naisui":"○","kazan":"×"}}
,{"type":"Feature","geometry":{"type":"Point","coordinates":[130.851,33.887]},"properties":{"Name":"中井市民センター","Jusho":"福岡県北九州市小倉北区井堀2-7-4","kouzui":"○","gake":"○","takashio":"○","jishin":"○","tsunami":"○","kaji":"○","naisui":"○","kazan":"×"}}
,{"type":"Feature","geometry":{"type":"Point","coordinates":[130.846,33.884]},"properties":{"Name":"井堀小学校","Jusho":"福岡県北九州市小倉北区井堀3-15-1","kouzui":"○","gake":"○","takashio":"○","jishin":"○","tsunami":"○","kaji":"○","naisui":"○","kazan":"×"}}
,{"type":"Feature","geometry":{"type":"Point","coordinates":[130.845,33.883]},"properties":{"Name":"井堀市民センター","Jusho":"福岡県北九州市小倉北区井堀3-15-2","kouzui":"○","gake":"○","takashio":"○","jishin":"○","tsunami":"○","kaji":"○","naisui":"○","kazan":"×"}}
,{"type":"Feature","geometry":{"type":"Point","coordinates":[130.89,33.878]},"properties":{"Name":"足立小学校","Jusho":"福岡県北九州市小倉北区宇佐町1-6-7","kouzui":"○","gake":"○","takashio":"○","jishin":"○","tsunami":"○","kaji":"○","naisui":"○","kazan":"×"}}
,{"type":"Feature","geometry":{"type":"Point","coordinates":[130.891,33.877]},"properties":{"Name":"足立市民センター","Jusho":"福岡県北九州市小倉北区宇佐町1-8-15","kouzui":"○","gake":"○","takashio":"○","jishin":"○","tsunami":"○","kaji":"○","naisui":"○","kazan":"×"}}
,{"type":"Feature","geometry":{"type":"Point","coordinates":[130.879,33.871]},"properties":{"Name":"黄金公民館","Jusho":"福岡県北九州市小倉北区黄金1-7-1","kouzui":"×","gake":"×","takashio":"×","jishin":"×","tsunami":"×","kaji":"○","naisui":"×","kazan":"×"}}
,{"type":"Feature","geometry":{"type":"Point","coordinates":[130.879,33.869]},"properties":{"Name":"黄金二丁目公民館","Jusho":"福岡県北九州市小倉北区黄金2-6-1","kouzui":"×","gake":"×","takashio":"○","jishin":"×","tsunami":"×","kaji":"○","naisui":"×","kazan":"×"}}
,{"type":"Feature","geometry":{"type":"Point","coordinates":[130.855,33.876]},"properties":{"Name":"到津公民館","Jusho":"福岡県北九州市小倉北区下到津4-10-5","kouzui":"○","gake":"○","takashio":"○","jishin":"×","tsunami":"×","kaji":"○","naisui":"○","kazan":"×"}}
,{"type":"Feature","geometry":{"type":"Point","coordinates":[130.857,33.879]},"properties":{"Name":"小倉北特別支援学校","Jusho":"福岡県北九州市小倉北区下到津4-3-1","kouzui":"○","gake":"○","takashio":"○","jishin":"○","tsunami":"○","kaji":"○","naisui":"○","kazan":"×"}}
,{"type":"Feature","geometry":{"type":"Point","coordinates":[130.857,33.879]},"properties":{"Name":"到津市民センター","Jusho":"福岡県北九州市小倉北区下到津4-3-2","kouzui":"○","gake":"○","takashio":"○","jishin":"○","tsunami":"○","kaji":"○","naisui":"○","kazan":"×"}}
,{"type":"Feature","geometry":{"type":"Point","coordinates":[130.858,33.876]},"properties":{"Name":"学校法人　東筑紫学園","Jusho":"福岡県北九州市小倉北区下到津5-2-23","kouzui":"○","gake":"○","takashio":"○","jishin":"○","tsunami":"○","kaji":"○","naisui":"○","kazan":"×"}}
,{"type":"Feature","geometry":{"type":"Point","coordinates":[130.857,33.875]},"properties":{"Name":"小倉西高等学校","Jusho":"福岡県北九州市小倉北区下到津5-7-1","kouzui":"○","gake":"○","takashio":"○","jishin":"○","tsunami":"○","kaji":"○","naisui":"○","kazan":"×"}}
,{"type":"Feature","geometry":{"type":"Point","coordinates":[130.894,33.883]},"properties":{"Name":"菊陵中学校","Jusho":"福岡県北九州市小倉北区下富野1-2-1","kouzui":"○","gake":"○","takashio":"○","jishin":"○","tsunami":"○","kaji":"○","naisui":"○","kazan":"×"}}
,{"type":"Feature","geometry":{"type":"Point","coordinates":[130.895,33.882]},"properties":{"Name":"下富野公民館","Jusho":"福岡県北九州市小倉北区下富野2-1-32","kouzui":"○","gake":"○","takashio":"○","jishin":"○","tsunami":"○","kaji":"○","naisui":"○","kazan":"×"}}
,{"type":"Feature","geometry":{"type":"Point","coordinates":[130.898,33.879]},"properties":{"Name":"下富野地域交流センター","Jusho":"福岡県北九州市小倉北区下富野5-17-17","kouzui":"○","gake":"○","takashio":"○","jishin":"○","tsunami":"○","kaji":"×","naisui":"○","kazan":"×"}}
,{"type":"Feature","geometry":{"type":"Point","coordinates":[130.866,33.861]},"properties":{"Name":"南丘市民センター","Jusho":"福岡県北九州市小倉北区熊谷1-26-15","kouzui":"○","gake":"○","takashio":"○","jishin":"○","tsunami":"○","kaji":"○","naisui":"○","kazan":"×"}}
,{"type":"Feature","geometry":{"type":"Point","coordinates":[130.866,33.857]},"properties":{"Name":"熊谷公民館","Jusho":"福岡県北九州市小倉北区熊谷2-3-11","kouzui":"○","gake":"○","takashio":"○","jishin":"×","tsunami":"×","kaji":"○","naisui":"○","kazan":"×"}}
,{"type":"Feature","geometry":{"type":"Point","coordinates":[130.892,33.868]},"properties":{"Name":"三郎丸市民センター","Jusho":"福岡県北九州市小倉北区熊本1-12-1","kouzui":"○","gake":"○","takashio":"○","jishin":"○","tsunami":"○","kaji":"○","naisui":"○","kazan":"×"}}
,{"type":"Feature","geometry":{"type":"Point","coordinates":[130.893,33.871]},"properties":{"Name":"同志通公民館","Jusho":"福岡県北九州市小倉北区熊本2-2-16","kouzui":"×","gake":"×","takashio":"×","jishin":"×","tsunami":"×","kaji":"○","naisui":"×","kazan":"×"}}
,{"type":"Feature","geometry":{"type":"Point","coordinates":[130.895,33.868]},"properties":{"Name":"妙見通公民館","Jusho":"福岡県北九州市小倉北区熊本3-4-6","kouzui":"○","gake":"○","takashio":"○","jishin":"×","tsunami":"×","kaji":"○","naisui":"○","kazan":"×"}}
,{"type":"Feature","geometry":{"type":"Point","coordinates":[130.865,33.875]},"properties":{"Name":"篠崎中学校","Jusho":"福岡県北九州市小倉北区原町2-8-1","kouzui":"○","gake":"○","takashio":"○","jishin":"○","tsunami":"○","kaji":"○","naisui":"○","kazan":"×"}}
,{"type":"Feature","geometry":{"type":"Point","coordinates":[130.88,33.88]},"properties":{"Name":"商工貿易会館","Jusho":"福岡県北九州市小倉北区古船場町1-35","kouzui":"○","gake":"○","takashio":"○","jishin":"○","tsunami":"○","kaji":"○","naisui":"○","kazan":"×"}}
,{"type":"Feature","geometry":{"type":"Point","coordinates":[130.859,33.867]},"properties":{"Name":"南小倉中学校","Jusho":"福岡県北九州市小倉北区高尾1-4-1","kouzui":"○","gake":"○","takashio":"○","jishin":"○","tsunami":"○","kaji":"○","naisui":"○","kazan":"×"}}
,{"type":"Feature","geometry":{"type":"Point","coordinates":[130.899,33.861]},"properties":{"Name":"霧丘市民センター","Jusho":"福岡県北九州市小倉北区黒原2-30-30","kouzui":"○","gake":"○","takashio":"○","jishin":"○","tsunami":"○","kaji":"○","naisui":"○","kazan":"×"}}
,{"type":"Feature","geometry":{"type":"Point","coordinates":[130.897,33.861]},"properties":{"Name":"霧丘中学校","Jusho":"福岡県北九州市小倉北区黒原3-17-1","kouzui":"○","gake":"○","takashio":"○","jishin":"○","tsunami":"○","kaji":"○","naisui":"○","kazan":"×"}}
,{"type":"Feature","geometry":{"type":"Point","coordinates":[130.893,33.862]},"properties":{"Name":"黒住町公民館","Jusho":"福岡県北九州市小倉北区黒住町25-6","kouzui":"×","gake":"×","takashio":"○","jishin":"×","tsunami":"×","kaji":"○","naisui":"×","kazan":"×"}}
,{"type":"Feature","geometry":{"type":"Point","coordinates":[130.875,33.86]},"properties":{"Name":"今町河畔公園","Jusho":"福岡県北九州市小倉北区今町1-3","kouzui":"×","gake":"×","takashio":"○","jishin":"○","tsunami":"○","kaji":"○","naisui":"×","kazan":"×"}}
,{"type":"Feature","geometry":{"type":"Point","coordinates":[130.874,33.857]},"properties":{"Name":"今町公民館","Jusho":"福岡県北九州市小倉北区今町2-20-1","kouzui":"×","gake":"×","takashio":"○","jishin":"×","tsunami":"×","kaji":"○","naisui":"×","kazan":"×"}}
,{"type":"Feature","geometry":{"type":"Point","coordinates":[130.872,33.854]},"properties":{"Name":"今町小学校","Jusho":"福岡県北九州市小倉北区今町3-19-1","kouzui":"○","gake":"○","takashio":"○","jishin":"○","tsunami":"○","kaji":"○","naisui":"○","kazan":"×"}}
,{"type":"Feature","geometry":{"type":"Point","coordinates":[130.873,33.855]},"properties":{"Name":"今町市民センター","Jusho":"福岡県北九州市小倉北区今町3-19-2","kouzui":"○","gake":"○","takashio":"○","jishin":"○","tsunami":"○","kaji":"○","naisui":"○","kazan":"×"}}
,{"type":"Feature","geometry":{"type":"Point","coordinates":[130.862,33.884]},"properties":{"Name":"愛宕公園","Jusho":"福岡県北九州市小倉北区菜園場2-2","kouzui":"○","gake":"○","takashio":"○","jishin":"○","tsunami":"○","kaji":"○","naisui":"○","kazan":"×"}}
,{"type":"Feature","geometry":{"type":"Point","coordinates":[130.887,33.882]},"properties":{"Name":"小倉中央小学校","Jusho":"福岡県北九州市小倉北区堺町2-4-1","kouzui":"○","gake":"○","takashio":"○","jishin":"○","tsunami":"○","kaji":"○","naisui":"○","kazan":"×"}}
,{"type":"Feature","geometry":{"type":"Point","coordinates":[130.887,33.882]},"properties":{"Name":"小倉中央市民センター","Jusho":"福岡県北九州市小倉北区堺町2-4-24","kouzui":"○","gake":"○","takashio":"○","jishin":"○","tsunami":"○","kaji":"○","naisui":"○","kazan":"×"}}
,{"type":"Feature","geometry":{"type":"Point","coordinates":[130.886,33.871]},"properties":{"Name":"三萩野公園","Jusho":"福岡県北九州市小倉北区三萩野2-10","kouzui":"×","gake":"×","takashio":"×","jishin":"○","tsunami":"○","kaji":"○","naisui":"×","kazan":"×"}}
,{"type":"Feature","geometry":{"type":"Point","coordinates":[130.888,33.872]},"properties":{"Name":"北九州メディアドーム","Jusho":"福岡県北九州市小倉北区三萩野3-1-1","kouzui":"○","gake":"○","takashio":"○","jishin":"○","tsunami":"○","kaji":"○","naisui":"○","kazan":"×"}}
,{"type":"Feature","geometry":{"type":"Point","coordinates":[130.889,33.868]},"properties":{"Name":"三郎丸小学校","Jusho":"福岡県北九州市小倉北区三郎丸3-13-1","kouzui":"○","gake":"○","takashio":"○","jishin":"○","tsunami":"○","kaji":"○","naisui":"○","kazan":"×"}}
,{"type":"Feature","geometry":{"type":"Point","coordinates":[130.889,33.869]},"properties":{"Name":"小倉北体育館","Jusho":"福岡県北九州市小倉北区三郎丸3-4-1","kouzui":"×","gake":"×","takashio":"×","jishin":"○","tsunami":"○","kaji":"○","naisui":"×","kazan":"×"}}
,{"type":"Feature","geometry":{"type":"Point","coordinates":[130.856,33.853]},"properties":{"Name":"山田緑地","Jusho":"福岡県北九州市小倉北区山田町3","kouzui":"×","gake":"×","takashio":"○","jishin":"×","tsunami":"○","kaji":"○","naisui":"×","kazan":"×"}}
,{"type":"Feature","geometry":{"type":"Point","coordinates":[130.858,33.864]},"properties":{"Name":"山田町公民館","Jusho":"福岡県北九州市小倉北区篠崎5-3-9","kouzui":"○","gake":"○","takashio":"○","jishin":"×","tsunami":"×","kaji":"○","naisui":"○","kazan":"×"}}
,{"type":"Feature","geometry":{"type":"Point","coordinates":[130.857,33.862]},"properties":{"Name":"山田地域交流センター","Jusho":"福岡県北九州市小倉北区篠崎5-9-1","kouzui":"○","gake":"○","takashio":"○","jishin":"○","tsunami":"○","kaji":"○","naisui":"○","kazan":"×"}}
,{"type":"Feature","geometry":{"type":"Point","coordinates":[130.877,33.875]},"properties":{"Name":"中島小学校","Jusho":"福岡県北九州市小倉北区昭和町16-1","kouzui":"○","gake":"○","takashio":"○","jishin":"○","tsunami":"○","kaji":"○","naisui":"○","kazan":"×"}}
,{"type":"Feature","geometry":{"type":"Point","coordinates":[130.877,33.875]},"properties":{"Name":"中島市民センター","Jusho":"福岡県北九州市小倉北区昭和町16-2","kouzui":"○","gake":"○","takashio":"○","jishin":"○","tsunami":"○","kaji":"○","naisui":"○","kazan":"×"}}
,{"type":"Feature","geometry":{"type":"Point","coordinates":[130.853,33.879]},"properties":{"Name":"到津小学校","Jusho":"福岡県北九州市小倉北区上到津1-9-1","kouzui":"○","gake":"○","takashio":"○","jishin":"○","tsunami":"○","kaji":"○","naisui":"○","kazan":"×"}}
,{"type":"Feature","geometry":{"type":"Point","coordinates":[130.845,33.871]},"properties":{"Name":"上四公民館","Jusho":"福岡県北九州市小倉北区上到津4-11-28","kouzui":"○","gake":"○","takashio":"○","jishin":"×","tsunami":"×","kaji":"○","naisui":"○","kazan":"×"}}
,{"type":"Feature","geometry":{"type":"Point","coordinates":[130.899,33.886]},"properties":{"Name":"サンレー小倉紫雲閣","Jusho":"福岡県北九州市小倉北区上富野3-2-8","kouzui":"○","gake":"○","takashio":"○","jishin":"×","tsunami":"×","kaji":"○","naisui":"○","kazan":"×"}}
,{"type":"Feature","geometry":{"type":"Point","coordinates":[130.906,33.884]},"properties":{"Name":"桜丘市民センター","Jusho":"福岡県北九州市小倉北区上富野5-6-21","kouzui":"○","gake":"○","takashio":"○","jishin":"○","tsunami":"○","kaji":"○","naisui":"○","kazan":"×"}}
,{"type":"Feature","geometry":{"type":"Point","coordinates":[130.873,33.882]},"properties":{"Name":"勝山公園","Jusho":"福岡県北九州市小倉北区城内1","kouzui":"○","gake":"○","takashio":"○","jishin":"○","tsunami":"○","kaji":"○","naisui":"○","kazan":"×"}}
,{"type":"Feature","geometry":{"type":"Point","coordinates":[130.87,33.883]},"properties":{"Name":"西小倉小学校","Jusho":"福岡県北九州市小倉北区城内6-1","kouzui":"○","gake":"○","takashio":"○","jishin":"○","tsunami":"○","kaji":"○","naisui":"○","kazan":"×"}}
,{"type":"Feature","geometry":{"type":"Point","coordinates":[130.906,33.882]},"properties":{"Name":"富野小学校","Jusho":"福岡県北九州市小倉北区常盤町3-1","kouzui":"○","gake":"○","takashio":"○","jishin":"○","tsunami":"○","kaji":"○","naisui":"○","kazan":"×"}}
,{"type":"Feature","geometry":{"type":"Point","coordinates":[130.907,33.881]},"properties":{"Name":"富野中学校","Jusho":"福岡県北九州市小倉北区常盤町8-1","kouzui":"○","gake":"○","takashio":"○","jishin":"○","tsunami":"○","kaji":"○","naisui":"○","kazan":"×"}}
,{"type":"Feature","geometry":{"type":"Point","coordinates":[130.864,33.869]},"properties":{"Name":"南小倉小学校","Jusho":"福岡県北九州市小倉北区新高田1-1-1","kouzui":"○","gake":"○","takashio":"○","jishin":"○","tsunami":"○","kaji":"○","naisui":"○","kazan":"×"}}
,{"type":"Feature","geometry":{"type":"Point","coordinates":[130.866,33.867]},"properties":{"Name":"南小倉市民センター","Jusho":"福岡県北九州市小倉北区新高田1-10-3","kouzui":"○","gake":"○","takashio":"○","jishin":"○","tsunami":"○","kaji":"○","naisui":"○","kazan":"×"}}
,{"type":"Feature","geometry":{"type":"Point","coordinates":[130.862,33.866]},"properties":{"Name":"年長者研修大学校　周望学舎","Jusho":"福岡県北九州市小倉北区新高田2-29-1","kouzui":"○","gake":"○","takashio":"○","jishin":"○","tsunami":"○","kaji":"○","naisui":"○","kazan":"×"}}
,{"type":"Feature","geometry":{"type":"Point","coordinates":[130.866,33.866]},"properties":{"Name":"新高田公民館","Jusho":"福岡県北九州市小倉北区新高田2-3-1","kouzui":"×","gake":"×","takashio":"○","jishin":"×","tsunami":"×","kaji":"○","naisui":"×","kazan":"×"}}
,{"type":"Feature","geometry":{"type":"Point","coordinates":[130.856,33.873]},"properties":{"Name":"泉台市民センター","Jusho":"福岡県北九州市小倉北区真鶴1-5-15","kouzui":"○","gake":"○","takashio":"○","jishin":"○","tsunami":"○","kaji":"○","naisui":"○","kazan":"×"}}
,{"type":"Feature","geometry":{"type":"Point","coordinates":[130.894,33.874]},"properties":{"Name":"宇佐町公民館","Jusho":"福岡県北九州市小倉北区神岳2-2-8","kouzui":"×","gake":"×","takashio":"×","jishin":"×","tsunami":"×","kaji":"○","naisui":"×","kazan":"×"}}
,{"type":"Feature","geometry":{"type":"Point","coordinates":[130.907,33.882]},"properties":{"Name":"富野市民センター","Jusho":"福岡県北九州市小倉北区須賀町6-23","kouzui":"○","gake":"○","takashio":"○","jishin":"○","tsunami":"○","kaji":"○","naisui":"○","kazan":"×"}}
,{"type":"Feature","geometry":{"type":"Point","coordinates":[130.861,33.874]},"properties":{"Name":"清水小学校","Jusho":"福岡県北九州市小倉北区清水2-13-1","kouzui":"○","gake":"○","takashio":"○","jishin":"○","tsunami":"○","kaji":"○","naisui":"○","kazan":"×"}}
,{"type":"Feature","geometry":{"type":"Point","coordinates":[130.86,33.874]},"properties":{"Name":"清水公民館","Jusho":"福岡県北九州市小倉北区清水3-7-6","kouzui":"○","gake":"○","takashio":"○","jishin":"×","tsunami":"×","kaji":"○","naisui":"○","kazan":"×"}}
,{"type":"Feature","geometry":{"type":"Point","coordinates":[130.868,33.903]},"properties":{"Name":"日明臨海公園","Jusho":"福岡県北九州市小倉北区西港町","kouzui":"○","gake":"○","takashio":"×","jishin":"○","tsunami":"○","kaji":"○","naisui":"○","kazan":"×"}}
,{"type":"Feature","geometry":{"type":"Point","coordinates":[130.863,33.899]},"properties":{"Name":"北九州緊急物資輸送センター","Jusho":"福岡県北九州市小倉北区西港町9-14","kouzui":"○","gake":"○","takashio":"○","jishin":"○","tsunami":"×","kaji":"○","naisui":"○","kazan":"×"}}
,{"type":"Feature","geometry":{"type":"Point","coordinates":[130.91,33.886]},"properties":{"Name":"桜丘小学校","Jusho":"福岡県北九州市小倉北区赤坂2-21-1","kouzui":"○","gake":"○","takashio":"○","jishin":"○","tsunami":"○","kaji":"○","naisui":"○","kazan":"×"}}
,{"type":"Feature","geometry":{"type":"Point","coordinates":[130.913,33.891]},"properties":{"Name":"手向山公園","Jusho":"福岡県北九州市小倉北区赤坂4-8","kouzui":"×","gake":"×","takashio":"○","jishin":"×","tsunami":"○","kaji":"○","naisui":"×","kazan":"×"}}
,{"type":"Feature","geometry":{"type":"Point","coordinates":[130.906,33.893]},"properties":{"Name":"延命寺臨海公園","Jusho":"福岡県北九州市小倉北区赤坂海岸1","kouzui":"○","gake":"○","takashio":"×","jishin":"○","tsunami":"○","kaji":"○","naisui":"○","kazan":"×"}}
,{"type":"Feature","geometry":{"type":"Point","coordinates":[130.854,33.867]},"properties":{"Name":"泉ヶ丘東公園","Jusho":"福岡県北九州市小倉北区泉台1-22","kouzui":"○","gake":"○","takashio":"○","jishin":"○","tsunami":"○","kaji":"○","naisui":"○","kazan":"×"}}
,{"type":"Feature","geometry":{"type":"Point","coordinates":[130.851,33.87]},"properties":{"Name":"泉台小学校","Jusho":"福岡県北九州市小倉北区泉台1-3-1","kouzui":"○","gake":"○","takashio":"○","jishin":"○","tsunami":"○","kaji":"○","naisui":"○","kazan":"×"}}
,{"type":"Feature","geometry":{"type":"Point","coordinates":[130.885,33.891]},"properties":{"Name":"あさの汐風公園","Jusho":"福岡県北九州市小倉北区浅野3-3","kouzui":"×","gake":"×","takashio":"×","jishin":"○","tsunami":"○","kaji":"○","naisui":"×","kazan":"×"}}
,{"type":"Feature","geometry":{"type":"Point","coordinates":[130.885,33.892]},"properties":{"Name":"浅野臨海部防災１～４号緑地","Jusho":"福岡県北九州市小倉北区浅野3-7","kouzui":"×","gake":"×","takashio":"×","jishin":"○","tsunami":"×","kaji":"○","naisui":"×","kazan":"×"}}
,{"type":"Feature","geometry":{"type":"Point","coordinates":[130.897,33.865]},"properties":{"Name":"足原小学校","Jusho":"福岡県北九州市小倉北区足原2-8-1","kouzui":"○","gake":"○","takashio":"○","jishin":"○","tsunami":"○","kaji":"○","naisui":"○","kazan":"×"}}
,{"type":"Feature","geometry":{"type":"Point","coordinates":[130.897,33.865]},"properties":{"Name":"足原市民センター","Jusho":"福岡県北九州市小倉北区足原2-8-3","kouzui":"○","gake":"○","takashio":"○","jishin":"○","tsunami":"○","kaji":"○","naisui":"○","kazan":"×"}}
,{"type":"Feature","geometry":{"type":"Point","coordinates":[130.905,33.869]},"properties":{"Name":"足立公園","Jusho":"福岡県北九州市小倉北区大字足原","kouzui":"×","gake":"×","takashio":"○","jishin":"×","tsunami":"○","kaji":"○","naisui":"×","kazan":"×"}}
,{"type":"Feature","geometry":{"type":"Point","coordinates":[130.818,33.993]},"properties":{"Name":"藍島小学校","Jusho":"福岡県北九州市小倉北区大字藍島246-3","kouzui":"○","gake":"○","takashio":"○","jishin":"○","tsunami":"×","kaji":"○","naisui":"○","kazan":"×"}}
,{"type":"Feature","geometry":{"type":"Point","coordinates":[130.871,33.875]},"properties":{"Name":"大手町公園","Jusho":"福岡県北九州市小倉北区大手町15","kouzui":"×","gake":"×","takashio":"×","jishin":"○","tsunami":"○","kaji":"○","naisui":"×","kazan":"×"}}
,{"type":"Feature","geometry":{"type":"Point","coordinates":[130.896,33.873]},"properties":{"Name":"寿山公民館","Jusho":"福岡県北九州市小倉北区大畠1-4-17","kouzui":"○","gake":"○","takashio":"○","jishin":"○","tsunami":"○","kaji":"○","naisui":"○","kazan":"×"}}
,{"type":"Feature","geometry":{"type":"Point","coordinates":[130.9,33.871]},"properties":{"Name":"寿山小学校","Jusho":"福岡県北九州市小倉北区大畠3-10-1","kouzui":"○","gake":"○","takashio":"○","jishin":"○","tsunami":"○","kaji":"○","naisui":"○","kazan":"×"}}
,{"type":"Feature","geometry":{"type":"Point","coordinates":[130.9,33.871]},"properties":{"Name":"寿山市民センター","Jusho":"福岡県北九州市小倉北区大畠3-10-2","kouzui":"○","gake":"○","takashio":"○","jishin":"○","tsunami":"○","kaji":"○","naisui":"○","kazan":"×"}}
,{"type":"Feature","geometry":{"type":"Point","coordinates":[130.871,33.885]},"properties":{"Name":"思永中学校","Jusho":"福岡県北九州市小倉北区大門1-5-1","kouzui":"○","gake":"○","takashio":"○","jishin":"○","tsunami":"○","kaji":"○","naisui":"○","kazan":"×"}}
,{"type":"Feature","geometry":{"type":"Point","coordinates":[130.871,33.886]},"properties":{"Name":"西小倉市民センター","Jusho":"福岡県北九州市小倉北区大門1-5-2","kouzui":"○","gake":"○","takashio":"○","jishin":"○","tsunami":"○","kaji":"○","naisui":"○","kazan":"×"}}
,{"type":"Feature","geometry":{"type":"Point","coordinates":[130.871,33.884]},"properties":{"Name":"生涯学習総合センター","Jusho":"福岡県北九州市小倉北区大門1-6-43","kouzui":"○","gake":"○","takashio":"○","jishin":"○","tsunami":"○","kaji":"○","naisui":"○","kazan":"×"}}
,{"type":"Feature","geometry":{"type":"Point","coordinates":[130.853,33.894]},"properties":{"Name":"北小倉市民センター","Jusho":"福岡県北九州市小倉北区中井1-10-1","kouzui":"○","gake":"○","takashio":"○","jishin":"○","tsunami":"○","kaji":"○","naisui":"○","kazan":"×"}}
,{"type":"Feature","geometry":{"type":"Point","coordinates":[130.85,33.891]},"properties":{"Name":"中井小学校","Jusho":"福岡県北九州市小倉北区中井2-12-1","kouzui":"○","gake":"○","takashio":"○","jishin":"○","tsunami":"○","kaji":"○","naisui":"○","kazan":"×"}}
,{"type":"Feature","geometry":{"type":"Point","coordinates":[130.849,33.89]},"properties":{"Name":"中井婦人公民館","Jusho":"福岡県北九州市小倉北区中井2-18-3","kouzui":"○","gake":"○","takashio":"○","jishin":"×","tsunami":"×","kaji":"○","naisui":"○","kazan":"×"}}
,{"type":"Feature","geometry":{"type":"Point","coordinates":[130.852,33.896]},"properties":{"Name":"志明館小学校","Jusho":"福岡県北九州市小倉北区中井口4-1","kouzui":"○","gake":"○","takashio":"×","jishin":"○","tsunami":"○","kaji":"○","naisui":"○","kazan":"×"}}
,{"type":"Feature","geometry":{"type":"Point","coordinates":[130.852,33.897]},"properties":{"Name":"真颯館高等学校","Jusho":"福岡県北九州市小倉北区中井口5-1","kouzui":"○","gake":"○","takashio":"○","jishin":"○","tsunami":"○","kaji":"○","naisui":"○","kazan":"×"}}
,{"type":"Feature","geometry":{"type":"Point","coordinates":[130.867,33.894]},"properties":{"Name":"東港公園","Jusho":"福岡県北九州市小倉北区東港1-6","kouzui":"×","gake":"×","takashio":"×","jishin":"○","tsunami":"○","kaji":"○","naisui":"×","kazan":"×"}}
,{"type":"Feature","geometry":{"type":"Point","coordinates":[130.876,33.866]},"properties":{"Name":"貴船地域交流センター","Jusho":"福岡県北九州市小倉北区東篠崎1-20-8","kouzui":"○","gake":"○","takashio":"○","jishin":"○","tsunami":"○","kaji":"○","naisui":"○","kazan":"×"}}
,{"type":"Feature","geometry":{"type":"Point","coordinates":[130.869,33.853]},"properties":{"Name":"南丘小学校","Jusho":"福岡県北九州市小倉北区南丘1-1-1","kouzui":"○","gake":"○","takashio":"○","jishin":"○","tsunami":"○","kaji":"○","naisui":"○","kazan":"×"}}
,{"type":"Feature","geometry":{"type":"Point","coordinates":[130.859,33.891]},"properties":{"Name":"日明市民センター","Jusho":"福岡県北九州市小倉北区日明4-3-7","kouzui":"○","gake":"○","takashio":"○","jishin":"○","tsunami":"○","kaji":"○","naisui":"○","kazan":"×"}}
,{"type":"Feature","geometry":{"type":"Point","coordinates":[130.858,33.892]},"properties":{"Name":"日明小学校","Jusho":"福岡県北九州市小倉北区日明4-4-1","kouzui":"○","gake":"○","takashio":"○","jishin":"○","tsunami":"○","kaji":"○","naisui":"○","kazan":"×"}}
,{"type":"Feature","geometry":{"type":"Point","coordinates":[130.878,33.88]},"properties":{"Name":"総合保健福祉センター","Jusho":"福岡県北九州市小倉北区馬借1-7-1","kouzui":"○","gake":"○","takashio":"○","jishin":"○","tsunami":"×","kaji":"○","naisui":"○","kazan":"×"}}
,{"type":"Feature","geometry":{"type":"Point","coordinates":[130.886,33.876]},"properties":{"Name":"足立中学校","Jusho":"福岡県北九州市小倉北区萩崎町3-1","kouzui":"○","gake":"○","takashio":"○","jishin":"○","tsunami":"○","kaji":"○","naisui":"○","kazan":"×"}}
,{"type":"Feature","geometry":{"type":"Point","coordinates":[130.876,33.87]},"properties":{"Name":"白銀中学校","Jusho":"福岡県北九州市小倉北区白銀1-13-1","kouzui":"○","gake":"○","takashio":"○","jishin":"○","tsunami":"○","kaji":"○","naisui":"○","kazan":"×"}}
,{"type":"Feature","geometry":{"type":"Point","coordinates":[130.877,33.871]},"properties":{"Name":"貴船市民センター","Jusho":"福岡県北九州市小倉北区白銀1-5-8","kouzui":"○","gake":"○","takashio":"○","jishin":"○","tsunami":"○","kaji":"○","naisui":"○","kazan":"×"}}
,{"type":"Feature","geometry":{"type":"Point","coordinates":[130.875,33.868]},"properties":{"Name":"貴船小学校","Jusho":"福岡県北九州市小倉北区白銀2-8-1","kouzui":"○","gake":"○","takashio":"○","jishin":"○","tsunami":"○","kaji":"○","naisui":"○","kazan":"×"}}
,{"type":"Feature","geometry":{"type":"Point","coordinates":[130.856,33.883]},"properties":{"Name":"小倉工業高等学校","Jusho":"福岡県北九州市小倉北区白萩町6-1","kouzui":"○","gake":"○","takashio":"○","jishin":"○","tsunami":"○","kaji":"○","naisui":"○","kazan":"×"}}
,{"type":"Feature","geometry":{"type":"Point","coordinates":[130.854,33.885]},"properties":{"Name":"板櫃中学校","Jusho":"福岡県北九州市小倉北区白萩町8-1","kouzui":"○","gake":"○","takashio":"○","jishin":"○","tsunami":"○","kaji":"○","naisui":"○","kazan":"×"}}
,{"type":"Feature","geometry":{"type":"Point","coordinates":[130.863,33.871]},"properties":{"Name":"清水市民センター","Jusho":"福岡県北九州市小倉北区弁天町6-5","kouzui":"○","gake":"○","takashio":"○","jishin":"○","tsunami":"○","kaji":"○","naisui":"○","kazan":"×"}}
,{"type":"Feature","geometry":{"type":"Point","coordinates":[130.897,33.855]},"properties":{"Name":"霧丘小学校","Jusho":"福岡県北九州市小倉北区霧ケ丘1-12-1","kouzui":"×","gake":"×","takashio":"○","jishin":"×","tsunami":"○","kaji":"○","naisui":"×","kazan":"×"}}
,{"type":"Feature","geometry":{"type":"Point","coordinates":[130.866,33.872]},"properties":{"Name":"木町公民館","Jusho":"福岡県北九州市小倉北区木町3-1-2","kouzui":"○","gake":"○","takashio":"○","jishin":"○","tsunami":"○","kaji":"○","naisui":"○","kazan":"×"}}
,{"type":"Feature","geometry":{"type":"Point","coordinates":[130.715,33.854]},"properties":{"Name":"さつき台中央公園","Jusho":"福岡県北九州市八幡西区さつき台1-24","kouzui":"○","gake":"○","takashio":"○","jishin":"○","tsunami":"○","kaji":"○","naisui":"○","kazan":"×"}}
,{"type":"Feature","geometry":{"type":"Point","coordinates":[130.712,33.851]},"properties":{"Name":"折尾南１号公園","Jusho":"福岡県北九州市八幡西区さつき台2-20","kouzui":"○","gake":"○","takashio":"○","jishin":"○","tsunami":"○","kaji":"○","naisui":"○","kazan":"×"}}
,{"type":"Feature","geometry":{"type":"Point","coordinates":[130.713,33.879]},"properties":{"Name":"産業医科大学","Jusho":"福岡県北九州市八幡西区医生ケ丘1-1","kouzui":"○","gake":"○","takashio":"○","jishin":"○","tsunami":"○","kaji":"○","naisui":"○","kazan":"×"}}
,{"type":"Feature","geometry":{"type":"Point","coordinates":[130.751,33.846]},"properties":{"Name":"引野小学校","Jusho":"福岡県北九州市八幡西区引野3-15-1","kouzui":"○","gake":"○","takashio":"○","jishin":"○","tsunami":"○","kaji":"○","naisui":"○","kazan":"×"}}
,{"type":"Feature","geometry":{"type":"Point","coordinates":[130.732,33.842]},"properties":{"Name":"永犬丸中学校","Jusho":"福岡県北九州市八幡西区永犬丸4-5-1","kouzui":"○","gake":"○","takashio":"×","jishin":"○","tsunami":"○","kaji":"○","naisui":"○","kazan":"×"}}
,{"type":"Feature","geometry":{"type":"Point","coordinates":[130.73,33.834]},"properties":{"Name":"永犬丸西市民センター","Jusho":"福岡県北九州市八幡西区永犬丸西町4-21-13","kouzui":"○","gake":"○","takashio":"○","jishin":"○","tsunami":"○","kaji":"○","naisui":"○","kazan":"×"}}
,{"type":"Feature","geometry":{"type":"Point","coordinates":[130.727,33.836]},"properties":{"Name":"永犬丸西小学校","Jusho":"福岡県北九州市八幡西区永犬丸西町4-4-1","kouzui":"×","gake":"×","takashio":"○","jishin":"×","tsunami":"○","kaji":"○","naisui":"×","kazan":"×"}}
,{"type":"Feature","geometry":{"type":"Point","coordinates":[130.742,33.837]},"properties":{"Name":"永犬丸東区公民館","Jusho":"福岡県北九州市八幡西区永犬丸東町2-7-2","kouzui":"○","gake":"○","takashio":"○","jishin":"×","tsunami":"×","kaji":"○","naisui":"○","kazan":"×"}}
,{"type":"Feature","geometry":{"type":"Point","coordinates":[130.73,33.834]},"properties":{"Name":"永犬丸南町公民館","Jusho":"福岡県北九州市八幡西区永犬丸南町2-2-33","kouzui":"○","gake":"○","takashio":"○","jishin":"×","tsunami":"×","kaji":"○","naisui":"○","kazan":"×"}}
,{"type":"Feature","geometry":{"type":"Point","coordinates":[130.767,33.86]},"properties":{"Name":"岡田公園","Jusho":"福岡県北九州市八幡西区岡田町4","kouzui":"○","gake":"○","takashio":"○","jishin":"○","tsunami":"○","kaji":"○","naisui":"○","kazan":"×"}}
,{"type":"Feature","geometry":{"type":"Point","coordinates":[130.746,33.83]},"properties":{"Name":"沖田区会公民館","Jusho":"福岡県北九州市八幡西区沖田3-5-3","kouzui":"○","gake":"○","takashio":"○","jishin":"×","tsunami":"×","kaji":"○","naisui":"○","kazan":"×"}}
,{"type":"Feature","geometry":{"type":"Point","coordinates":[130.741,33.832]},"properties":{"Name":"沖田中学校","Jusho":"福岡県北九州市八幡西区沖田4-18-1","kouzui":"○","gake":"○","takashio":"○","jishin":"○","tsunami":"○","kaji":"○","naisui":"○","kazan":"×"}}
,{"type":"Feature","geometry":{"type":"Point","coordinates":[130.775,33.873]},"properties":{"Name":"城山緑地","Jusho":"福岡県北九州市八幡西区屋敷1-9","kouzui":"×","gake":"×","takashio":"×","jishin":"×","tsunami":"○","kaji":"○","naisui":"×","kazan":"×"}}
,{"type":"Feature","geometry":{"type":"Point","coordinates":[130.742,33.83]},"properties":{"Name":"中尾小学校","Jusho":"福岡県北九州市八幡西区下上津役1-6-1","kouzui":"○","gake":"○","takashio":"○","jishin":"○","tsunami":"○","kaji":"○","naisui":"○","kazan":"×"}}
,{"type":"Feature","geometry":{"type":"Point","coordinates":[130.733,33.807]},"properties":{"Name":"吉祥寺公園","Jusho":"福岡県北九州市八幡西区吉祥寺町13","kouzui":"×","gake":"×","takashio":"○","jishin":"×","tsunami":"○","kaji":"○","naisui":"×","kazan":"×"}}
,{"type":"Feature","geometry":{"type":"Point","coordinates":[130.74,33.786]},"properties":{"Name":"金剛中央公園","Jusho":"福岡県北九州市八幡西区金剛3-1","kouzui":"○","gake":"○","takashio":"○","jishin":"○","tsunami":"○","kaji":"○","naisui":"○","kazan":"×"}}
,{"type":"Feature","geometry":{"type":"Point","coordinates":[130.743,33.786]},"properties":{"Name":"大正区公民館","Jusho":"福岡県北九州市八幡西区金剛3-12-1","kouzui":"○","gake":"○","takashio":"○","jishin":"×","tsunami":"×","kaji":"○","naisui":"○","kazan":"×"}}
,{"type":"Feature","geometry":{"type":"Point","coordinates":[130.744,33.861]},"properties":{"Name":"穴生小学校","Jusho":"福岡県北九州市八幡西区穴生1-13-1","kouzui":"○","gake":"○","takashio":"○","jishin":"○","tsunami":"○","kaji":"○","naisui":"○","kazan":"×"}}
,{"type":"Feature","geometry":{"type":"Point","coordinates":[130.743,33.861]},"properties":{"Name":"福岡職業能力開発促進センター（ポリテクセンター福岡）","Jusho":"福岡県北九州市八幡西区穴生3-5-1","kouzui":"○","gake":"○","takashio":"×","jishin":"○","tsunami":"○","kaji":"○","naisui":"○","kazan":"×"}}
,{"type":"Feature","geometry":{"type":"Point","coordinates":[130.785,33.855]},"properties":{"Name":"八幡中央高等学校","Jusho":"福岡県北九州市八幡西区元城町1-1","kouzui":"○","gake":"○","takashio":"○","jishin":"○","tsunami":"○","kaji":"○","naisui":"○","kazan":"×"}}
,{"type":"Feature","geometry":{"type":"Point","coordinates":[130.733,33.889]},"properties":{"Name":"本城公園","Jusho":"福岡県北九州市八幡西区御開4-16","kouzui":"○","gake":"○","takashio":"×","jishin":"○","tsunami":"○","kaji":"○","naisui":"○","kazan":"×"}}
,{"type":"Feature","geometry":{"type":"Point","coordinates":[130.731,33.89]},"properties":{"Name":"本城陸上競技場施設管理事務所","Jusho":"福岡県北九州市八幡西区御開4-16-1","kouzui":"○","gake":"○","takashio":"○","jishin":"○","tsunami":"○","kaji":"○","naisui":"○","kazan":"×"}}
,{"type":"Feature","geometry":{"type":"Point","coordinates":[130.72,33.885]},"properties":{"Name":"光貞池公園","Jusho":"福岡県北九州市八幡西区光貞台1-13","kouzui":"×","gake":"×","takashio":"○","jishin":"×","tsunami":"○","kaji":"○","naisui":"×","kazan":"×"}}
,{"type":"Feature","geometry":{"type":"Point","coordinates":[130.714,33.883]},"properties":{"Name":"光貞小学校","Jusho":"福岡県北九州市八幡西区光貞台1-4-1","kouzui":"○","gake":"○","takashio":"○","jishin":"○","tsunami":"○","kaji":"○","naisui":"○","kazan":"×"}}
,{"type":"Feature","geometry":{"type":"Point","coordinates":[130.722,33.868]},"properties":{"Name":"折尾東小学校","Jusho":"福岡県北九州市八幡西区光明1-2-1","kouzui":"○","gake":"○","takashio":"×","jishin":"○","tsunami":"○","kaji":"○","naisui":"○","kazan":"×"}}
,{"type":"Feature","geometry":{"type":"Point","coordinates":[130.72,33.866]},"properties":{"Name":"折尾東市民センター","Jusho":"福岡県北九州市八幡西区光明2-2-50","kouzui":"○","gake":"○","takashio":"○","jishin":"○","tsunami":"○","kaji":"○","naisui":"○","kazan":"×"}}
,{"type":"Feature","geometry":{"type":"Point","coordinates":[130.763,33.859]},"properties":{"Name":"旧街道緑地","Jusho":"福岡県北九州市八幡西区幸神1","kouzui":"○","gake":"○","takashio":"○","jishin":"○","tsunami":"○","kaji":"○","naisui":"○","kazan":"×"}}
,{"type":"Feature","geometry":{"type":"Point","coordinates":[130.764,33.852]},"properties":{"Name":"黒畑市民センター","Jusho":"福岡県北九州市八幡西区幸神3-4-3","kouzui":"○","gake":"○","takashio":"○","jishin":"○","tsunami":"○","kaji":"○","naisui":"○","kazan":"×"}}
,{"type":"Feature","geometry":{"type":"Point","coordinates":[130.761,33.854]},"properties":{"Name":"田良原公園","Jusho":"福岡県北九州市八幡西区幸神4-3","kouzui":"○","gake":"○","takashio":"○","jishin":"○","tsunami":"○","kaji":"○","naisui":"○","kazan":"×"}}
,{"type":"Feature","geometry":{"type":"Point","coordinates":[130.76,33.855]},"properties":{"Name":"熊西市民センター","Jusho":"福岡県北九州市八幡西区幸神4-3-1","kouzui":"○","gake":"○","takashio":"○","jishin":"○","tsunami":"○","kaji":"○","naisui":"○","kazan":"×"}}
,{"type":"Feature","geometry":{"type":"Point","coordinates":[130.73,33.804]},"properties":{"Name":"香月西区公民館","Jusho":"福岡県北九州市八幡西区香月西2-17-53","kouzui":"×","gake":"×","takashio":"○","jishin":"×","tsunami":"×","kaji":"○","naisui":"×","kazan":"×"}}
,{"type":"Feature","geometry":{"type":"Point","coordinates":[130.725,33.801]},"properties":{"Name":"香月中央公園","Jusho":"福岡県北九州市八幡西区香月西4-1","kouzui":"○","gake":"○","takashio":"○","jishin":"○","tsunami":"○","kaji":"○","naisui":"○","kazan":"×"}}
,{"type":"Feature","geometry":{"type":"Point","coordinates":[130.733,33.803]},"properties":{"Name":"香月市民センター","Jusho":"福岡県北九州市八幡西区香月中央1-7-1","kouzui":"○","gake":"○","takashio":"○","jishin":"○","tsunami":"○","kaji":"×","naisui":"○","kazan":"×"}}
,{"type":"Feature","geometry":{"type":"Point","coordinates":[130.735,33.803]},"properties":{"Name":"香月公園","Jusho":"福岡県北九州市八幡西区香月中央1-9","kouzui":"×","gake":"×","takashio":"○","jishin":"○","tsunami":"○","kaji":"○","naisui":"×","kazan":"×"}}
,{"type":"Feature","geometry":{"type":"Point","coordinates":[130.734,33.803]},"properties":{"Name":"香月スポーツセンター","Jusho":"福岡県北九州市八幡西区香月中央1-9-1","kouzui":"○","gake":"○","takashio":"○","jishin":"○","tsunami":"○","kaji":"○","naisui":"○","kazan":"×"}}
,{"type":"Feature","geometry":{"type":"Point","coordinates":[130.729,33.801]},"properties":{"Name":"香月小学校","Jusho":"福岡県北九州市八幡西区香月中央3-3-1","kouzui":"×","gake":"×","takashio":"○","jishin":"○","tsunami":"○","kaji":"○","naisui":"×","kazan":"×"}}
,{"type":"Feature","geometry":{"type":"Point","coordinates":[130.735,33.797]},"properties":{"Name":"香月中学校","Jusho":"福岡県北九州市八幡西区香月中央5-6-1","kouzui":"○","gake":"○","takashio":"○","jishin":"○","tsunami":"○","kaji":"○","naisui":"○","kazan":"×"}}
,{"type":"Feature","geometry":{"type":"Point","coordinates":[130.715,33.803]},"properties":{"Name":"香月西部市民サブセンター","Jusho":"福岡県北九州市八幡西区高江3-6-20","kouzui":"○","gake":"○","takashio":"○","jishin":"○","tsunami":"○","kaji":"○","naisui":"○","kazan":"×"}}
,{"type":"Feature","geometry":{"type":"Point","coordinates":[130.739,33.835]},"properties":{"Name":"中尾市民センター","Jusho":"福岡県北九州市八幡西区三ケ森4-6-1","kouzui":"○","gake":"○","takashio":"○","jishin":"○","tsunami":"○","kaji":"○","naisui":"○","kazan":"×"}}
,{"type":"Feature","geometry":{"type":"Point","coordinates":[130.689,33.88]},"properties":{"Name":"三ツ頭公民館","Jusho":"福岡県北九州市八幡西区三ツ頭1-10-1","kouzui":"×","gake":"×","takashio":"○","jishin":"×","tsunami":"×","kaji":"○","naisui":"×","kazan":"×"}}
,{"type":"Feature","geometry":{"type":"Point","coordinates":[130.756,33.862]},"properties":{"Name":"熊西中学校","Jusho":"福岡県北九州市八幡西区山寺町4-1","kouzui":"○","gake":"○","takashio":"○","jishin":"○","tsunami":"○","kaji":"○","naisui":"○","kazan":"×"}}
,{"type":"Feature","geometry":{"type":"Point","coordinates":[130.759,33.862]},"properties":{"Name":"筒井市民センター","Jusho":"福岡県北九州市八幡西区山寺町6-30","kouzui":"○","gake":"○","takashio":"○","jishin":"○","tsunami":"○","kaji":"○","naisui":"○","kazan":"×"}}
,{"type":"Feature","geometry":{"type":"Point","coordinates":[130.709,33.869]},"properties":{"Name":"九州女子大学・九州女子短期大学","Jusho":"福岡県北九州市八幡西区自由ケ丘1-1","kouzui":"○","gake":"○","takashio":"○","jishin":"○","tsunami":"○","kaji":"○","naisui":"○","kazan":"×"}}
,{"type":"Feature","geometry":{"type":"Point","coordinates":[130.706,33.867]},"properties":{"Name":"自由ヶ丘高等学校","Jusho":"福岡県北九州市八幡西区自由ケ丘1-3","kouzui":"○","gake":"○","takashio":"○","jishin":"○","tsunami":"○","kaji":"○","naisui":"○","kazan":"×"}}
,{"type":"Feature","geometry":{"type":"Point","coordinates":[130.704,33.872]},"properties":{"Name":"九州共立大学","Jusho":"福岡県北九州市八幡西区自由ケ丘1-8","kouzui":"○","gake":"○","takashio":"○","jishin":"○","tsunami":"○","kaji":"○","naisui":"○","kazan":"×"}}
,{"type":"Feature","geometry":{"type":"Point","coordinates":[130.743,33.847]},"properties":{"Name":"竹末市民センター","Jusho":"福岡県北九州市八幡西区若葉1-7-1","kouzui":"○","gake":"○","takashio":"○","jishin":"○","tsunami":"○","kaji":"○","naisui":"○","kazan":"×"}}
,{"type":"Feature","geometry":{"type":"Point","coordinates":[130.735,33.83]},"properties":{"Name":"春日台公民館","Jusho":"福岡県北九州市八幡西区春日台2-14-20","kouzui":"○","gake":"○","takashio":"○","jishin":"×","tsunami":"×","kaji":"○","naisui":"○","kazan":"×"}}
,{"type":"Feature","geometry":{"type":"Point","coordinates":[130.754,33.819]},"properties":{"Name":"小嶺児童館","Jusho":"福岡県北九州市八幡西区小嶺2-3-22","kouzui":"○","gake":"○","takashio":"○","jishin":"×","tsunami":"×","kaji":"○","naisui":"○","kazan":"×"}}
,{"type":"Feature","geometry":{"type":"Point","coordinates":[130.755,33.809]},"properties":{"Name":"小嶺団地集会所","Jusho":"福岡県北九州市八幡西区小嶺台3-9-3-208","kouzui":"○","gake":"○","takashio":"○","jishin":"○","tsunami":"○","kaji":"○","naisui":"○","kazan":"×"}}
,{"type":"Feature","geometry":{"type":"Point","coordinates":[130.715,33.848]},"properties":{"Name":"松寿山公園","Jusho":"福岡県北九州市八幡西区松寿山3-6","kouzui":"○","gake":"○","takashio":"○","jishin":"○","tsunami":"○","kaji":"○","naisui":"○","kazan":"×"}}
,{"type":"Feature","geometry":{"type":"Point","coordinates":[130.76,33.836]},"properties":{"Name":"上津役小学校","Jusho":"福岡県北九州市八幡西区上の原1-4-1","kouzui":"○","gake":"○","takashio":"○","jishin":"○","tsunami":"○","kaji":"○","naisui":"○","kazan":"×"}}
,{"type":"Feature","geometry":{"type":"Point","coordinates":[130.758,33.836]},"properties":{"Name":"上津役市民センター","Jusho":"福岡県北九州市八幡西区上の原2-2-16","kouzui":"○","gake":"○","takashio":"○","jishin":"○","tsunami":"○","kaji":"○","naisui":"○","kazan":"×"}}
,{"type":"Feature","geometry":{"type":"Point","coordinates":[130.757,33.836]},"properties":{"Name":"上の原公民館","Jusho":"福岡県北九州市八幡西区上の原2-4-52","kouzui":"○","gake":"○","takashio":"○","jishin":"×","tsunami":"×","kaji":"○","naisui":"○","kazan":"×"}}
,{"type":"Feature","geometry":{"type":"Point","coordinates":[130.755,33.829]},"properties":{"Name":"上津役中学校","Jusho":"福岡県北九州市八幡西区上上津役3-12-1","kouzui":"○","gake":"○","takashio":"○","jishin":"○","tsunami":"○","kaji":"○","naisui":"○","kazan":"×"}}
,{"type":"Feature","geometry":{"type":"Point","coordinates":[130.753,33.826]},"properties":{"Name":"大原市民センター","Jusho":"福岡県北九州市八幡西区上上津役3-21-21","kouzui":"○","gake":"○","takashio":"○","jishin":"○","tsunami":"○","kaji":"○","naisui":"○","kazan":"×"}}
,{"type":"Feature","geometry":{"type":"Point","coordinates":[130.759,33.827]},"properties":{"Name":"上津役公園","Jusho":"福岡県北九州市八幡西区上上津役4-18","kouzui":"×","gake":"×","takashio":"○","jishin":"○","tsunami":"○","kaji":"○","naisui":"×","kazan":"×"}}
,{"type":"Feature","geometry":{"type":"Point","coordinates":[130.742,33.868]},"properties":{"Name":"陣原市民センター","Jusho":"福岡県北九州市八幡西区陣原3-23-9-101","kouzui":"×","gake":"×","takashio":"×","jishin":"○","tsunami":"○","kaji":"○","naisui":"×","kazan":"×"}}
,{"type":"Feature","geometry":{"type":"Point","coordinates":[130.734,33.866]},"properties":{"Name":"陣原公民館","Jusho":"福岡県北九州市八幡西区陣原5-10-64","kouzui":"○","gake":"○","takashio":"○","jishin":"×","tsunami":"×","kaji":"○","naisui":"○","kazan":"×"}}
,{"type":"Feature","geometry":{"type":"Point","coordinates":[130.779,33.864]},"properties":{"Name":"北九州市立高等学校　第二グラウンド","Jusho":"福岡県北九州市八幡西区陣山3-7","kouzui":"○","gake":"○","takashio":"○","jishin":"○","tsunami":"○","kaji":"○","naisui":"○","kazan":"×"}}
,{"type":"Feature","geometry":{"type":"Point","coordinates":[130.779,33.864]},"properties":{"Name":"北九州市立高等学校　第２グラウンド","Jusho":"福岡県北九州市八幡西区陣山3-7","kouzui":"○","gake":"○","takashio":"○","jishin":"○","tsunami":"○","kaji":"○","naisui":"○","kazan":"×"}}
,{"type":"Feature","geometry":{"type":"Point","coordinates":[130.754,33.774]},"properties":{"Name":"星ヶ丘小学校","Jusho":"福岡県北九州市八幡西区星ケ丘2-7-1","kouzui":"○","gake":"○","takashio":"○","jishin":"○","tsunami":"○","kaji":"○","naisui":"○","kazan":"×"}}
,{"type":"Feature","geometry":{"type":"Point","coordinates":[130.749,33.773]},"properties":{"Name":"星ヶ丘中央公園","Jusho":"福岡県北九州市八幡西区星ケ丘6-2","kouzui":"○","gake":"○","takashio":"○","jishin":"○","tsunami":"○","kaji":"○","naisui":"○","kazan":"×"}}
,{"type":"Feature","geometry":{"type":"Point","coordinates":[130.727,33.872]},"properties":{"Name":"星和町公民館","Jusho":"福岡県北九州市八幡西区星和町28-19","kouzui":"○","gake":"○","takashio":"○","jishin":"×","tsunami":"×","kaji":"○","naisui":"○","kazan":"×"}}
,{"type":"Feature","geometry":{"type":"Point","coordinates":[130.727,33.872]},"properties":{"Name":"赤坂市民センター","Jusho":"福岡県北九州市八幡西区星和町28-26","kouzui":"○","gake":"○","takashio":"○","jishin":"○","tsunami":"○","kaji":"○","naisui":"○","kazan":"×"}}
,{"type":"Feature","geometry":{"type":"Point","coordinates":[130.76,33.858]},"properties":{"Name":"熊西小学校","Jusho":"福岡県北九州市八幡西区西曲里町7-1","kouzui":"○","gake":"○","takashio":"○","jishin":"○","tsunami":"○","kaji":"○","naisui":"○","kazan":"×"}}
,{"type":"Feature","geometry":{"type":"Point","coordinates":[130.708,33.858]},"properties":{"Name":"折尾西小学校","Jusho":"福岡県北九州市八幡西区西折尾町15-1","kouzui":"○","gake":"○","takashio":"○","jishin":"○","tsunami":"○","kaji":"○","naisui":"○","kazan":"×"}}
,{"type":"Feature","geometry":{"type":"Point","coordinates":[130.768,33.854]},"properties":{"Name":"黒崎中学校","Jusho":"福岡県北九州市八幡西区西鳴水1-1-1","kouzui":"○","gake":"○","takashio":"○","jishin":"○","tsunami":"○","kaji":"○","naisui":"○","kazan":"×"}}
,{"type":"Feature","geometry":{"type":"Point","coordinates":[130.768,33.853]},"properties":{"Name":"黒畑小学校","Jusho":"福岡県北九州市八幡西区西鳴水2-4-1","kouzui":"○","gake":"○","takashio":"○","jishin":"○","tsunami":"○","kaji":"○","naisui":"○","kazan":"×"}}
,{"type":"Feature","geometry":{"type":"Point","coordinates":[130.752,33.862]},"properties":{"Name":"青山小学校","Jusho":"福岡県北九州市八幡西区青山1-7-1","kouzui":"○","gake":"○","takashio":"○","jishin":"○","tsunami":"○","kaji":"○","naisui":"○","kazan":"×"}}
,{"type":"Feature","geometry":{"type":"Point","coordinates":[130.755,33.86]},"properties":{"Name":"皇后崎公園","Jusho":"福岡県北九州市八幡西区青山2-1","kouzui":"○","gake":"○","takashio":"○","jishin":"○","tsunami":"○","kaji":"○","naisui":"○","kazan":"×"}}
,{"type":"Feature","geometry":{"type":"Point","coordinates":[130.754,33.862]},"properties":{"Name":"青山市民センター","Jusho":"福岡県北九州市八幡西区青山2-1-3","kouzui":"○","gake":"○","takashio":"○","jishin":"○","tsunami":"○","kaji":"○","naisui":"○","kazan":"×"}}
,{"type":"Feature","geometry":{"type":"Point","coordinates":[130.753,33.858]},"properties":{"Name":"星琳高等学校","Jusho":"福岡県北九州市八幡西区青山3-3-1","kouzui":"○","gake":"○","takashio":"○","jishin":"○","tsunami":"○","kaji":"○","naisui":"○","kazan":"×"}}
,{"type":"Feature","geometry":{"type":"Point","coordinates":[130.749,33.805]},"properties":{"Name":"石坂公民館","Jusho":"福岡県北九州市八幡西区石坂2-8-4","kouzui":"×","gake":"×","takashio":"○","jishin":"×","tsunami":"×","kaji":"○","naisui":"×","kazan":"×"}}
,{"type":"Feature","geometry":{"type":"Point","coordinates":[130.711,33.867]},"properties":{"Name":"折尾西公民館","Jusho":"福岡県北九州市八幡西区折尾3-3-33","kouzui":"○","gake":"○","takashio":"○","jishin":"×","tsunami":"×","kaji":"○","naisui":"○","kazan":"×"}}
,{"type":"Feature","geometry":{"type":"Point","coordinates":[130.713,33.868]},"properties":{"Name":"折尾西公園","Jusho":"福岡県北九州市八幡西区折尾3-5","kouzui":"○","gake":"○","takashio":"○","jishin":"○","tsunami":"○","kaji":"○","naisui":"○","kazan":"×"}}
,{"type":"Feature","geometry":{"type":"Point","coordinates":[130.712,33.867]},"properties":{"Name":"九州朝鮮初中高級学校","Jusho":"福岡県北九州市八幡西区折尾3-5-1","kouzui":"○","gake":"○","takashio":"○","jishin":"○","tsunami":"○","kaji":"○","naisui":"○","kazan":"×"}}
,{"type":"Feature","geometry":{"type":"Point","coordinates":[130.744,33.807]},"properties":{"Name":"千代中学校","Jusho":"福岡県北九州市八幡西区千代2-23-1","kouzui":"○","gake":"○","takashio":"○","jishin":"○","tsunami":"○","kaji":"○","naisui":"○","kazan":"×"}}
,{"type":"Feature","geometry":{"type":"Point","coordinates":[130.744,33.805]},"properties":{"Name":"千代市民センター","Jusho":"福岡県北九州市八幡西区千代2-27-1","kouzui":"○","gake":"○","takashio":"○","jishin":"○","tsunami":"○","kaji":"○","naisui":"○","kazan":"×"}}
,{"type":"Feature","geometry":{"type":"Point","coordinates":[130.746,33.808]},"properties":{"Name":"千代東公園","Jusho":"福岡県北九州市八幡西区千代3-7","kouzui":"○","gake":"○","takashio":"○","jishin":"○","tsunami":"○","kaji":"○","naisui":"○","kazan":"×"}}
,{"type":"Feature","geometry":{"type":"Point","coordinates":[130.738,33.808]},"properties":{"Name":"千代小学校","Jusho":"福岡県北九州市八幡西区千代5-17-1","kouzui":"○","gake":"○","takashio":"○","jishin":"○","tsunami":"○","kaji":"○","naisui":"○","kazan":"×"}}
,{"type":"Feature","geometry":{"type":"Point","coordinates":[130.719,33.875]},"properties":{"Name":"本城西公園","Jusho":"福岡県北九州市八幡西区千代ケ崎1-12","kouzui":"○","gake":"○","takashio":"○","jishin":"○","tsunami":"○","kaji":"○","naisui":"○","kazan":"×"}}
,{"type":"Feature","geometry":{"type":"Point","coordinates":[130.718,33.875]},"properties":{"Name":"医生丘市民センター","Jusho":"福岡県北九州市八幡西区千代ケ崎1-12-15","kouzui":"○","gake":"○","takashio":"○","jishin":"○","tsunami":"○","kaji":"○","naisui":"○","kazan":"×"}}
,{"type":"Feature","geometry":{"type":"Point","coordinates":[130.718,33.878]},"properties":{"Name":"医生丘小学校","Jusho":"福岡県北九州市八幡西区千代ケ崎2-10-1","kouzui":"○","gake":"○","takashio":"○","jishin":"○","tsunami":"○","kaji":"○","naisui":"○","kazan":"×"}}
,{"type":"Feature","geometry":{"type":"Point","coordinates":[130.702,33.881]},"properties":{"Name":"浅川本村公民館","Jusho":"福岡県北九州市八幡西区浅川2-14-28","kouzui":"×","gake":"×","takashio":"×","jishin":"×","tsunami":"×","kaji":"○","naisui":"×","kazan":"×"}}
,{"type":"Feature","geometry":{"type":"Point","coordinates":[130.707,33.882]},"properties":{"Name":"光貞市民センター","Jusho":"福岡県北九州市八幡西区浅川学園台2-23-2","kouzui":"○","gake":"○","takashio":"○","jishin":"○","tsunami":"○","kaji":"○","naisui":"○","kazan":"×"}}
,{"type":"Feature","geometry":{"type":"Point","coordinates":[130.707,33.883]},"properties":{"Name":"浅川中学校","Jusho":"福岡県北九州市八幡西区浅川学園台2-4-1","kouzui":"○","gake":"○","takashio":"○","jishin":"○","tsunami":"○","kaji":"○","naisui":"○","kazan":"×"}}
,{"type":"Feature","geometry":{"type":"Point","coordinates":[130.71,33.884]},"properties":{"Name":"浅川学園台中央公園","Jusho":"福岡県北九州市八幡西区浅川学園台3-1","kouzui":"○","gake":"○","takashio":"○","jishin":"○","tsunami":"○","kaji":"○","naisui":"○","kazan":"×"}}
,{"type":"Feature","geometry":{"type":"Point","coordinates":[130.697,33.882]},"properties":{"Name":"浅川小学校","Jusho":"福岡県北九州市八幡西区浅川町10-1","kouzui":"×","gake":"×","takashio":"×","jishin":"○","tsunami":"○","kaji":"○","naisui":"×","kazan":"×"}}
,{"type":"Feature","geometry":{"type":"Point","coordinates":[130.699,33.881]},"properties":{"Name":"浅川市民センター","Jusho":"福岡県北九州市八幡西区浅川日の峯2-1-10","kouzui":"×","gake":"×","takashio":"×","jishin":"○","tsunami":"○","kaji":"○","naisui":"×","kazan":"×"}}
,{"type":"Feature","geometry":{"type":"Point","coordinates":[130.695,33.878]},"properties":{"Name":"日の峯公園","Jusho":"福岡県北九州市八幡西区浅川日の峯4-20","kouzui":"×","gake":"×","takashio":"○","jishin":"×","tsunami":"○","kaji":"○","naisui":"×","kazan":"×"}}
,{"type":"Feature","geometry":{"type":"Point","coordinates":[130.718,33.86]},"properties":{"Name":"則松小学校","Jusho":"福岡県北九州市八幡西区則松2-1-1","kouzui":"○","gake":"○","takashio":"○","jishin":"○","tsunami":"○","kaji":"○","naisui":"○","kazan":"×"}}
,{"type":"Feature","geometry":{"type":"Point","coordinates":[130.716,33.858]},"properties":{"Name":"則松市民センター","Jusho":"福岡県北九州市八幡西区則松2-9-1","kouzui":"○","gake":"○","takashio":"○","jishin":"○","tsunami":"○","kaji":"○","naisui":"○","kazan":"×"}}
,{"type":"Feature","geometry":{"type":"Point","coordinates":[130.718,33.856]},"properties":{"Name":"則松中学校","Jusho":"福岡県北九州市八幡西区則松3-5-1","kouzui":"○","gake":"○","takashio":"○","jishin":"○","tsunami":"○","kaji":"○","naisui":"○","kazan":"×"}}
,{"type":"Feature","geometry":{"type":"Point","coordinates":[130.723,33.855]},