var gunma={"type":"FeatureCollection","name":"gunma","features":[
{"type":"Feature","geometry":{"type":"Point","coordinates":[139.132,36.416]},"properties":{"Name":"荻窪南公園","Jusho":"群馬県前橋市荻窪町953","kouzui":"×","gake":"×","takashio":"×","jishin":"○","tsunami":"×","kaji":"○","naisui":"×","kazan":"×"}}
,{"type":"Feature","geometry":{"type":"Point","coordinates":[139.096,36.397]},"properties":{"Name":"県立前橋高等学校","Jusho":"群馬県前橋市下沖町321-1","kouzui":"×","gake":"×","takashio":"×","jishin":"○","tsunami":"×","kaji":"○","naisui":"×","kazan":"×"}}
,{"type":"Feature","geometry":{"type":"Point","coordinates":[139.076,36.416]},"properties":{"Name":"細井小学校","Jusho":"群馬県前橋市下細井町67-1","kouzui":"×","gake":"×","takashio":"×","jishin":"○","tsunami":"×","kaji":"○","naisui":"×","kazan":"×"}}
,{"type":"Feature","geometry":{"type":"Point","coordinates":[139.067,36.411]},"properties":{"Name":"下小出中央公園","Jusho":"群馬県前橋市下小出町2-15","kouzui":"×","gake":"×","takashio":"×","jishin":"○","tsunami":"×","kaji":"○","naisui":"×","kazan":"×"}}
,{"type":"Feature","geometry":{"type":"Point","coordinates":[139.07,36.353]},"properties":{"Name":"大利根緑地多目的広場","Jusho":"群馬県前橋市下新田町460-1","kouzui":"×","gake":"×","takashio":"×","jishin":"○","tsunami":"×","kaji":"○","naisui":"×","kazan":"×"}}
,{"type":"Feature","geometry":{"type":"Point","coordinates":[139.165,36.339]},"properties":{"Name":"下増田運動場","Jusho":"群馬県前橋市下増田町277","kouzui":"×","gake":"×","takashio":"×","jishin":"○","tsunami":"×","kaji":"○","naisui":"×","kazan":"×"}}
,{"type":"Feature","geometry":{"type":"Point","coordinates":[139.164,36.424]},"properties":{"Name":"大胡体育館","Jusho":"群馬県前橋市河原浜町478","kouzui":"×","gake":"×","takashio":"×","jishin":"○","tsunami":"×","kaji":"○","naisui":"×","kazan":"×"}}
,{"type":"Feature","geometry":{"type":"Point","coordinates":[139.164,36.423]},"properties":{"Name":"大胡公民館","Jusho":"群馬県前橋市河原浜町480","kouzui":"○","gake":"○","takashio":"×","jishin":"○","tsunami":"×","kaji":"○","naisui":"×","kazan":"×"}}
,{"type":"Feature","geometry":{"type":"Point","coordinates":[139.166,36.419]},"properties":{"Name":"大胡東小学校","Jusho":"群馬県前橋市河原浜町870-1","kouzui":"○","gake":"×","takashio":"×","jishin":"○","tsunami":"×","kaji":"○","naisui":"×","kazan":"×"}}
,{"type":"Feature","geometry":{"type":"Point","coordinates":[139.042,36.433]},"properties":{"Name":"関根公園","Jusho":"群馬県前橋市関根町3-7","kouzui":"×","gake":"×","takashio":"×","jishin":"○","tsunami":"×","kaji":"○","naisui":"×","kazan":"×"}}
,{"type":"Feature","geometry":{"type":"Point","coordinates":[139.056,36.408]},"properties":{"Name":"岩神小学校","Jusho":"群馬県前橋市岩神町4-4-1","kouzui":"×","gake":"×","takashio":"×","jishin":"○","tsunami":"×","kaji":"○","naisui":"×","kazan":"×"}}
,{"type":"Feature","geometry":{"type":"Point","coordinates":[139.083,36.351]},"properties":{"Name":"県立前橋南高等学校","Jusho":"群馬県前橋市亀里町1","kouzui":"×","gake":"×","takashio":"×","jishin":"○","tsunami":"×","kaji":"○","naisui":"×","kazan":"×"}}
,{"type":"Feature","geometry":{"type":"Point","coordinates":[139.087,36.334]},"properties":{"Name":"県立群馬産業技術センター","Jusho":"群馬県前橋市亀里町884-1","kouzui":"×","gake":"×","takashio":"×","jishin":"○","tsunami":"×","kaji":"○","naisui":"×","kazan":"×"}}
,{"type":"Feature","geometry":{"type":"Point","coordinates":[139.104,36.34]},"properties":{"Name":"第七中学校","Jusho":"群馬県前橋市宮地町260-1","kouzui":"○","gake":"×","takashio":"×","jishin":"○","tsunami":"×","kaji":"○","naisui":"×","kazan":"×"}}
,{"type":"Feature","geometry":{"type":"Point","coordinates":[139.136,36.347]},"properties":{"Name":"駒形小学校","Jusho":"群馬県前橋市駒形町1172","kouzui":"×","gake":"×","takashio":"×","jishin":"○","tsunami":"×","kaji":"○","naisui":"×","kazan":"×"}}
,{"type":"Feature","geometry":{"type":"Point","coordinates":[139.04,36.387]},"properties":{"Name":"明神東公園","Jusho":"群馬県前橋市元総社町1-26","kouzui":"×","gake":"×","takashio":"×","jishin":"○","tsunami":"×","kaji":"○","naisui":"×","kazan":"×"}}
,{"type":"Feature","geometry":{"type":"Point","coordinates":[139.039,36.386]},"properties":{"Name":"元総社小学校","Jusho":"群馬県前橋市元総社町1-33-11","kouzui":"×","gake":"×","takashio":"×","jishin":"○","tsunami":"×","kaji":"○","naisui":"×","kazan":"×"}}
,{"type":"Feature","geometry":{"type":"Point","coordinates":[139.037,36.392]},"properties":{"Name":"元総社公民館","Jusho":"群馬県前橋市元総社町3-1-1","kouzui":"○","gake":"×","takashio":"×","jishin":"○","tsunami":"×","kaji":"○","naisui":"×","kazan":"×"}}
,{"type":"Feature","geometry":{"type":"Point","coordinates":[139.039,36.38]},"properties":{"Name":"利根川ダム統合管理事務所","Jusho":"群馬県前橋市元総社町593-1","kouzui":"×","gake":"×","takashio":"×","jishin":"○","tsunami":"×","kaji":"○","naisui":"×","kazan":"×"}}
,{"type":"Feature","geometry":{"type":"Point","coordinates":[139.043,36.383]},"properties":{"Name":"元総社南小学校","Jusho":"群馬県前橋市元総社町80-2","kouzui":"○","gake":"×","takashio":"×","jishin":"○","tsunami":"×","kaji":"○","naisui":"×","kazan":"×"}}
,{"type":"Feature","geometry":{"type":"Point","coordinates":[139.101,36.363]},"properties":{"Name":"上川淵公民館","Jusho":"群馬県前橋市後閑町35","kouzui":"○","gake":"×","takashio":"×","jishin":"○","tsunami":"×","kaji":"○","naisui":"×","kazan":"×"}}
,{"type":"Feature","geometry":{"type":"Point","coordinates":[139.099,36.363]},"properties":{"Name":"明桜中学校","Jusho":"群馬県前橋市後閑町50-4","kouzui":"○","gake":"×","takashio":"×","jishin":"○","tsunami":"×","kaji":"○","naisui":"×","kazan":"×"}}
,{"type":"Feature","geometry":{"type":"Point","coordinates":[139.056,36.372]},"properties":{"Name":"東中学校","Jusho":"群馬県前橋市光が丘町3","kouzui":"○","gake":"×","takashio":"×","jishin":"○","tsunami":"×","kaji":"○","naisui":"×","kazan":"×"}}
,{"type":"Feature","geometry":{"type":"Point","coordinates":[139.11,36.36]},"properties":{"Name":"ひろせ老人福祉センター","Jusho":"群馬県前橋市広瀬町2-16","kouzui":"×","gake":"×","takashio":"×","jishin":"○","tsunami":"×","kaji":"○","naisui":"×","kazan":"×"}}
,{"type":"Feature","geometry":{"type":"Point","coordinates":[139.114,36.357]},"properties":{"Name":"広瀬小学校","Jusho":"群馬県前橋市広瀬町3-19","kouzui":"○","gake":"×","takashio":"×","jishin":"○","tsunami":"×","kaji":"○","naisui":"×","kazan":"×"}}
,{"type":"Feature","geometry":{"type":"Point","coordinates":[139.137,36.377]},"properties":{"Name":"県立前橋東高等学校","Jusho":"群馬県前橋市江木町800","kouzui":"×","gake":"×","takashio":"×","jishin":"○","tsunami":"×","kaji":"○","naisui":"×","kazan":"×"}}
,{"type":"Feature","geometry":{"type":"Point","coordinates":[139.065,36.384]},"properties":{"Name":"県立前橋女子高等学校","Jusho":"群馬県前橋市紅雲町2-19-1","kouzui":"×","gake":"×","takashio":"×","jishin":"○","tsunami":"×","kaji":"○","naisui":"×","kazan":"×"}}
,{"type":"Feature","geometry":{"type":"Point","coordinates":[139.161,36.377]},"properties":{"Name":"前橋総合運動公園","Jusho":"群馬県前橋市荒口町437-2","kouzui":"×","gake":"×","takashio":"×","jishin":"○","tsunami":"×","kaji":"○","naisui":"×","kazan":"×"}}
,{"type":"Feature","geometry":{"type":"Point","coordinates":[139.165,36.388]},"properties":{"Name":"荒子小学校","Jusho":"群馬県前橋市荒子町1240","kouzui":"×","gake":"×","takashio":"×","jishin":"○","tsunami":"×","kaji":"○","naisui":"×","kazan":"×"}}
,{"type":"Feature","geometry":{"type":"Point","coordinates":[139.165,36.381]},"properties":{"Name":"荒砥中学校","Jusho":"群馬県前橋市荒子町1338","kouzui":"○","gake":"×","takashio":"×","jishin":"○","tsunami":"×","kaji":"○","naisui":"×","kazan":"×"}}
,{"type":"Feature","geometry":{"type":"Point","coordinates":[139.055,36.43]},"properties":{"Name":"桃川小学校","Jusho":"群馬県前橋市荒牧町1-46-11","kouzui":"○","gake":"×","takashio":"×","jishin":"○","tsunami":"×","kaji":"○","naisui":"×","kazan":"×"}}
,{"type":"Feature","geometry":{"type":"Point","coordinates":[139.051,36.422]},"properties":{"Name":"しきしま老人福祉センター","Jusho":"群馬県前橋市荒牧町1154-1","kouzui":"×","gake":"×","takashio":"×","jishin":"○","tsunami":"×","kaji":"○","naisui":"×","kazan":"×"}}
,{"type":"Feature","geometry":{"type":"Point","coordinates":[139.044,36.431]},"properties":{"Name":"群馬大学","Jusho":"群馬県前橋市荒牧町4-2","kouzui":"×","gake":"×","takashio":"×","jishin":"○","tsunami":"×","kaji":"○","naisui":"×","kazan":"×"}}
,{"type":"Feature","geometry":{"type":"Point","coordinates":[139.048,36.428]},"properties":{"Name":"荒牧小学校","Jusho":"群馬県前橋市荒牧町4-9-2","kouzui":"×","gake":"×","takashio":"×","jishin":"○","tsunami":"×","kaji":"○","naisui":"×","kazan":"×"}}
,{"type":"Feature","geometry":{"type":"Point","coordinates":[139.06,36.424]},"properties":{"Name":"南橘中学校","Jusho":"群馬県前橋市荒牧町975","kouzui":"×","gake":"×","takashio":"×","jishin":"○","tsunami":"×","kaji":"○","naisui":"×","kazan":"×"}}
,{"type":"Feature","geometry":{"type":"Point","coordinates":[139.029,36.409]},"properties":{"Name":"総社町５号公園","Jusho":"群馬県前橋市高井町1-5","kouzui":"×","gake":"×","takashio":"×","jishin":"○","tsunami":"×","kaji":"○","naisui":"×","kazan":"×"}}
,{"type":"Feature","geometry":{"type":"Point","coordinates":[139.079,36.387]},"properties":{"Name":"中川小学校","Jusho":"群馬県前橋市三河町2-1-3","kouzui":"○","gake":"×","takashio":"×","jishin":"○","tsunami":"×","kaji":"○","naisui":"×","kazan":"×"}}
,{"type":"Feature","geometry":{"type":"Point","coordinates":[139.08,36.406]},"properties":{"Name":"山形公園","Jusho":"群馬県前橋市三俣町3-1","kouzui":"×","gake":"×","takashio":"×","jishin":"○","tsunami":"×","kaji":"○","naisui":"×","kazan":"×"}}
,{"type":"Feature","geometry":{"type":"Point","coordinates":[139.125,36.349]},"properties":{"Name":"山王小学校","Jusho":"群馬県前橋市山王町160-1","kouzui":"○","gake":"×","takashio":"×","jishin":"○","tsunami":"×","kaji":"○","naisui":"×","kazan":"×"}}
,{"type":"Feature","geometry":{"type":"Point","coordinates":[139.071,36.406]},"properties":{"Name":"若宮小学校","Jusho":"群馬県前橋市若宮町4-12-24","kouzui":"○","gake":"×","takashio":"×","jishin":"○","tsunami":"×","kaji":"○","naisui":"×","kazan":"×"}}
,{"type":"Feature","geometry":{"type":"Point","coordinates":[139.105,36.423]},"properties":{"Name":"芳賀小学校","Jusho":"群馬県前橋市勝沢町719","kouzui":"×","gake":"×","takashio":"×","jishin":"○","tsunami":"×","kaji":"○","naisui":"×","kazan":"×"}}
,{"type":"Feature","geometry":{"type":"Point","coordinates":[139.129,36.363]},"properties":{"Name":"木瀬中学校","Jusho":"群馬県前橋市小屋原町1811-1","kouzui":"○","gake":"×","takashio":"×","jishin":"○","tsunami":"×","kaji":"○","naisui":"×","kazan":"×"}}
,{"type":"Feature","geometry":{"type":"Point","coordinates":[139.111,36.421]},"properties":{"Name":"芳賀公園","Jusho":"群馬県前橋市小坂子町920","kouzui":"×","gake":"×","takashio":"×","jishin":"○","tsunami":"×","kaji":"○","naisui":"×","kazan":"×"}}
,{"type":"Feature","geometry":{"type":"Point","coordinates":[139.066,36.403]},"properties":{"Name":"敷島小学校","Jusho":"群馬県前橋市昭和町1-22-8","kouzui":"×","gake":"×","takashio":"×","jishin":"○","tsunami":"×","kaji":"○","naisui":"×","kazan":"×"}}
,{"type":"Feature","geometry":{"type":"Point","coordinates":[139.091,36.404]},"properties":{"Name":"桃木小学校","Jusho":"群馬県前橋市上沖町732-1","kouzui":"×","gake":"×","takashio":"×","jishin":"○","tsunami":"×","kaji":"○","naisui":"×","kazan":"×"}}
,{"type":"Feature","geometry":{"type":"Point","coordinates":[139.081,36.364]},"properties":{"Name":"前橋工科大学","Jusho":"群馬県前橋市上佐鳥町460-1","kouzui":"×","gake":"×","takashio":"×","jishin":"○","tsunami":"×","kaji":"○","naisui":"×","kazan":"×"}}
,{"type":"Feature","geometry":{"type":"Point","coordinates":[139.08,36.363]},"properties":{"Name":"前橋工科大運動場","Jusho":"群馬県前橋市上佐鳥町460-1","kouzui":"×","gake":"×","takashio":"×","jishin":"○","tsunami":"×","kaji":"○","naisui":"×","kazan":"×"}}
,{"type":"Feature","geometry":{"type":"Point","coordinates":[139.08,36.365]},"properties":{"Name":"前橋市民体育館","Jusho":"群馬県前橋市上佐鳥町460-7","kouzui":"×","gake":"×","takashio":"×","jishin":"○","tsunami":"×","kaji":"○","naisui":"×","kazan":"×"}}
,{"type":"Feature","geometry":{"type":"Point","coordinates":[139.082,36.414]},"properties":{"Name":"北部運動場","Jusho":"群馬県前橋市上細井町2127-4","kouzui":"×","gake":"×","takashio":"×","jishin":"○","tsunami":"×","kaji":"○","naisui":"×","kazan":"×"}}
,{"type":"Feature","geometry":{"type":"Point","coordinates":[139.083,36.415]},"properties":{"Name":"鎌倉中学校","Jusho":"群馬県前橋市上細井町2130","kouzui":"○","gake":"×","takashio":"×","jishin":"○","tsunami":"×","kaji":"○","naisui":"×","kazan":"×"}}
,{"type":"Feature","geometry":{"type":"Point","coordinates":[139.085,36.416]},"properties":{"Name":"市立前橋高等学校","Jusho":"群馬県前橋市上細井町2211-3","kouzui":"×","gake":"×","takashio":"×","jishin":"○","tsunami":"×","kaji":"○","naisui":"×","kazan":"×"}}
,{"type":"Feature","geometry":{"type":"Point","coordinates":[139.057,36.414]},"properties":{"Name":"上小出国体公園","Jusho":"群馬県前橋市上小出町2-20","kouzui":"×","gake":"×","takashio":"×","jishin":"○","tsunami":"×","kaji":"○","naisui":"×","kazan":"×"}}
,{"type":"Feature","geometry":{"type":"Point","coordinates":[139.067,36.362]},"properties":{"Name":"新田小学校","Jusho":"群馬県前橋市上新田町1160","kouzui":"×","gake":"×","takashio":"×","jishin":"○","tsunami":"×","kaji":"○","naisui":"×","kazan":"×"}}
,{"type":"Feature","geometry":{"type":"Point","coordinates":[139.104,36.394]},"properties":{"Name":"桂萱公民館","Jusho":"群馬県前橋市上泉町141-3","kouzui":"○","gake":"×","takashio":"×","jishin":"○","tsunami":"×","kaji":"○","naisui":"×","kazan":"×"}}
,{"type":"Feature","geometry":{"type":"Point","coordinates":[139.103,36.396]},"properties":{"Name":"桂萱中学校","Jusho":"群馬県前橋市上泉町175","kouzui":"○","gake":"×","takashio":"×","jishin":"○","tsunami":"×","kaji":"○","naisui":"×","kazan":"×"}}
,{"type":"Feature","geometry":{"type":"Point","coordinates":[139.105,36.397]},"properties":{"Name":"桂萱小学校","Jusho":"群馬県前橋市上泉町178","kouzui":"×","gake":"×","takashio":"×","jishin":"○","tsunami":"×","kaji":"○","naisui":"×","kazan":"×"}}
,{"type":"Feature","geometry":{"type":"Point","coordinates":[139.122,36.369]},"properties":{"Name":"永明小学校","Jusho":"群馬県前橋市上大島町655","kouzui":"×","gake":"×","takashio":"×","jishin":"○","tsunami":"×","kaji":"○","naisui":"×","kazan":"×"}}
,{"type":"Feature","geometry":{"type":"Point","coordinates":[139.123,36.367]},"properties":{"Name":"永明公民館","Jusho":"群馬県前橋市上大島町930","kouzui":"○","gake":"×","takashio":"×","jishin":"○","tsunami":"×","kaji":"○","naisui":"×","kazan":"×"}}
,{"type":"Feature","geometry":{"type":"Point","coordinates":[139.08,36.395]},"properties":{"Name":"城東小学校","Jusho":"群馬県前橋市城東町1-35-7","kouzui":"×","gake":"×","takashio":"×","jishin":"○","tsunami":"×","kaji":"○","naisui":"×","kazan":"×"}}
,{"type":"Feature","geometry":{"type":"Point","coordinates":[139.049,36.38]},"properties":{"Name":"新前橋公園","Jusho":"群馬県前橋市新前橋町20","kouzui":"×","gake":"×","takashio":"×","jishin":"○","tsunami":"×","kaji":"○","naisui":"×","kazan":"×"}}
,{"type":"Feature","geometry":{"type":"Point","coordinates":[139.179,36.402]},"properties":{"Name":"神沢の森公園","Jusho":"群馬県前橋市神沢の森1-13","kouzui":"×","gake":"×","takashio":"×","jishin":"○","tsunami":"×","kaji":"○","naisui":"×","kazan":"×"}}
,{"type":"Feature","geometry":{"type":"Point","coordinates":[139.008,36.419]},"properties":{"Name":"県立前橋西高等学校","Jusho":"群馬県前橋市清野町180","kouzui":"×","gake":"×","takashio":"×","jishin":"○","tsunami":"×","kaji":"○","naisui":"×","kazan":"×"}}
,{"type":"Feature","geometry":{"type":"Point","coordinates":[139.196,36.389]},"properties":{"Name":"大室公園","Jusho":"群馬県前橋市西大室町2545","kouzui":"×","gake":"×","takashio":"×","jishin":"○","tsunami":"×","kaji":"○","naisui":"×","kazan":"×"}}
,{"type":"Feature","geometry":{"type":"Point","coordinates":[139.192,36.384]},"properties":{"Name":"大室小学校","Jusho":"群馬県前橋市西大室町2817","kouzui":"○","gake":"×","takashio":"×","jishin":"○","tsunami":"×","kaji":"○","naisui":"×","kazan":"×"}}
,{"type":"Feature","geometry":{"type":"Point","coordinates":[139.101,36.386]},"properties":{"Name":"桃瀬小学校","Jusho":"群馬県前橋市西片貝町3-343","kouzui":"×","gake":"×","takashio":"×","jishin":"○","tsunami":"×","kaji":"○","naisui":"×","kazan":"×"}}
,{"type":"Feature","geometry":{"type":"Point","coordinates":[139.084,36.39]},"properties":{"Name":"前橋こども公園","Jusho":"群馬県前橋市西片貝町5-8","kouzui":"×","gake":"×","takashio":"×","jishin":"○","tsunami":"×","kaji":"○","naisui":"×","kazan":"×"}}
,{"type":"Feature","geometry":{"type":"Point","coordinates":[139.013,36.418]},"properties":{"Name":"清里公民館","Jusho":"群馬県前橋市青梨子町339","kouzui":"○","gake":"×","takashio":"×","jishin":"○","tsunami":"×","kaji":"○","naisui":"×","kazan":"×"}}
,{"type":"Feature","geometry":{"type":"Point","coordinates":[139.012,36.417]},"properties":{"Name":"清里小学校","Jusho":"群馬県前橋市青梨子町446","kouzui":"×","gake":"×","takashio":"×","jishin":"○","tsunami":"×","kaji":"○","naisui":"×","kazan":"×"}}
,{"type":"Feature","geometry":{"type":"Point","coordinates":[139.016,36.414]},"properties":{"Name":"清里方面運動場","Jusho":"群馬県前橋市青梨子町591","kouzui":"×","gake":"×","takashio":"×","jishin":"○","tsunami":"×","kaji":"○","naisui":"×","kazan":"×"}}
,{"type":"Feature","geometry":{"type":"Point","coordinates":[139.119,36.389]},"properties":{"Name":"県立前橋工業高等学校","Jusho":"群馬県前橋市石関町137-1","kouzui":"×","gake":"×","takashio":"×","jishin":"○","tsunami":"×","kaji":"○","naisui":"×","kazan":"×"}}
,{"type":"Feature","geometry":{"type":"Point","coordinates":[139.048,36.361]},"properties":{"Name":"箱田中学校","Jusho":"群馬県前橋市前箱田町396-1","kouzui":"○","gake":"×","takashio":"×","jishin":"○","tsunami":"×","kaji":"○","naisui":"×","kazan":"×"}}
,{"type":"Feature","geometry":{"type":"Point","coordinates":[139.045,36.4]},"properties":{"Name":"総社２号団地公園","Jusho":"群馬県前橋市総社町1-6","kouzui":"×","gake":"×","takashio":"×","jishin":"○","tsunami":"×","kaji":"○","naisui":"×","kazan":"×"}}
,{"type":"Feature","geometry":{"type":"Point","coordinates":[139.044,36.398]},"properties":{"Name":"王山運動場","Jusho":"群馬県前橋市総社町1-8-2","kouzui":"×","gake":"×","takashio":"×","jishin":"○","tsunami":"×","kaji":"○","naisui":"×","kazan":"×"}}
,{"type":"Feature","geometry":{"type":"Point","coordinates":[139.042,36.414]},"properties":{"Name":"勝山小学校","Jusho":"群馬県前橋市総社町植野123","kouzui":"×","gake":"×","takashio":"×","jishin":"○","tsunami":"×","kaji":"○","naisui":"×","kazan":"×"}}
,{"type":"Feature","geometry":{"type":"Point","coordinates":[139.04,36.408]},"properties":{"Name":"総社公民館","Jusho":"群馬県前橋市総社町総社1583-2","kouzui":"○","gake":"○","takashio":"×","jishin":"○","tsunami":"×","kaji":"○","naisui":"×","kazan":"×"}}
,{"type":"Feature","geometry":{"type":"Point","coordinates":[139.038,36.409]},"properties":{"Name":"総社小学校","Jusho":"群馬県前橋市総社町総社1625","kouzui":"×","gake":"×","takashio":"×","jishin":"○","tsunami":"×","kaji":"○","naisui":"×","kazan":"×"}}
,{"type":"Feature","geometry":{"type":"Point","coordinates":[139.035,36.41]},"properties":{"Name":"第六中学校","Jusho":"群馬県前橋市総社町総社1762-1","kouzui":"○","gake":"×","takashio":"×","jishin":"○","tsunami":"×","kaji":"○","naisui":"×","kazan":"×"}}
,{"type":"Feature","geometry":{"type":"Point","coordinates":[139.035,36.395]},"properties":{"Name":"元総社中学校","Jusho":"群馬県前橋市総社町総社3060","kouzui":"○","gake":"×","takashio":"×","jishin":"○","tsunami":"×","kaji":"○","naisui":"×","kazan":"×"}}
,{"type":"Feature","geometry":{"type":"Point","coordinates":[139.034,36.395]},"properties":{"Name":"元総社北小学校","Jusho":"群馬県前橋市総社町総社3149","kouzui":"×","gake":"×","takashio":"×","jishin":"○","tsunami":"×","kaji":"○","naisui":"×","kazan":"×"}}
,{"type":"Feature","geometry":{"type":"Point","coordinates":[139.064,36.389]},"properties":{"Name":"桃井小学校","Jusho":"群馬県前橋市大手町2-16-4","kouzui":"○","gake":"×","takashio":"×","jishin":"○","tsunami":"×","kaji":"○","naisui":"×","kazan":"×"}}
,{"type":"Feature","geometry":{"type":"Point","coordinates":[139.062,36.394]},"properties":{"Name":"前橋公園","Jusho":"群馬県前橋市大手町3-13","kouzui":"×","gake":"×","takashio":"×","jishin":"○","tsunami":"×","kaji":"○","naisui":"×","kazan":"×"}}
,{"type":"Feature","geometry":{"type":"Point","coordinates":[139.046,36.395]},"properties":{"Name":"大渡公園","Jusho":"群馬県前橋市大渡町2-1","kouzui":"×","gake":"×","takashio":"×","jishin":"○","tsunami":"×","kaji":"○","naisui":"×","kazan":"×"}}
,{"type":"Feature","geometry":{"type":"Point","coordinates":[139.049,36.389]},"properties":{"Name":"おおとも老人福祉センター","Jusho":"群馬県前橋市大友町1-12-10","kouzui":"×","gake":"×","takashio":"×","jishin":"○","tsunami":"×","kaji":"○","naisui":"×","kazan":"×"}}
,{"type":"Feature","geometry":{"type":"Point","coordinates":[139.047,36.388]},"properties":{"Name":"さくら公園","Jusho":"群馬県前橋市大友町1-8","kouzui":"×","gake":"×","takashio":"×","jishin":"○","tsunami":"×","kaji":"○","naisui":"×","kazan":"×"}}
,{"type":"Feature","geometry":{"type":"Point","coordinates":[139.06,36.363]},"properties":{"Name":"大利根中央公園","Jusho":"群馬県前橋市大利根町1-29","kouzui":"×","gake":"×","takashio":"×","jishin":"○","tsunami":"×","kaji":"○","naisui":"×","kazan":"×"}}
,{"type":"Feature","geometry":{"type":"Point","coordinates":[139.059,36.36]},"properties":{"Name":"大利根小学校","Jusho":"群馬県前橋市大利根町2-12-1","kouzui":"×","gake":"×","takashio":"×","jishin":"○","tsunami":"×","kaji":"○","naisui":"×","kazan":"×"}}
,{"type":"Feature","geometry":{"type":"Point","coordinates":[139.138,36.436]},"properties":{"Name":"滝窪小学校","Jusho":"群馬県前橋市滝窪町185-1","kouzui":"×","gake":"×","takashio":"×","jishin":"○","tsunami":"×","kaji":"○","naisui":"×","kazan":"×"}}
,{"type":"Feature","geometry":{"type":"Point","coordinates":[139.096,36.367]},"properties":{"Name":"わかば小学校","Jusho":"群馬県前橋市朝倉町165-1","kouzui":"○","gake":"×","takashio":"×","jishin":"○","tsunami":"×","kaji":"○","naisui":"×","kazan":"×"}}
,{"type":"Feature","geometry":{"type":"Point","coordinates":[139.102,36.367]},"properties":{"Name":"八幡山公園","Jusho":"群馬県前橋市朝倉町4-9","kouzui":"×","gake":"×","takashio":"×","jishin":"○","tsunami":"×","kaji":"○","naisui":"×","kazan":"×"}}
,{"type":"Feature","geometry":{"type":"Point","coordinates":[139.09,36.358]},"properties":{"Name":"上川淵小学校","Jusho":"群馬県前橋市朝倉町466","kouzui":"×","gake":"×","takashio":"×","jishin":"○","tsunami":"×","kaji":"○","naisui":"×","kazan":"×"}}
,{"type":"Feature","geometry":{"type":"Point","coordinates":[139.09,36.387]},"properties":{"Name":"保健センター","Jusho":"群馬県前橋市朝日町3-36-17","kouzui":"×","gake":"×","takashio":"×","jishin":"○","tsunami":"×","kaji":"○","naisui":"×","kazan":"×"}}
,{"type":"Feature","geometry":{"type":"Point","coordinates":[139.024,36.377]},"properties":{"Name":"群馬工業高等専門学校","Jusho":"群馬県前橋市鳥羽町580","kouzui":"×","gake":"×","takashio":"×","jishin":"○","tsunami":"×","kaji":"○","naisui":"×","kazan":"×"}}
,{"type":"Feature","geometry":{"type":"Point","coordinates":[139.11,36.425]},"properties":{"Name":"芳賀中学校","Jusho":"群馬県前橋市鳥取町796","kouzui":"×","gake":"×","takashio":"×","jishin":"○","tsunami":"×","kaji":"○","naisui":"×","kazan":"×"}}
,{"type":"Feature","geometry":{"type":"Point","coordinates":[139.108,36.427]},"properties":{"Name":"芳賀公民館","Jusho":"群馬県前橋市鳥取町817","kouzui":"○","gake":"○","takashio":"×","jishin":"○","tsunami":"×","kaji":"○","naisui":"×","kazan":"×"}}
,{"type":"Feature","geometry":{"type":"Point","coordinates":[139.095,36.336]},"properties":{"Name":"下川淵小学校","Jusho":"群馬県前橋市鶴光路町38-1","kouzui":"×","gake":"×","takashio":"×","jishin":"○","tsunami":"×","kaji":"○","naisui":"×","kazan":"×"}}
,{"type":"Feature","geometry":{"type":"Point","coordinates":[139.093,36.334]},"properties":{"Name":"下川淵公民館","Jusho":"群馬県前橋市鶴光路町701","kouzui":"×","gake":"×","takashio":"×","jishin":"○","tsunami":"×","kaji":"○","naisui":"×","kazan":"×"}}
,{"type":"Feature","geometry":{"type":"Point","coordinates":[139.13,36.398]},"properties":{"Name":"桂萱東小学校","Jusho":"群馬県前橋市堤町471","kouzui":"○","gake":"×","takashio":"×","jishin":"○","tsunami":"×","kaji":"○","naisui":"×","kazan":"×"}}
,{"type":"Feature","geometry":{"type":"Point","coordinates":[139.108,36.371]},"properties":{"Name":"大島公園","Jusho":"群馬県前橋市天川大島町1198","kouzui":"×","gake":"×","takashio":"×","jishin":"○","tsunami":"×","kaji":"○","naisui":"×","kazan":"×"}}
,{"type":"Feature","geometry":{"type":"Point","coordinates":[139.054,36.438]},"properties":{"Name":"道の駅「まえばし赤城」","Jusho":"群馬県前橋市田口町36","kouzui":"×","gake":"×","takashio":"×","jishin":"○","tsunami":"×","kaji":"○","naisui":"×","kazan":"×"}}
,{"type":"Feature","geometry":{"type":"Point","coordinates":[139.134,36.466]},"properties":{"Name":"滝窪小学校金丸分校","Jusho":"群馬県前橋市東金丸町136-1","kouzui":"×","gake":"×","takashio":"×","jishin":"○","tsunami":"×","kaji":"○","naisui":"×","kazan":"×"}}
,{"type":"Feature","geometry":{"type":"Point","coordinates":[139.117,36.387]},"properties":{"Name":"市立前橋特別支援学校","Jusho":"群馬県前橋市東上野町459-1","kouzui":"×","gake":"×","takashio":"×","jishin":"○","tsunami":"×","kaji":"○","naisui":"×","kazan":"×"}}
,{"type":"Feature","geometry":{"type":"Point","coordinates":[139.186,36.37]},"properties":{"Name":"城南工業団地公園","Jusho":"群馬県前橋市東大室町164-1","kouzui":"×","gake":"×","takashio":"×","jishin":"○","tsunami":"×","kaji":"○","naisui":"×","kazan":"×"}}
,{"type":"Feature","geometry":{"type":"Point","coordinates":[139.114,36.386]},"properties":{"Name":"桃ノ木川グランド","Jusho":"群馬県前橋市東片貝町417-4","kouzui":"×","gake":"×","takashio":"×","jishin":"○","tsunami":"×","kaji":"○","naisui":"×","kazan":"×"}}
,{"type":"Feature","geometry":{"type":"Point","coordinates":[139.065,36.381]},"properties":{"Name":"第一中学校","Jusho":"群馬県前橋市南町1-20-5","kouzui":"○","gake":"×","takashio":"×","jishin":"○","tsunami":"×","kaji":"○","naisui":"×","kazan":"×"}}
,{"type":"Feature","geometry":{"type":"Point","coordinates":[139.071,36.38]},"properties":{"Name":"市民文化会館","Jusho":"群馬県前橋市南町3-62-1","kouzui":"×","gake":"×","takashio":"×","jishin":"○","tsunami":"×","kaji":"○","naisui":"×","kazan":"×"}}
,{"type":"Feature","geometry":{"type":"Point","coordinates":[139.075,36.377]},"properties":{"Name":"県立前橋商業高等学校","Jusho":"群馬県前橋市南町4-35-1","kouzui":"×","gake":"×","takashio":"×","jishin":"○","tsunami":"×","kaji":"○","naisui":"×","kazan":"×"}}
,{"type":"Feature","geometry":{"type":"Point","coordinates":[139.158,36.369]},"properties":{"Name":"城南公民館","Jusho":"群馬県前橋市二之宮町1320","kouzui":"○","gake":"×","takashio":"×","jishin":"○","tsunami":"×","kaji":"○","naisui":"×","kazan":"×"}}
,{"type":"Feature","geometry":{"type":"Point","coordinates":[139.168,36.363]},"properties":{"Name":"二之宮小学校","Jusho":"群馬県前橋市二之宮町1841","kouzui":"○","gake":"×","takashio":"×","jishin":"○","tsunami":"×","kaji":"○","naisui":"×","kazan":"×"}}
,{"type":"Feature","geometry":{"type":"Point","coordinates":[139.076,36.398]},"properties":{"Name":"日吉町１号公園","Jusho":"群馬県前橋市日吉町1-10-2","kouzui":"×","gake":"×","takashio":"×","jishin":"○","tsunami":"×","kaji":"○","naisui":"×","kazan":"×"}}
,{"type":"Feature","geometry":{"type":"Point","coordinates":[139.08,36.398]},"properties":{"Name":"前橋市総合福祉会館","Jusho":"群馬県前橋市日吉町2-17-10","kouzui":"×","gake":"×","takashio":"×","jishin":"○","tsunami":"×","kaji":"○","naisui":"×","kazan":"×"}}
,{"type":"Feature","geometry":{"type":"Point","coordinates":[139.082,36.395]},"properties":{"Name":"県立勢多農林高等学校","Jusho":"群馬県前橋市日吉町2-25-1","kouzui":"×","gake":"×","takashio":"×","jishin":"○","tsunami":"×","kaji":"○","naisui":"×","kazan":"×"}}
,{"type":"Feature","geometry":{"type":"Point","coordinates":[139.076,36.401]},"properties":{"Name":"みずき中学校","Jusho":"群馬県前橋市日吉町3-9-2","kouzui":"○","gake":"×","takashio":"×","jishin":"○","tsunami":"×","kaji":"○","naisui":"×","kazan":"×"}}
,{"type":"Feature","geometry":{"type":"Point","coordinates":[139.064,36.428]},"properties":{"Name":"南橘公民館","Jusho":"群馬県前橋市日輪寺町158","kouzui":"○","gake":"○","takashio":"×","jishin":"○","tsunami":"×","kaji":"○","naisui":"×","kazan":"×"}}
,{"type":"Feature","geometry":{"type":"Point","coordinates":[139.211,36.433]},"properties":{"Name":"月田小学校","Jusho":"群馬県前橋市粕川町月田273-1","kouzui":"×","gake":"×","takashio":"×","jishin":"○","tsunami":"×","kaji":"○","naisui":"×","kazan":"×"}}
,{"type":"Feature","geometry":{"type":"Point","coordinates":[139.21,36.412]},"properties":{"Name":"粕川小学校","Jusho":"群馬県前橋市粕川町女渕521-2","kouzui":"×","gake":"×","takashio":"×","jishin":"○","tsunami":"×","kaji":"○","naisui":"×","kazan":"×"}}
,{"type":"Feature","geometry":{"type":"Point","coordinates":[139.196,36.417]},"properties":{"Name":"消防団第１８分団４部","Jusho":"群馬県前橋市粕川町新屋350","kouzui":"×","gake":"×","takashio":"×","jishin":"○","tsunami":"×","kaji":"○","naisui":"×","kazan":"×"}}
,{"type":"Feature","geometry":{"type":"Point","coordinates":[139.214,36.412]},"properties":{"Name":"粕川中学校","Jusho":"群馬県前橋市粕川町西田面138","kouzui":"×","gake":"×","takashio":"×","jishin":"○","tsunami":"×","kaji":"○","naisui":"×","kazan":"×"}}
,{"type":"Feature","geometry":{"type":"Point","coordinates":[139.21,36.414]},"properties":{"Name":"粕川支所","Jusho":"群馬県前橋市粕川町西田面216-1","kouzui":"○","gake":"○","takashio":"×","jishin":"○","tsunami":"×","kaji":"○","naisui":"×","kazan":"×"}}
,{"type":"Feature","geometry":{"type":"Point","coordinates":[139.222,36.423]},"properties":{"Name":"膳城跡公園","Jusho":"群馬県前橋市粕川町膳33-3","kouzui":"×","gake":"×","takashio":"×","jishin":"○","tsunami":"×","kaji":"○","naisui":"×","kazan":"×"}}
,{"type":"Feature","geometry":{"type":"Point","coordinates":[139.053,36.366]},"properties":{"Name":"東小学校","Jusho":"群馬県前橋市箱田町1452-1","kouzui":"×","gake":"×","takashio":"×","jishin":"○","tsunami":"×","kaji":"○","naisui":"×","kazan":"×"}}
,{"type":"Feature","geometry":{"type":"Point","coordinates":[139.052,36.373]},"properties":{"Name":"東公民館","Jusho":"群馬県前橋市箱田町543-1","kouzui":"×","gake":"×","takashio":"×","jishin":"○","tsunami":"×","kaji":"○","naisui":"×","kazan":"×"}}
,{"type":"Feature","geometry":{"type":"Point","coordinates":[139.051,36.374]},"properties":{"Name":"東ふれあい公園","Jusho":"群馬県前橋市箱田町545-1","kouzui":"×","gake":"×","takashio":"×","jishin":"○","tsunami":"×","kaji":"○","naisui":"×","kazan":"×"}}
,{"type":"Feature","geometry":{"type":"Point","coordinates":[139.178,36.439]},"properties":{"Name":"宮城小学校","Jusho":"群馬県前橋市鼻毛石町1507-1","kouzui":"×","gake":"×","takashio":"×","jishin":"○","tsunami":"×","kaji":"○","naisui":"×","kazan":"×"}}
,{"type":"Feature","geometry":{"type":"Point","coordinates":[139.176,36.443]},"properties":{"Name":"宮城体育館","Jusho":"群馬県前橋市鼻毛石町1561","kouzui":"×","gake":"×","takashio":"×","jishin":"○","tsunami":"×","kaji":"○","naisui":"×","kazan":"×"}}
,{"type":"Feature","geometry":{"type":"Point","coordinates":[139.178,36.443]},"properties":{"Name":"宮城中学校","Jusho":"群馬県前橋市鼻毛石町1564-1","kouzui":"×","gake":"×","takashio":"×","jishin":"○","tsunami":"×","kaji":"○","naisui":"×","kazan":"×"}}
,{"type":"Feature","geometry":{"type":"Point","coordinates":[139.179,36.441]},"properties":{"Name":"宮城公民館","Jusho":"群馬県前橋市鼻毛石町1711-8","kouzui":"○","gake":"○","takashio":"×","jishin":"○","tsunami":"×","kaji":"○","naisui":"×","kazan":"×"}}
,{"type":"Feature","geometry":{"type":"Point","coordinates":[139.066,36.446]},"properties":{"Name":"原小学校","Jusho":"群馬県前橋市富士見町原之郷1933-1","kouzui":"×","gake":"×","takashio":"×","jishin":"○","tsunami":"×","kaji":"○","naisui":"×","kazan":"×"}}
,{"type":"Feature","geometry":{"type":"Point","coordinates":[139.093,36.44]},"properties":{"Name":"時沢小学校","Jusho":"群馬県前橋市富士見町時沢3164-1","kouzui":"○","gake":"×","takashio":"×","jishin":"○","tsunami":"×","kaji":"○","naisui":"×","kazan":"×"}}
,{"type":"Feature","geometry":{"type":"Point","coordinates":[139.088,36.452]},"properties":{"Name":"富士見地区農村環境改善センター","Jusho":"群馬県前橋市富士見町小暮104-1","kouzui":"×","gake":"×","takashio":"×","jishin":"○","tsunami":"×","kaji":"○","naisui":"×","kazan":"×"}}
,{"type":"Feature","geometry":{"type":"Point","coordinates":[139.109,36.468]},"properties":{"Name":"白川小学校","Jusho":"群馬県前橋市富士見町小暮2425-63","kouzui":"×","gake":"×","takashio":"×","jishin":"○","tsunami":"×","kaji":"○","naisui":"×","kazan":"×"}}
,{"type":"Feature","geometry":{"type":"Point","coordinates":[139.083,36.468]},"properties":{"Name":"石井小学校","Jusho":"群馬県前橋市富士見町石井546-1","kouzui":"×","gake":"×","takashio":"×","jishin":"○","tsunami":"×","kaji":"○","naisui":"×","kazan":"×"}}
,{"type":"Feature","geometry":{"type":"Point","coordinates":[139.178,36.551]},"properties":{"Name":"前橋市赤城少年自然の家","Jusho":"群馬県前橋市富士見町赤城山1-2","kouzui":"×","gake":"○","takashio":"×","jishin":"○","tsunami":"×","kaji":"○","naisui":"×","kazan":"×"}}
,{"type":"Feature","geometry":{"type":"Point","coordinates":[139.145,36.523]},"properties":{"Name":"群馬県立森林公園赤城ふれあいの森","Jusho":"群馬県前橋市富士見町赤城山1-2","kouzui":"×","gake":"○","takashio":"×","jishin":"○","tsunami":"×","kaji":"○","naisui":"×","kazan":"×"}}
,{"type":"Feature","geometry":{"type":"Point","coordinates":[139.126,36.482]},"properties":{"Name":"国立赤城青少年交流の家","Jusho":"群馬県前橋市富士見町赤城山27","kouzui":"×","gake":"×","takashio":"×","jishin":"○","tsunami":"×","kaji":"○","naisui":"×","kazan":"×"}}
,{"type":"Feature","geometry":{"type":"Point","coordinates":[139.079,36.459]},"properties":{"Name":"富士見公民館","Jusho":"群馬県前橋市富士見町田島866-1","kouzui":"○","gake":"○","takashio":"×","jishin":"○","tsunami":"×","kaji":"○","naisui":"×","kazan":"×"}}
,{"type":"Feature","geometry":{"type":"Point","coordinates":[139.082,36.456]},"properties":{"Name":"富士見中学校","Jusho":"群馬県前橋市富士見町田島954-1","kouzui":"×","gake":"×","takashio":"×","jishin":"○","tsunami":"×","kaji":"○","naisui":"×","kazan":"×"}}
,{"type":"Feature","geometry":{"type":"Point","coordinates":[139.051,36.417]},"properties":{"Name":"敷島公園","Jusho":"群馬県前橋市敷島町262","kouzui":"×","gake":"×","takashio":"×","jishin":"○","tsunami":"×","kaji":"○","naisui":"×","kazan":"×"}}
,{"type":"Feature","geometry":{"type":"Point","coordinates":[139.083,36.377]},"properties":{"Name":"県立前橋清陵高等学校","Jusho":"群馬県前橋市文京町2-20-3","kouzui":"×","gake":"×","takashio":"×","jishin":"○","tsunami":"×","kaji":"○","naisui":"×","kazan":"×"}}
,{"type":"Feature","geometry":{"type":"Point","coordinates":[139.085,36.379]},"properties":{"Name":"天川小学校","Jusho":"群馬県前橋市文京町3-18-4","kouzui":"○","gake":"×","takashio":"×","jishin":"○","tsunami":"×","kaji":"○","naisui":"×","kazan":"×"}}
,{"type":"Feature","geometry":{"type":"Point","coordinates":[139.088,36.379]},"properties":{"Name":"第五中学校","Jusho":"群馬県前橋市文京町3-20-5","kouzui":"○","gake":"×","takashio":"×","jishin":"○","tsunami":"×","kaji":"○","naisui":"×","kazan":"×"}}
,{"type":"Feature","geometry":{"type":"Point","coordinates":[139.062,36.4]},"properties":{"Name":"第三中学校","Jusho":"群馬県前橋市平和町2-13-24","kouzui":"○","gake":"×","takashio":"×","jishin":"○","tsunami":"×","kaji":"○","naisui":"×","kazan":"×"}}
,{"type":"Feature","geometry":{"type":"Point","coordinates":[139.156,36.419]},"properties":{"Name":"大胡中学校","Jusho":"群馬県前橋市堀越町1152","kouzui":"×","gake":"×","takashio":"×","jishin":"○","tsunami":"×","kaji":"○","naisui":"×","kazan":"×"}}
,{"type":"Feature","geometry":{"type":"Point","coordinates":[139.157,36.417]},"properties":{"Name":"大胡小学校","Jusho":"群馬県前橋市堀越町1161","kouzui":"○","gake":"×","takashio":"×","jishin":"○","tsunami":"×","kaji":"○","naisui":"×","kazan":"×"}}
,{"type":"Feature","geometry":{"type":"Point","coordinates":[139.074,36.376]},"properties":{"Name":"城南小学校","Jusho":"群馬県前橋市六供町1-13-2","kouzui":"×","gake":"×","takashio":"×","jishin":"○","tsunami":"×","kaji":"○","naisui":"×","kazan":"×"}}
,{"type":"Feature","geometry":{"type":"Point","coordinates":[139.139,36.361]},"properties":{"Name":"笂井小学校","Jusho":"群馬県前橋市笂井町1160","kouzui":"×","gake":"×","takashio":"×","jishin":"○","tsunami":"×","kaji":"○","naisui":"×","kazan":"×"}}
,{"type":"Feature","geometry":{"type":"Point","coordinates":[139.017,36.34]},"properties":{"Name":"塚沢小学校一帯","Jusho":"群馬県高崎市稲荷町20","kouzui":"○","gake":"○","takashio":"×","jishin":"○","tsunami":"×","kaji":"○","naisui":"○","kazan":"×"}}
,{"type":"Feature","geometry":{"type":"Point","coordinates":[138.888,36.386]},"properties":{"Name":"下室田小学校","Jusho":"群馬県高崎市下室田町1206","kouzui":"○","gake":"○","takashio":"×","jishin":"○","tsunami":"×","kaji":"○","naisui":"○","kazan":"○"}}
,{"type":"Feature","geometry":{"type":"Point","coordinates":[138.974,36.351]},"properties":{"Name":"北部小学校","Jusho":"群馬県高崎市下小塙町719-1","kouzui":"×","gake":"○","takashio":"×","jishin":"○","tsunami":"×","kaji":"○","naisui":"○","kazan":"○"}}
,{"type":"Feature","geometry":{"type":"Point","coordinates":[139.084,36.312]},"properties":{"Name":"滝川小学校","Jusho":"群馬県高崎市下滝町585-2","kouzui":"×","gake":"○","takashio":"×","jishin":"○","tsunami":"×","kaji":"○","naisui":"○","kazan":"○"}}
,{"type":"Feature","geometry":{"type":"Point","coordinates":[138.919,36.363]},"properties":{"Name":"下里見小学校","Jusho":"群馬県高崎市下里見町380","kouzui":"○","gake":"○","takashio":"×","jishin":"○","tsunami":"×","kaji":"○","naisui":"○","kazan":"○"}}
,{"type":"Feature","geometry":{"type":"Point","coordinates":[139.008,36.314]},"properties":{"Name":"城南運動公園","Jusho":"群馬県高崎市下和田町2-12","kouzui":"○","gake":"×","takashio":"×","jishin":"○","tsunami":"×","kaji":"○","naisui":"○","kazan":"×"}}
,{"type":"Feature","geometry":{"type":"Point","coordinates":[139.022,36.319]},"properties":{"Name":"群馬コンベンションセンター（Ｇメッセ群馬）","Jusho":"群馬県高崎市岩押町12-24","kouzui":"○","gake":"○","takashio":"×","jishin":"○","tsunami":"×","kaji":"○","naisui":"○","kazan":"○"}}
,{"type":"Feature","geometry":{"type":"Point","coordinates":[138.977,36.237]},"properties":{"Name":"多胡小学校","Jusho":"群馬県高崎市吉井町塩24-3","kouzui":"○","gake":"○","takashio":"×","jishin":"○","tsunami":"×","kaji":"○","naisui":"○","kazan":"○"}}
,{"type":"Feature","geometry":{"type":"Point","coordinates":[138.967,36.273]},"properties":{"Name":"岩平小学校","Jusho":"群馬県高崎市吉井町下奥平205-1","kouzui":"○","gake":"○","takashio":"×","jishin":"○","tsunami":"×","kaji":"○","naisui":"○","kazan":"○"}}
,{"type":"Feature","geometry":{"type":"Point","coordinates":[138.977,36.253]},"properties":{"Name":"吉井中央公園","Jusho":"群馬県高崎市吉井町下長根50-1","kouzui":"○","gake":"○","takashio":"×","jishin":"○","tsunami":"×","kaji":"○","naisui":"○","kazan":"○"}}
,{"type":"Feature","geometry":{"type":"Point","coordinates":[138.983,36.255]},"properties":{"Name":"吉井小学校","Jusho":"群馬県高崎市吉井町吉井235-1","kouzui":"○","gake":"○","takashio":"×","jishin":"○","tsunami":"×","kaji":"○","naisui":"○","kazan":"○"}}
,{"type":"Feature","geometry":{"type":"Point","coordinates":[138.985,36.253]},"properties":{"Name":"吉井文化会館","Jusho":"群馬県高崎市吉井町吉井285-2","kouzui":"○","gake":"○","takashio":"×","jishin":"○","tsunami":"×","kaji":"○","naisui":"○","kazan":"○"}}
,{"type":"Feature","geometry":{"type":"Point","coordinates":[138.989,36.249]},"properties":{"Name":"吉井中央中学校","Jusho":"群馬県高崎市吉井町吉井川581","kouzui":"○","gake":"○","takashio":"×","jishin":"○","tsunami":"×","kaji":"○","naisui":"○","kazan":"○"}}
,{"type":"Feature","geometry":{"type":"Point","coordinates":[139.014,36.256]},"properties":{"Name":"入野小学校","Jusho":"群馬県高崎市吉井町小串130","kouzui":"○","gake":"○","takashio":"×","jishin":"○","tsunami":"×","kaji":"○","naisui":"○","kazan":"○"}}
,{"type":"Feature","geometry":{"type":"Point","coordinates":[139.014,36.254]},"properties":{"Name":"吉井東コミュニティセンター","Jusho":"群馬県高崎市吉井町小串336-1","kouzui":"○","gake":"○","takashio":"×","jishin":"○","tsunami":"×","kaji":"○","naisui":"○","kazan":"○"}}
,{"type":"Feature","geometry":{"type":"Point","coordinates":[138.984,36.247]},"properties":{"Name":"仁叟寺","Jusho":"群馬県高崎市吉井町神保1295","kouzui":"○","gake":"○","takashio":"×","jishin":"○","tsunami":"×","kaji":"○","naisui":"○","kazan":"○"}}
,{"type":"Feature","geometry":{"type":"Point","coordinates":[139.004,36.251]},"properties":{"Name":"入野中学校","Jusho":"群馬県高崎市吉井町石神321-1","kouzui":"○","gake":"○","takashio":"×","jishin":"○","tsunami":"×","kaji":"○","naisui":"○","kazan":"○"}}
,{"type":"Feature","geometry":{"type":"Point","coordinates":[139.006,36.234]},"properties":{"Name":"多比良文化財保管庫本館（旧多比良分校）","Jusho":"群馬県高崎市吉井町多比良2637-1","kouzui":"○","gake":"○","takashio":"×","jishin":"○","tsunami":"×","kaji":"○","naisui":"○","kazan":"○"}}
,{"type":"Feature","geometry":{"type":"Point","coordinates":[138.969,36.255]},"properties":{"Name":"吉井西小学校","Jusho":"群馬県高崎市吉井町長根1930-1","kouzui":"○","gake":"○","takashio":"×","jishin":"○","tsunami":"×","kaji":"○","naisui":"○","kazan":"○"}}
,{"type":"Feature","geometry":{"type":"Point","coordinates":[138.968,36.249]},"properties":{"Name":"吉井西コミュニティセンター","Jusho":"群馬県高崎市吉井町長根525","kouzui":"○","gake":"○","takashio":"×","jishin":"○","tsunami":"×","kaji":"○","naisui":"○","kazan":"○"}}
,{"type":"Feature","geometry":{"type":"Point","coordinates":[139,36.274]},"properties":{"Name":"南陽台小学校","Jusho":"群馬県高崎市吉井町南陽台3-16-1","kouzui":"○","gake":"○","takashio":"×","jishin":"○","tsunami":"×","kaji":"○","naisui":"○","kazan":"○"}}
,{"type":"Feature","geometry":{"type":"Point","coordinates":[139.013,36.267]},"properties":{"Name":"馬庭小学校","Jusho":"群馬県高崎市吉井町馬庭1033-1","kouzui":"○","gake":"○","takashio":"×","jishin":"○","tsunami":"×","kaji":"○","naisui":"○","kazan":"○"}}
,{"type":"Feature","geometry":{"type":"Point","coordinates":[138.972,36.259]},"properties":{"Name":"吉井西中学校","Jusho":"群馬県高崎市吉井町本郷45","kouzui":"○","gake":"○","takashio":"×","jishin":"○","tsunami":"×","kaji":"○","naisui":"○","kazan":"○"}}
,{"type":"Feature","geometry":{"type":"Point","coordinates":[138.914,36.399]},"properties":{"Name":"宮沢小学校","Jusho":"群馬県高崎市宮沢町1100-1","kouzui":"○","gake":"○","takashio":"×","jishin":"○","tsunami":"×","kaji":"○","naisui":"○","kazan":"○"}}
,{"type":"Feature","geometry":{"type":"Point","coordinates":[139.01,36.33]},"properties":{"Name":"東小学校","Jusho":"群馬県高崎市弓町121-1","kouzui":"○","gake":"○","takashio":"×","jishin":"○","tsunami":"×","kaji":"○","naisui":"○","kazan":"○"}}
,{"type":"Feature","geometry":{"type":"Point","coordinates":[139.064,36.34]},"properties":{"Name":"京ケ島小学校","Jusho":"群馬県高崎市京目町44-1","kouzui":"×","gake":"○","takashio":"×","jishin":"○","tsunami":"×","kaji":"○","naisui":"○","kazan":"○"}}
,{"type":"Feature","geometry":{"type":"Point","coordinates":[138.999,36.407]},"properties":{"Name":"金古小学校","Jusho":"群馬県高崎市金古町1271-1","kouzui":"○","gake":"○","takashio":"×","jishin":"○","tsunami":"×","kaji":"○","naisui":"○","kazan":"○"}}
,{"type":"Feature","geometry":{"type":"Point","coordinates":[139.004,36.403]},"properties":{"Name":"群馬中央中学校","Jusho":"群馬県高崎市金古町352-1","kouzui":"○","gake":"○","takashio":"×","jishin":"○","tsunami":"×","kaji":"○","naisui":"○","kazan":"○"}}
,{"type":"Feature","geometry":{"type":"Point","coordinates":[138.994,36.402]},"properties":{"Name":"金古南小学校","Jusho":"群馬県高崎市金古町658","kouzui":"○","gake":"○","takashio":"×","jishin":"○","tsunami":"×","kaji":"○","naisui":"○","kazan":"○"}}
,{"type":"Feature","geometry":{"type":"Point","coordinates":[139.017,36.395]},"properties":{"Name":"国府小学校","Jusho":"群馬県高崎市後疋間町184-1","kouzui":"○","gake":"○","takashio":"×","jishin":"○","tsunami":"×","kaji":"○","naisui":"○","kazan":"○"}}
,{"type":"Feature","geometry":{"type":"Point","coordinates":[139.021,36.327]},"properties":{"Name":"城東小学校","Jusho":"群馬県高崎市江木町128-1","kouzui":"○","gake":"○","takashio":"×","jishin":"○","tsunami":"×","kaji":"○","naisui":"○","kazan":"○"}}
,{"type":"Feature","geometry":{"type":"Point","coordinates":[139.018,36.336]},"properties":{"Name":"県立高崎工業高等学校","Jusho":"群馬県高崎市江木町700","kouzui":"○","gake":"○","takashio":"×","jishin":"○","tsunami":"×","kaji":"○","naisui":"○","kazan":"○"}}
,{"type":"Feature","geometry":{"type":"Point","coordinates":[139.004,36.324]},"properties":{"Name":"城址一帯","Jusho":"群馬県高崎市高松町1","kouzui":"○","gake":"○","takashio":"×","jishin":"○","tsunami":"×","kaji":"○","naisui":"○","kazan":"×"}}
,{"type":"Feature","geometry":{"type":"Point","coordinates":[139.002,36.326]},"properties":{"Name":"高松中学校","Jusho":"群馬県高崎市高松町5-3","kouzui":"○","gake":"○","takashio":"×","jishin":"○","tsunami":"×","kaji":"○","naisui":"○","kazan":"○"}}
,{"type":"Feature","geometry":{"type":"Point","coordinates":[138.932,36.37]},"properties":{"Name":"久留馬小学校","Jusho":"群馬県高崎市高浜町2321-1","kouzui":"○","gake":"○","takashio":"×","jishin":"○","tsunami":"×","kaji":"○","naisui":"○","kazan":"○"}}
,{"type":"Feature","geometry":{"type":"Point","coordinates":[138.995,36.374]},"properties":{"Name":"群馬南中学校","Jusho":"群馬県高崎市三ツ寺町712","kouzui":"○","gake":"○","takashio":"×","jishin":"○","tsunami":"×","kaji":"○","naisui":"○","kazan":"○"}}
,{"type":"Feature","geometry":{"type":"Point","coordinates":[139.039,36.281]},"properties":{"Name":"南八幡小学校","Jusho":"群馬県高崎市山名町24-1","kouzui":"○","gake":"○","takashio":"×","jishin":"○","tsunami":"×","kaji":"○","naisui":"○","kazan":"○"}}
,{"type":"Feature","geometry":{"type":"Point","coordinates":[139.038,36.281]},"properties":{"Name":"南八幡中学校","Jusho":"群馬県高崎市山名町30-1","kouzui":"○","gake":"○","takashio":"×","jishin":"○","tsunami":"×","kaji":"○","naisui":"○","kazan":"○"}}
,{"type":"Feature","geometry":{"type":"Point","coordinates":[139.008,36.303]},"properties":{"Name":"寺尾小学校","Jusho":"群馬県高崎市寺尾町290","kouzui":"×","gake":"○","takashio":"×","jishin":"○","tsunami":"×","kaji":"○","naisui":"○","kazan":"○"}}
,{"type":"Feature","geometry":{"type":"Point","coordinates":[139.016,36.364]},"properties":{"Name":"中川小学校","Jusho":"群馬県高崎市小八木町1860-1","kouzui":"○","gake":"○","takashio":"×","jishin":"○","tsunami":"×","kaji":"○","naisui":"○","kazan":"○"}}
,{"type":"Feature","geometry":{"type":"Point","coordinates":[139.005,36.337]},"properties":{"Name":"新島学園短期大学","Jusho":"群馬県高崎市昭和町53","kouzui":"○","gake":"○","takashio":"×","jishin":"○","tsunami":"×","kaji":"○","naisui":"○","kazan":"○"}}
,{"type":"Feature","geometry":{"type":"Point","coordinates":[139.025,36.308]},"properties":{"Name":"佐野小学校","Jusho":"群馬県高崎市上佐野町918-2","kouzui":"○","gake":"○","takashio":"×","jishin":"○","tsunami":"×","kaji":"○","naisui":"○","kazan":"○"}}
,{"type":"Feature","geometry":{"type":"Point","coordinates":[138.84,36.403]},"properties":{"Name":"上室田小学校","Jusho":"群馬県高崎市上室田町4210","kouzui":"○","gake":"○","takashio":"×","jishin":"○","tsunami":"×","kaji":"○","naisui":"○","kazan":"○"}}
,{"type":"Feature","geometry":{"type":"Point","coordinates":[138.973,36.357]},"properties":{"Name":"長野郷中学校","Jusho":"群馬県高崎市上小塙町325-1","kouzui":"○","gake":"○","takashio":"×","jishin":"○","tsunami":"×","kaji":"○","naisui":"○","kazan":"○"}}
,{"type":"Feature","geometry":{"type":"Point","coordinates":[139.031,36.342]},"properties":{"Name":"東部小学校","Jusho":"群馬県高崎市上大類町1372","kouzui":"×","gake":"○","takashio":"×","jishin":"○","tsunami":"×","kaji":"○","naisui":"○","kazan":"○"}}
,{"type":"Feature","geometry":{"type":"Point","coordinates":[139.071,36.322]},"properties":{"Name":"高南中学校","Jusho":"群馬県高崎市上滝町1032-2","kouzui":"×","gake":"○","takashio":"×","jishin":"○","tsunami":"×","kaji":"○","naisui":"○","kazan":"○"}}
,{"type":"Feature","geometry":{"type":"Point","coordinates":[139.025,36.317]},"properties":{"Name":"佐野中学校","Jusho":"群馬県高崎市上中居町345","kouzui":"○","gake":"○","takashio":"×","jishin":"○","tsunami":"×","kaji":"○","naisui":"○","kazan":"○"}}
,{"type":"Feature","geometry":{"type":"Point","coordinates":[138.986,36.338]},"properties":{"Name":"上並榎庭球場一帯","Jusho":"群馬県高崎市上並榎町1590","kouzui":"×","gake":"○","takashio":"×","jishin":"○","tsunami":"×","kaji":"○","naisui":"×","kazan":"×"}}
,{"type":"Feature","geometry":{"type":"Point","coordinates":[138.894,36.374]},"properties":{"Name":"榛名文化会館","Jusho":"群馬県高崎市上里見町1072-1","kouzui":"○","gake":"○","takashio":"×","jishin":"○","tsunami":"×","kaji":"○","naisui":"○","kazan":"○"}}
,{"type":"Feature","geometry":{"type":"Point","coordinates":[138.897,36.375]},"properties":{"Name":"里見小学校","Jusho":"群馬県高崎市上里見町42-2","kouzui":"○","gake":"○","takashio":"×","jishin":"○","tsunami":"×","kaji":"○","naisui":"○","kazan":"○"}}
,{"type":"Feature","geometry":{"type":"Point","coordinates":[138.997,36.333]},"properties":{"Name":"第一中学校","Jusho":"群馬県高崎市上和田町16-1","kouzui":"○","gake":"○","takashio":"×","jishin":"○","tsunami":"×","kaji":"○","naisui":"○","kazan":"○"}}
,{"type":"Feature","geometry":{"type":"Point","coordinates":[138.985,36.327]},"properties":{"Name":"乗附小学校","Jusho":"群馬県高崎市乗附町155-1","kouzui":"×","gake":"○","takashio":"×","jishin":"○","tsunami":"×","kaji":"○","naisui":"○","kazan":"○"}}
,{"type":"Feature","geometry":{"type":"Point","coordinates":[139.014,36.286]},"properties":{"Name":"城山小学校","Jusho":"群馬県高崎市城山町2-16-1","kouzui":"○","gake":"○","takashio":"×","jishin":"○","tsunami":"×","kaji":"○","naisui":"○","kazan":"○"}}
,{"type":"Feature","geometry":{"type":"Point","coordinates":[138.999,36.328]},"properties":{"Name":"中央小学校","Jusho":"群馬県高崎市常盤町48-1","kouzui":"○","gake":"○","takashio":"×","jishin":"○","tsunami":"×","kaji":"○","naisui":"○","kazan":"○"}}
,{"type":"Feature","geometry":{"type":"Point","coordinates":[139.012,36.311]},"properties":{"Name":"城南小学校","Jusho":"群馬県高崎市新後閑町301-1","kouzui":"○","gake":"○","takashio":"×","jishin":"○","tsunami":"×","kaji":"○","naisui":"○","kazan":"○"}}
,{"type":"Feature","geometry":{"type":"Point","coordinates":[139.106,36.267]},"properties":{"Name":"新町児童体育館","Jusho":"群馬県高崎市新町1497","kouzui":"×","gake":"○","takashio":"×","jishin":"○","tsunami":"×","kaji":"○","naisui":"○","kazan":"○"}}
,{"type":"Feature","geometry":{"type":"Point","coordinates":[139.107,36.267]},"properties":{"Name":"新町南コミュニティセンター","Jusho":"群馬県高崎市新町1498-7","kouzui":"×","gake":"○","takashio":"×","jishin":"○","tsunami":"×","kaji":"○","naisui":"○","kazan":"○"}}
,{"type":"Feature","geometry":{"type":"Point","coordinates":[139.102,36.265]},"properties":{"Name":"新町第二小学校","Jusho":"群馬県高崎市新町2010-1","kouzui":"×","gake":"○","takashio":"×","jishin":"○","tsunami":"×","kaji":"○","naisui":"○","kazan":"○"}}
,{"type":"Feature","geometry":{"type":"Point","coordinates":[139.107,36.275]},"properties":{"Name":"新町公民館","Jusho":"群馬県高崎市新町2271-1","kouzui":"×","gake":"○","takashio":"×","jishin":"○","tsunami":"×","kaji":"○","naisui":"○","kazan":"○"}}
,{"type":"Feature","geometry":{"type":"Point","coordinates":[139.104,36.278]},"properties":{"Name":"新町防災アリーナ","Jusho":"群馬県高崎市新町2330-40","kouzui":"×","gake":"○","takashio":"×","jishin":"○","tsunami":"×","kaji":"○","naisui":"○","kazan":"○"}}
,{"type":"Feature","geometry":{"type":"Point","coordinates":[139.111,36.273]},"properties":{"Name":"新町東コミュニティセンター","Jusho":"群馬県高崎市新町2703","kouzui":"×","gake":"○","takashio":"×","jishin":"○","tsunami":"×","kaji":"○","naisui":"○","kazan":"○"}}
,{"type":"Feature","geometry":{"type":"Point","coordinates":[139.115,36.278]},"properties":{"Name":"新町文化ホール","Jusho":"群馬県高崎市新町3190-1","kouzui":"×","gake":"○","takashio":"×","jishin":"○","tsunami":"×","kaji":"○","naisui":"○","kazan":"○"}}
,{"type":"Feature","geometry":{"type":"Point","coordinates":[139.112,36.277]},"properties":{"Name":"新町第一小学校","Jusho":"群馬県高崎市新町345-1","kouzui":"×","gake":"○","takashio":"×","jishin":"○","tsunami":"×","kaji":"○","naisui":"○","kazan":"○"}}
,{"type":"Feature","geometry":{"type":"Point","coordinates":[139.113,36.276]},"properties":{"Name":"新町中学校","Jusho":"群馬県高崎市新町361-1","kouzui":"×","gake":"○","takashio":"×","jishin":"○","tsunami":"×","kaji":"○","naisui":"○","kazan":"○"}}
,{"type":"Feature","geometry":{"type":"Point","coordinates":[138.873,36.481]},"properties":{"Name":"榛名湖温泉ゆうすげ","Jusho":"群馬県高崎市榛名湖町846-3","kouzui":"○","gake":"×","takashio":"×","jishin":"○","tsunami":"×","kaji":"○","naisui":"○","kazan":"○"}}
,{"type":"Feature","geometry":{"type":"Point","coordinates":[138.848,36.453]},"properties":{"Name":"榛名歴史民俗資料館","Jusho":"群馬県高崎市榛名山町138-1","kouzui":"○","gake":"×","takashio":"×","jishin":"○","tsunami":"×","kaji":"○","naisui":"○","kazan":"○"}}
,{"type":"Feature","geometry":{"type":"Point","coordinates":[139.002,36.333]},"properties":{"Name":"北小学校","Jusho":"群馬県高崎市請地町20-2","kouzui":"○","gake":"○","takashio":"×","jishin":"○","tsunami":"×","kaji":"○","naisui":"○","kazan":"○"}}
,{"type":"Feature","geometry":{"type":"Point","coordinates":[139.001,36.301]},"properties":{"Name":"東京農業大学第二高等学校","Jusho":"群馬県高崎市石原町3430","kouzui":"○","gake":"○","takashio":"×","jishin":"○","tsunami":"×","kaji":"○","naisui":"○","kazan":"○"}}
,{"type":"Feature","geometry":{"type":"Point","coordinates":[139.003,36.302]},"properties":{"Name":"武道館","Jusho":"群馬県高崎市石原町3892-7","kouzui":"○","gake":"○","takashio":"×","jishin":"○","tsunami":"×","kaji":"○","naisui":"○","kazan":"○"}}
,{"type":"Feature","geometry":{"type":"Point","coordinates":[139.043,36.295]},"properties":{"Name":"倉賀野中学校","Jusho":"群馬県高崎市倉賀野町1270","kouzui":"○","gake":"○","takashio":"×","jishin":"○","tsunami":"×","kaji":"○","naisui":"○","kazan":"○"}}
,{"type":"Feature","geometry":{"type":"Point","coordinates":[139.048,36.3]},"properties":{"Name":"倉賀野小学校","Jusho":"群馬県高崎市倉賀野町1744","kouzui":"○","gake":"○","takashio":"×","jishin":"○","tsunami":"×","kaji":"○","naisui":"○","kazan":"○"}}
,{"type":"Feature","geometry":{"type":"Point","coordinates":[139.057,36.302]},"properties":{"Name":"倉賀野避難地","Jusho":"群馬県高崎市倉賀野町4655-1","kouzui":"○","gake":"○","takashio":"×","jishin":"○","tsunami":"×","kaji":"○","naisui":"○","kazan":"×"}}
,{"type":"Feature","geometry":{"type":"Point","coordinates":[138.775,36.438]},"properties":{"Name":"倉渕体育館","Jusho":"群馬県高崎市倉渕町岩氷610","kouzui":"○","gake":"○","takashio":"×","jishin":"○","tsunami":"×","kaji":"○","naisui":"○","kazan":"○"}}
,{"type":"Feature","geometry":{"type":"Point","coordinates":[138.778,36.457]},"properties":{"Name":"倉渕第八区公民館","Jusho":"群馬県高崎市倉渕町権田2352-1","kouzui":"○","gake":"○","takashio":"×","jishin":"○","tsunami":"×","kaji":"○","naisui":"○","kazan":"○"}}
,{"type":"Feature","geometry":{"type":"Point","coordinates":[138.773,36.447]},"properties":{"Name":"倉渕小学校","Jusho":"群馬県高崎市倉渕町権田314-1","kouzui":"○","gake":"×","takashio":"×","jishin":"○","tsunami":"×","kaji":"○","naisui":"○","kazan":"○"}}
,{"type":"Feature","geometry":{"type":"Point","coordinates":[138.816,36.4]},"properties":{"Name":"倉渕第一区公民館","Jusho":"群馬県高崎市倉渕町三ノ倉1813-2","kouzui":"○","gake":"○","takashio":"×","jishin":"○","tsunami":"×","kaji":"○","naisui":"○","kazan":"○"}}
,{"type":"Feature","geometry":{"type":"Point","coordinates":[138.793,36.425]},"properties":{"Name":"高崎市くらぶち小栗の里","Jusho":"群馬県高崎市倉渕町三ノ倉296-1","kouzui":"○","gake":"×","takashio":"×","jishin":"○","tsunami":"×","kaji":"○","naisui":"○","kazan":"○"}}
,{"type":"Feature","geometry":{"type":"Point","coordinates":[138.799,36.416]},"properties":{"Name":"三ノ倉会館","Jusho":"群馬県高崎市倉渕町三ノ倉814-1","kouzui":"○","gake":"○","takashio":"×","jishin":"○","tsunami":"×","kaji":"○","naisui":"○","kazan":"○"}}
,{"type":"Feature","geometry":{"type":"Point","coordinates":[138.748,36.46]},"properties":{"Name":"川浦公民館","Jusho":"群馬県高崎市倉渕町川浦1186-2","kouzui":"○","gake":"×","takashio":"×","jishin":"○","tsunami":"×","kaji":"○","naisui":"○","kazan":"○"}}
,{"type":"Feature","geometry":{"type":"Point","coordinates":[138.993,36.401]},"properties":{"Name":"群馬体育館","Jusho":"群馬県高崎市足門町1449-1","kouzui":"○","gake":"○","takashio":"×","jishin":"○","tsunami":"×","kaji":"○","naisui":"○","kazan":"○"}}
,{"type":"Feature","geometry":{"type":"Point","coordinates":[139.07,36.303]},"properties":{"Name":"岩鼻小学校","Jusho":"群馬県高崎市台新田町1","kouzui":"○","gake":"○","takashio":"×","jishin":"○","tsunami":"×","kaji":"○","naisui":"○","kazan":"○"}}
,{"type":"Feature","geometry":{"type":"Point","coordinates":[138.987,36.353]},"properties":{"Name":"六郷小学校","Jusho":"群馬県高崎市筑縄町32-2","kouzui":"○","gake":"○","takashio":"×","jishin":"○","tsunami":"×","kaji":"○","naisui":"○","kazan":"○"}}
,{"type":"Feature","geometry":{"type":"Point","coordinates":[139.041,36.317]},"properties":{"Name":"中居小学校","Jusho":"群馬県高崎市中居町3-28-1","kouzui":"○","gake":"○","takashio":"×","jishin":"○","tsunami":"×","kaji":"○","naisui":"○","kazan":"○"}}
,{"type":"Feature","geometry":{"type":"Point","coordinates":[138.869,36.393]},"properties":{"Name":"中室田小学校","Jusho":"群馬県高崎市中室田町1561-1","kouzui":"○","gake":"○","takashio":"×","jishin":"○","tsunami":"×","kaji":"○","naisui":"○","kazan":"○"}}
,{"type":"Feature","geometry":{"type":"Point","coordinates":[139.028,36.362]},"properties":{"Name":"中尾中学校","Jusho":"群馬県高崎市中尾町791","kouzui":"○","gake":"○","takashio":"×","jishin":"○","tsunami":"×","kaji":"○","naisui":"○","kazan":"○"}}
,{"type":"Feature","geometry":{"type":"Point","coordinates":[138.975,36.335]},"properties":{"Name":"豊岡小学校","Jusho":"群馬県高崎市中豊岡町24","kouzui":"×","gake":"○","takashio":"×","jishin":"○","tsunami":"×","kaji":"○","naisui":"○","kazan":"○"}}
,{"type":"Feature","geometry":{"type":"Point","coordinates":[138.97,36.337]},"properties":{"Name":"豊岡中学校","Jusho":"群馬県高崎市中豊岡町350-2","kouzui":"×","gake":"○","takashio":"×","jishin":"○","tsunami":"×","kaji":"○","naisui":"○","kazan":"○"}}
,{"type":"Feature","geometry":{"type":"Point","coordinates":[139.034,36.347]},"properties":{"Name":"県立高崎商業高等学校","Jusho":"群馬県高崎市東貝沢町3-4","kouzui":"×","gake":"○","takashio":"×","jishin":"○","tsunami":"×","kaji":"○","naisui":"○","kazan":"○"}}
,{"type":"Feature","geometry":{"type":"Point","coordinates":[139.002,36.379]},"properties":{"Name":"堤ヶ岡小学校","Jusho":"群馬県高崎市棟高町2227-1","kouzui":"○","gake":"○","takashio":"×","jishin":"○","tsunami":"×","kaji":"○","naisui":"○","kazan":"○"}}
,{"type":"Feature","geometry":{"type":"Point","coordinates":[139.006,36.372]},"properties":{"Name":"桜山小学校","Jusho":"群馬県高崎市棟高町2489-1","kouzui":"○","gake":"○","takashio":"×","jishin":"○","tsunami":"×","kaji":"○","naisui":"○","kazan":"○"}}
,{"type":"Feature","geometry":{"type":"Point","coordinates":[138.972,36.364]},"properties":{"Name":"長野小学校","Jusho":"群馬県高崎市南新波町77","kouzui":"○","gake":"○","takashio":"×","jishin":"○","tsunami":"×","kaji":"○","naisui":"○","kazan":"○"}}
,{"type":"Feature","geometry":{"type":"Point","coordinates":[139.036,36.329]},"properties":{"Name":"大類中学校","Jusho":"群馬県高崎市南大類町1455","kouzui":"○","gake":"○","takashio":"×","jishin":"○","tsunami":"×","kaji":"○","naisui":"○","kazan":"○"}}
,{"type":"Feature","geometry":{"type":"Point","coordinates":[139.046,36.324]},"properties":{"Name":"大類小学校","Jusho":"群馬県高崎市南大類町543-1","kouzui":"○","gake":"○","takashio":"×","jishin":"○","tsunami":"×","kaji":"○","naisui":"○","kazan":"○"}}
,{"type":"Feature","geometry":{"type":"Point","coordinates":[139.036,36.364]},"properties":{"Name":"新高尾小学校","Jusho":"群馬県高崎市日高町592-1","kouzui":"○","gake":"○","takashio":"×","jishin":"○","tsunami":"×","kaji":"○","naisui":"○","kazan":"○"}}
,{"type":"Feature","geometry":{"type":"Point","coordinates":[138.987,36.319]},"properties":{"Name":"県立高崎高等学校","Jusho":"群馬県高崎市八千代町2-4-1","kouzui":"○","gake":"○","takashio":"×","jishin":"○","tsunami":"×","kaji":"○","naisui":"○","kazan":"○"}}
,{"type":"Feature","geometry":{"type":"Point","coordinates":[139.01,36.321]},"properties":{"Name":"南小学校","Jusho":"群馬県高崎市八島町70-1","kouzui":"○","gake":"○","takashio":"×","jishin":"○","tsunami":"×","kaji":"○","naisui":"○","kazan":"○"}}
,{"type":"Feature","geometry":{"type":"Point","coordinates":[138.944,36.344]},"properties":{"Name":"八幡中学校","Jusho":"群馬県高崎市八幡町1300-1","kouzui":"○","gake":"○","takashio":"×","jishin":"○","tsunami":"×","kaji":"○","naisui":"○","kazan":"○"}}
,{"type":"Feature","geometry":{"type":"Point","coordinates":[138.944,36.348]},"properties":{"Name":"西部小学校","Jusho":"群馬県高崎市八幡町1414","kouzui":"○","gake":"○","takashio":"×","jishin":"○","tsunami":"×","kaji":"○","naisui":"○","kazan":"○"}}
,{"type":"Feature","geometry":{"type":"Point","coordinates":[138.952,36.336]},"properties":{"Name":"八幡小学校","Jusho":"群馬県高崎市八幡町179-1","kouzui":"×","gake":"○","takashio":"×","jishin":"○","tsunami":"×","kaji":"○","naisui":"○","kazan":"○"}}
,{"type":"Feature","geometry":{"type":"Point","coordinates":[139.017,36.339]},"properties":{"Name":"塚沢中学校","Jusho":"群馬県高崎市飯玉町109","kouzui":"○","gake":"○","takashio":"×","jishin":"○","tsunami":"×","kaji":"○","naisui":"○","kazan":"○"}}
,{"type":"Feature","geometry":{"type":"Point","coordinates":[139.017,36.34]},"properties":{"Name":"塚沢小学校","Jusho":"群馬県高崎市飯玉町134-1","kouzui":"○","gake":"○","takashio":"×","jishin":"○","tsunami":"×","kaji":"○","naisui":"○","kazan":"○"}}
,{"type":"Feature","geometry":{"type":"Point","coordinates":[138.939,36.332]},"properties":{"Name":"鼻高小学校","Jusho":"群馬県高崎市鼻高町58-2","kouzui":"×","gake":"○","takashio":"×","jishin":"○","tsunami":"×","kaji":"○","naisui":"○","kazan":"○"}}
,{"type":"Feature","geometry":{"type":"Point","coordinates":[139.014,36.351]},"properties":{"Name":"浜尻小学校","Jusho":"群馬県高崎市浜尻町210-1","kouzui":"○","gake":"○","takashio":"×","jishin":"○","tsunami":"×","kaji":"○","naisui":"○","kazan":"○"}}
,{"type":"Feature","geometry":{"type":"Point","coordinates":[138.989,36.365]},"properties":{"Name":"浜川総合運動公園一帯","Jusho":"群馬県高崎市浜川町1487","kouzui":"○","gake":"○","takashio":"×","jishin":"○","tsunami":"×","kaji":"○","naisui":"○","kazan":"×"}}
,{"type":"Feature","geometry":{"type":"Point","coordinates":[138.991,36.362]},"properties":{"Name":"高崎市立高崎経済大学附属高等学校","Jusho":"群馬県高崎市浜川町1650-1","kouzui":"○","gake":"○","takashio":"×","jishin":"○","tsunami":"×","kaji":"○","naisui":"○","kazan":"○"}}
,{"type":"Feature","geometry":{"type":"Point","coordinates":[138.994,36.339]},"properties":{"Name":"西小学校","Jusho":"群馬県高崎市並榎町109-1","kouzui":"○","gake":"○","takashio":"×","jishin":"○","tsunami":"×","kaji":"○","naisui":"○","kazan":"○"}}
,{"type":"Feature","geometry":{"type":"Point","coordinates":[138.994,36.342]},"properties":{"Name":"並榎中学校","Jusho":"群馬県高崎市並榎町60","kouzui":"○","gake":"○","takashio":"×","jishin":"○","tsunami":"×","kaji":"○","naisui":"○","kazan":"○"}}
,{"type":"Feature","geometry":{"type":"Point","coordinates":[138.994,36.32]},"properties":{"Name":"片岡中学校","Jusho":"群馬県高崎市片岡町1-14-1","kouzui":"×","gake":"○","takashio":"×","jishin":"○","tsunami":"×","kaji":"○","naisui":"○","kazan":"○"}}
,{"type":"Feature","geometry":{"type":"Point","coordinates":[138.998,36.321]},"properties":{"Name":"和田橋運動場広場一帯","Jusho":"群馬県高崎市片岡町1-171","kouzui":"×","gake":"○","takashio":"×","jishin":"○","tsunami":"×","kaji":"○","naisui":"×","kazan":"×"}}
,{"type":"Feature","geometry":{"type":"Point","coordinates":[138.998,36.316]},"properties":{"Name":"片岡小学校","Jusho":"群馬県高崎市片岡町2-12-1","kouzui":"×","gake":"○","takashio":"×","jishin":"○","tsunami":"×","kaji":"○","naisui":"○","kazan":"○"}}
,{"type":"Feature","geometry":{"type":"Point","coordinates":[138.984,36.388]},"properties":{"Name":"上郊小学校","Jusho":"群馬県高崎市保渡田町2107-1","kouzui":"○","gake":"○","takashio":"×","jishin":"○","tsunami":"×","kaji":"○","naisui":"○","kazan":"○"}}
,{"type":"Feature","geometry":{"type":"Point","coordinates":[139.007,36.333]},"properties":{"Name":"総合文化センター","Jusho":"群馬県高崎市末広町23-1","kouzui":"○","gake":"○","takashio":"×","jishin":"○","tsunami":"×","kaji":"○","naisui":"○","kazan":"○"}}
,{"type":"Feature","geometry":{"type":"Point","coordinates":[138.958,36.377]},"properties":{"Name":"箕郷第五保育園","Jusho":"群馬県高崎市箕郷町下芝66-1","kouzui":"○","gake":"○","takashio":"×","jishin":"○","tsunami":"×","kaji":"○","naisui":"○","kazan":"○"}}
,{"type":"Feature","geometry":{"type":"Point","coordinates":[138.956,36.399]},"properties":{"Name":"箕郷第一保育園","Jusho":"群馬県高崎市箕郷町上芝1063-1","kouzui":"○","gake":"○","takashio":"×","jishin":"○","tsunami":"×","kaji":"○","naisui":"○","kazan":"○"}}
,{"type":"Feature","geometry":{"type":"Point","coordinates":[138.964,36.397]},"properties":{"Name":"箕郷中学校","Jusho":"群馬県高崎市箕郷町生原654","kouzui":"○","gake":"○","takashio":"×","jishin":"○","tsunami":"×","kaji":"○","naisui":"○","kazan":"○"}}
,{"type":"Feature","geometry":{"type":"Point","coordinates":[138.965,36.389]},"properties":{"Name":"さわやか交流館","Jusho":"群馬県高崎市箕郷町生原88","kouzui":"○","gake":"○","takashio":"×","jishin":"○","tsunami":"×","kaji":"○","naisui":"○","kazan":"○"}}
,{"type":"Feature","geometry":{"type":"Point","coordinates":[138.969,36.401]},"properties":{"Name":"箕郷文化会館","Jusho":"群馬県高崎市箕郷町生原922-1","kouzui":"○","gake":"○","takashio":"×","jishin":"○","tsunami":"×","kaji":"○","naisui":"○","kazan":"○"}}
,{"type":"Feature","geometry":{"type":"Point","coordinates":[138.969,36.402]},"properties":{"Name":"箕郷東小学校","Jusho":"群馬県高崎市箕郷町生原922-2","kouzui":"○","gake":"○","takashio":"×","jishin":"○","tsunami":"×","kaji":"○","naisui":"○","kazan":"○"}}
,{"type":"Feature","geometry":{"type":"Point","coordinates":[138.946,36.413]},"properties":{"Name":"県立農林大学校","Jusho":"群馬県高崎市箕郷町西明屋1005","kouzui":"○","gake":"○","takashio":"×","jishin":"○","tsunami":"×","kaji":"○","naisui":"○","kazan":"○"}}
,{"type":"Feature","geometry":{"type":"Point","coordinates":[138.955,36.399]},"properties":{"Name":"箕輪小学校","Jusho":"群馬県高崎市箕郷町西明屋196-1","kouzui":"○","gake":"○","takashio":"×","jishin":"○","tsunami":"×","kaji":"○","naisui":"○","kazan":"○"}}
,{"type":"Feature","geometry":{"type":"Point","coordinates":[138.956,36.392]},"properties":{"Name":"箕郷公民館","Jusho":"群馬県高崎市箕郷町西明屋421","kouzui":"○","gake":"○","takashio":"×","jishin":"○","tsunami":"×","kaji":"○","naisui":"○","kazan":"○"}}
,{"type":"Feature","geometry":{"type":"Point","coordinates":[138.966,36.411]},"properties":{"Name":"箕郷第二保育園","Jusho":"群馬県高崎市箕郷町柏木沢209-1","kouzui":"○","gake":"○","takashio":"×","jishin":"○","tsunami":"×","kaji":"○","naisui":"○","kazan":"○"}}
,{"type":"Feature","geometry":{"type":"Point","coordinates":[138.949,36.39]},"properties":{"Name":"車郷小学校","Jusho":"群馬県高崎市箕郷町富岡255-1","kouzui":"○","gake":"○","takashio":"×","jishin":"○","tsunami":"×","kaji":"○","naisui":"○","kazan":"○"}}
,{"type":"Feature","geometry":{"type":"Point","coordinates":[138.949,36.391]},"properties":{"Name":"箕郷第三保育園","Jusho":"群馬県高崎市箕郷町富岡281","kouzui":"○","gake":"○","takashio":"×","jishin":"○","tsunami":"×","kaji":"○","naisui":"○","kazan":"○"}}
,{"type":"Feature","geometry":{"type":"Point","coordinates":[139.049,36.311]},"properties":{"Name":"矢中小学校","Jusho":"群馬県高崎市矢中町160-1","kouzui":"○","gake":"○","takashio":"×","jishin":"○","tsunami":"×","kaji":"○","naisui":"○","kazan":"○"}}
,{"type":"Feature","geometry":{"type":"Point","coordinates":[139.057,36.309]},"properties":{"Name":"矢中中学校","Jusho":"群馬県高崎市矢中町700-1","kouzui":"○","gake":"○","takashio":"×","jishin":"○","tsunami":"×","kaji":"○","naisui":"○","kazan":"○"}}
,{"type":"Feature","geometry":{"type":"Point","coordinates":[139.333,36.408]},"properties":{"Name":"新川公園","Jusho":"群馬県桐生市稲荷町1-1","kouzui":"×","gake":"○","takashio":"×","jishin":"○","tsunami":"×","kaji":"○","naisui":"×","kazan":"×"}}
,{"type":"Feature","geometry":{"type":"Point","coordinates":[139.332,36.409]},"properties":{"Name":"中央公民館","Jusho":"群馬県桐生市稲荷町1-4","kouzui":"○","gake":"○","takashio":"×","jishin":"×","tsunami":"×","kaji":"○","naisui":"○","kazan":"×"}}
,{"type":"Feature","geometry":{"type":"Point","coordinates":[139.337,36.413]},"properties":{"Name":"西公民館","Jusho":"群馬県桐生市永楽町2-16","kouzui":"○","gake":"○","takashio":"×","jishin":"○","tsunami":"×","kaji":"×","naisui":"○","kazan":"×"}}
,{"type":"Feature","geometry":{"type":"Point","coordinates":[139.333,36.419]},"properties":{"Name":"水道山公園","Jusho":"群馬県桐生市宮本町2-14-56","kouzui":"○","gake":"○","takashio":"×","jishin":"○","tsunami":"×","kaji":"×","naisui":"○","kazan":"×"}}
,{"type":"Feature","geometry":{"type":"Point","coordinates":[139.334,36.421]},"properties":{"Name":"吾妻公園","Jusho":"群馬県桐生市宮本町3-10-1","kouzui":"○","gake":"×","takashio":"×","jishin":"○","tsunami":"×","kaji":"×","naisui":"○","kazan":"×"}}
,{"type":"Feature","geometry":{"type":"Point","coordinates":[139.341,36.423]},"properties":{"Name":"桐生が岡公園","Jusho":"群馬県桐生市宮本町3-8-13","kouzui":"○","gake":"○","takashio":"×","jishin":"○","tsunami":"×","kaji":"×","naisui":"○","kazan":"×"}}
,{"type":"Feature","geometry":{"type":"Point","coordinates":[139.352,36.389]},"properties":{"Name":"境野町児童公園","Jusho":"群馬県桐生市境野町2-612-4","kouzui":"×","gake":"○","takashio":"×","jishin":"○","tsunami":"×","kaji":"×","naisui":"×","kazan":"×"}}
,{"type":"Feature","geometry":{"type":"Point","coordinates":[139.352,36.389]},"properties":{"Name":"境野公民館","Jusho":"群馬県桐生市境野町2-612-4","kouzui":"○","gake":"○","takashio":"×","jishin":"×","tsunami":"×","kaji":"×","naisui":"○","kazan":"×"}}
,{"type":"Feature","geometry":{"type":"Point","coordinates":[139.344,36.391]},"properties":{"Name":"みつぼり保育園","Jusho":"群馬県桐生市境野町3-1302-4","kouzui":"×","gake":"○","takashio":"×","jishin":"×","tsunami":"×","kaji":"×","naisui":"×","kazan":"×"}}
,{"type":"Feature","geometry":{"type":"Point","coordinates":[139.346,36.39]},"properties":{"Name":"関根児童公園","Jusho":"群馬県桐生市境野町3-1320-2","kouzui":"×","gake":"○","takashio":"×","jishin":"○","tsunami":"×","kaji":"×","naisui":"×","kazan":"×"}}
,{"type":"Feature","geometry":{"type":"Point","coordinates":[139.349,36.387]},"properties":{"Name":"三ツ堀会館","Jusho":"群馬県桐生市境野町3-1489-7","kouzui":"○","gake":"○","takashio":"×","jishin":"×","tsunami":"×","kaji":"×","naisui":"○","kazan":"×"}}
,{"type":"Feature","geometry":{"type":"Point","coordinates":[139.354,36.393]},"properties":{"Name":"沼の上保育園","Jusho":"群馬県桐生市境野町4-1095-1","kouzui":"×","gake":"○","takashio":"×","jishin":"×","tsunami":"×","kaji":"×","naisui":"×","kazan":"×"}}
,{"type":"Feature","geometry":{"type":"Point","coordinates":[139.352,36.392]},"properties":{"Name":"諏訪児童公園","Jusho":"群馬県桐生市境野町4-853","kouzui":"×","gake":"○","takashio":"×","jishin":"○","tsunami":"×","kaji":"×","naisui":"×","kazan":"×"}}
,{"type":"Feature","geometry":{"type":"Point","coordinates":[139.353,36.385]},"properties":{"Name":"境野幼稚園","Jusho":"群馬県桐生市境野町6-1616-1","kouzui":"○","gake":"○","takashio":"×","jishin":"○","tsunami":"×","kaji":"×","naisui":"○","kazan":"×"}}
,{"type":"Feature","geometry":{"type":"Point","coordinates":[139.353,36.384]},"properties":{"Name":"境野小学校","Jusho":"群馬県桐生市境野町6-1616-1","kouzui":"○","gake":"○","takashio":"×","jishin":"○","tsunami":"×","kaji":"○","naisui":"○","kazan":"×"}}
,{"type":"Feature","geometry":{"type":"Point","coordinates":[139.354,36.383]},"properties":{"Name":"境野中学校","Jusho":"群馬県桐生市境野町6-1673","kouzui":"○","gake":"○","takashio":"×","jishin":"○","tsunami":"×","kaji":"○","naisui":"○","kazan":"×"}}
,{"type":"Feature","geometry":{"type":"Point","coordinates":[139.332,36.403]},"properties":{"Name":"錦町二丁目児童公園","Jusho":"群馬県桐生市錦町2-1305-1","kouzui":"×","gake":"○","takashio":"×","jishin":"○","tsunami":"×","kaji":"×","naisui":"×","kazan":"×"}}
,{"type":"Feature","geometry":{"type":"Point","coordinates":[139.328,36.413]},"properties":{"Name":"（旧）元宿保育園","Jusho":"群馬県桐生市元宿町3-16","kouzui":"○","gake":"○","takashio":"×","jishin":"×","tsunami":"×","kaji":"×","naisui":"○","kazan":"×"}}
,{"type":"Feature","geometry":{"type":"Point","coordinates":[139.324,36.394]},"properties":{"Name":"桜木中学校","Jusho":"群馬県桐生市広沢町1-2874","kouzui":"○","gake":"○","takashio":"×","jishin":"○","tsunami":"×","kaji":"○","naisui":"○","kazan":"×"}}
,{"type":"Feature","geometry":{"type":"Point","coordinates":[139.326,36.396]},"properties":{"Name":"認定こども園おおぞら","Jusho":"群馬県桐生市広沢町1-2903-2","kouzui":"○","gake":"○","takashio":"×","jishin":"×","tsunami":"×","kaji":"×","naisui":"○","kazan":"×"}}
,{"type":"Feature","geometry":{"type":"Point","coordinates":[139.323,36.392]},"properties":{"Name":"広沢町児童遊園","Jusho":"群馬県桐生市広沢町2-3165-47","kouzui":"○","gake":"○","takashio":"×","jishin":"○","tsunami":"×","kaji":"×","naisui":"○","kazan":"×"}}
,{"type":"Feature","geometry":{"type":"Point","coordinates":[139.321,36.389]},"properties":{"Name":"神明小学校","Jusho":"群馬県桐生市広沢町2-3242-1","kouzui":"○","gake":"○","takashio":"×","jishin":"○","tsunami":"×","kaji":"○","naisui":"○","kazan":"×"}}
,{"type":"Feature","geometry":{"type":"Point","coordinates":[139.325,36.389]},"properties":{"Name":"桜木公民館","Jusho":"群馬県桐生市広沢町2-3334-1","kouzui":"○","gake":"○","takashio":"×","jishin":"○","tsunami":"×","kaji":"×","naisui":"○","kazan":"×"}}
,{"type":"Feature","geometry":{"type":"Point","coordinates":[139.316,36.387]},"properties":{"Name":"ＫＩＲＩＮＡＮ　ＢＡＳＥ（旧桐生南高等学校）","Jusho":"群馬県桐生市広沢町3-4193","kouzui":"×","gake":"×","takashio":"×","jishin":"○","tsunami":"×","kaji":"×","naisui":"×","kazan":"×"}}
,{"type":"Feature","geometry":{"type":"Point","coordinates":[139.341,36.38]},"properties":{"Name":"広沢中学校","Jusho":"群馬県桐生市広沢町4-1864-2","kouzui":"○","gake":"○","takashio":"×","jishin":"○","tsunami":"×","kaji":"○","naisui":"○","kazan":"×"}}
,{"type":"Feature","geometry":{"type":"Point","coordinates":[139.343,36.384]},"properties":{"Name":"広沢公民館","Jusho":"群馬県桐生市広沢町4-1970-172","kouzui":"○","gake":"○","takashio":"×","jishin":"○","tsunami":"×","kaji":"×","naisui":"○","kazan":"×"}}
,{"type":"Feature","geometry":{"type":"Point","coordinates":[139.339,36.381]},"properties":{"Name":"広沢小学校","Jusho":"群馬県桐生市広沢町4-2044-2","kouzui":"○","gake":"○","takashio":"×","jishin":"○","tsunami":"×","kaji":"○","naisui":"○","kazan":"×"}}
,{"type":"Feature","geometry":{"type":"Point","coordinates":[139.339,36.382]},"properties":{"Name":"広沢幼稚園","Jusho":"群馬県桐生市広沢町4-2099","kouzui":"○","gake":"○","takashio":"×","jishin":"×","tsunami":"×","kaji":"×","naisui":"○","kazan":"×"}}
,{"type":"Feature","geometry":{"type":"Point","coordinates":[139.336,36.374]},"properties":{"Name":"桐生市南公園","Jusho":"群馬県桐生市広沢町5-4716-11","kouzui":"○","gake":"○","takashio":"×","jishin":"○","tsunami":"×","kaji":"○","naisui":"○","kazan":"×"}}
,{"type":"Feature","geometry":{"type":"Point","coordinates":[139.352,36.378]},"properties":{"Name":"広沢老人憩の家","Jusho":"群馬県桐生市広沢町6-1103-1","kouzui":"×","gake":"○","takashio":"×","jishin":"×","tsunami":"×","kaji":"×","naisui":"×","kazan":"×"}}
,{"type":"Feature","geometry":{"type":"Point","coordinates":[139.352,36.37]},"properties":{"Name":"広沢南部保育園","Jusho":"群馬県桐生市広沢町6-606","kouzui":"○","gake":"×","takashio":"×","jishin":"×","tsunami":"×","kaji":"×","naisui":"○","kazan":"×"}}
,{"type":"Feature","geometry":{"type":"Point","coordinates":[139.351,36.372]},"properties":{"Name":"広沢町六丁目公園","Jusho":"群馬県桐生市広沢町6-845-11","kouzui":"○","gake":"○","takashio":"×","jishin":"○","tsunami":"×","kaji":"×","naisui":"○","kazan":"×"}}
,{"type":"Feature","geometry":{"type":"Point","coordinates":[139.367,36.364]},"properties":{"Name":"桐生水質浄化センター","Jusho":"群馬県桐生市広沢町7-5005","kouzui":"○","gake":"○","takashio":"×","jishin":"×","tsunami":"×","kaji":"○","naisui":"○","kazan":"×"}}
,{"type":"Feature","geometry":{"type":"Point","coordinates":[139.366,36.365]},"properties":{"Name":"一本木会館","Jusho":"群馬県桐生市広沢町7-5022-4","kouzui":"○","gake":"○","takashio":"×","jishin":"×","tsunami":"×","kaji":"×","naisui":"○","kazan":"×"}}
,{"type":"Feature","geometry":{"type":"Point","coordinates":[139.358,36.374]},"properties":{"Name":"松原橋公園","Jusho":"群馬県桐生市広沢町６地内","kouzui":"×","gake":"○","takashio":"×","jishin":"○","tsunami":"×","kaji":"○","naisui":"×","kazan":"×"}}
,{"type":"Feature","geometry":{"type":"Point","coordinates":[139.341,36.387]},"properties":{"Name":"間ノ島児童公園","Jusho":"群馬県桐生市広沢町間ノ島21-24","kouzui":"×","gake":"○","takashio":"×","jishin":"○","tsunami":"×","kaji":"×","naisui":"×","kazan":"×"}}
,{"type":"Feature","geometry":{"type":"Point","coordinates":[139.274,36.51]},"properties":{"Name":"清水集会所","Jusho":"群馬県桐生市黒保根町下田沢1274-1","kouzui":"○","gake":"○","takashio":"×","jishin":"×","tsunami":"×","kaji":"×","naisui":"○","kazan":"×"}}
,{"type":"Feature","geometry":{"type":"Point","coordinates":[139.276,36.495]},"properties":{"Name":"津久瀬集会所","Jusho":"群馬県桐生市黒保根町下田沢14-4","kouzui":"○","gake":"×","takashio":"×","jishin":"×","tsunami":"×","kaji":"×","naisui":"○","kazan":"×"}}
,{"type":"Feature","geometry":{"type":"Point","coordinates":[139.253,36.521]},"properties":{"Name":"鹿角集会所","Jusho":"群馬県桐生市黒保根町下田沢1439","kouzui":"○","gake":"○","takashio":"×","jishin":"×","tsunami":"×","kaji":"×","naisui":"○","kazan":"×"}}
,{"type":"Feature","geometry":{"type":"Point","coordinates":[139.255,36.553]},"properties":{"Name":"楡沢集会所","Jusho":"群馬県桐生市黒保根町下田沢1992","kouzui":"○","gake":"×","takashio":"×","jishin":"×","tsunami":"×","kaji":"×","naisui":"○","kazan":"×"}}
,{"type":"Feature","geometry":{"type":"Point","coordinates":[139.269,36.498]},"properties":{"Name":"前田原集会所","Jusho":"群馬県桐生市黒保根町下田沢243-5","kouzui":"○","gake":"○","takashio":"×","jishin":"×","tsunami":"×","kaji":"×","naisui":"○","kazan":"×"}}
,{"type":"Feature","geometry":{"type":"Point","coordinates":[139.248,36.515]},"properties":{"Name":"柏山上集会所","Jusho":"群馬県桐生市黒保根町下田沢2790-49","kouzui":"○","gake":"○","takashio":"×","jishin":"×","tsunami":"×","kaji":"×","naisui":"○","kazan":"×"}}
,{"type":"Feature","geometry":{"type":"Point","coordinates":[139.254,36.503]},"properties":{"Name":"出合原集会所","Jusho":"群馬県桐生市黒保根町下田沢612","kouzui":"○","gake":"○","takashio":"×","jishin":"×","tsunami":"×","kaji":"×","naisui":"○","kazan":"×"}}
,{"type":"Feature","geometry":{"type":"Point","coordinates":[139.259,36.512]},"properties":{"Name":"下田沢集会所","Jusho":"群馬県桐生市黒保根町下田沢甲964","kouzui":"○","gake":"○","takashio":"×","jishin":"×","tsunami":"×","kaji":"×","naisui":"○","kazan":"×"}}
,{"type":"Feature","geometry":{"type":"Point","coordinates":[139.258,36.483]},"properties":{"Name":"宿廻集会所","Jusho":"群馬県桐生市黒保根町宿廻131","kouzui":"○","gake":"○","takashio":"×","jishin":"×","tsunami":"×","kaji":"×","naisui":"○","kazan":"×"}}
,{"type":"Feature","geometry":{"type":"Point","coordinates":[139.255,36.485]},"properties":{"Name":"城集会所","Jusho":"群馬県桐生市黒保根町宿廻563-4","kouzui":"○","gake":"○","takashio":"×","jishin":"×","tsunami":"×","kaji":"×","naisui":"○","kazan":"×"}}
,{"type":"Feature","geometry":{"type":"Point","coordinates":[139.259,36.491]},"properties":{"Name":"川口集会所","Jusho":"群馬県桐生市黒保根町宿廻639-7","kouzui":"○","gake":"×","takashio":"×","jishin":"×","tsunami":"×","kaji":"×","naisui":"○","kazan":"×"}}
,{"type":"Feature","geometry":{"type":"Point","coordinates":[139.277,36.534]},"properties":{"Name":"栗生・鷲ノ手集会所","Jusho":"群馬県桐生市黒保根町上田沢2218","kouzui":"○","gake":"○","takashio":"×","jishin":"×","tsunami":"×","kaji":"×","naisui":"○","kazan":"×"}}
,{"type":"Feature","geometry":{"type":"Point","coordinates":[139.275,36.517]},"properties":{"Name":"涌丸集会所","Jusho":"群馬県桐生市黒保根町上田沢286-1","kouzui":"○","gake":"○","takashio":"×","jishin":"×","tsunami":"×","kaji":"×","naisui":"○","kazan":"×"}}
,{"type":"Feature","geometry":{"type":"Point","coordinates":[139.285,36.528]},"properties":{"Name":"上田沢集会所","Jusho":"群馬県桐生市黒保根町上田沢672","kouzui":"○","gake":"×","takashio":"×","jishin":"×","tsunami":"×","kaji":"×","naisui":"○","kazan":"×"}}
,{"type":"Feature","geometry":{"type":"Point","coordinates":[139.284,36.502]},"properties":{"Name":"黒保根保育園","Jusho":"群馬県桐生市黒保根町水沼199-1","kouzui":"○","gake":"×","takashio":"×","jishin":"×","tsunami":"×","kaji":"○","naisui":"○","kazan":"×"}}
,{"type":"Feature","geometry":{"type":"Point","coordinates":[139.282,36.506]},"properties":{"Name":"旧黒保根中学校","Jusho":"群馬県桐生市黒保根町水沼342-7","kouzui":"○","gake":"○","takashio":"×","jishin":"○","tsunami":"×","kaji":"○","naisui":"○","kazan":"×"}}
,{"type":"Feature","geometry":{"type":"Point","coordinates":[139.285,36.507]},"properties":{"Name":"黒保根学園","Jusho":"群馬県桐生市黒保根町水沼400","kouzui":"○","gake":"○","takashio":"×","jishin":"○","tsunami":"×","kaji":"○","naisui":"○","kazan":"×"}}
,{"type":"Feature","geometry":{"type":"Point","coordinates":[139.291,36.505]},"properties":{"Name":"黒保根町交流促進センター","Jusho":"群馬県桐生市黒保根町水沼549-1","kouzui":"○","gake":"○","takashio":"×","jishin":"○","tsunami":"×","kaji":"○","naisui":"○","kazan":"×"}}
,{"type":"Feature","geometry":{"type":"Point","coordinates":[139.292,36.505]},"properties":{"Name":"黒保根町保健センター","Jusho":"群馬県桐生市黒保根町水沼562-3","kouzui":"○","gake":"○","takashio":"×","jishin":"○","tsunami":"×","kaji":"○","naisui":"○","kazan":"×"}}
,{"type":"Feature","geometry":{"type":"Point","coordinates":[139.283,36.5]},"properties":{"Name":"八木原集会所","Jusho":"群馬県桐生市黒保根町八木原173","kouzui":"×","gake":"○","takashio":"×","jishin":"×","tsunami":"×","kaji":"×","naisui":"×","kazan":"×"}}
,{"type":"Feature","geometry":{"type":"Point","coordinates":[139.337,36.415]},"properties":{"Name":"西小学校","Jusho":"群馬県桐生市小曽根町1-9","kouzui":"○","gake":"○","takashio":"×","jishin":"○","tsunami":"×","kaji":"○","naisui":"○","kazan":"×"}}
,{"type":"Feature","geometry":{"type":"Point","coordinates":[139.336,36.416]},"properties":{"Name":"西運動場","Jusho":"群馬県桐生市小曽根町3-30","kouzui":"○","gake":"○","takashio":"×","jishin":"×","tsunami":"×","kaji":"○","naisui":"○","kazan":"×"}}
,{"type":"Feature","geometry":{"type":"Point","coordinates":[139.334,36.415]},"properties":{"Name":"西幼稚園","Jusho":"群馬県桐生市小曽根町6-1","kouzui":"○","gake":"○","takashio":"×","jishin":"○","tsunami":"×","kaji":"×","naisui":"○","kazan":"×"}}
,{"type":"Feature","geometry":{"type":"Point","coordinates":[139.338,36.394]},"properties":{"Name":"小梅琴平公園","Jusho":"群馬県桐生市小梅町","kouzui":"×","gake":"○","takashio":"×","jishin":"○","tsunami":"×","kaji":"○","naisui":"×","kazan":"×"}}
,{"type":"Feature","geometry":{"type":"Point","coordinates":[139.329,36.405]},"properties":{"Name":"桐生市市民文化会館","Jusho":"群馬県桐生市織姫町2-5","kouzui":"○","gake":"○","takashio":"×","jishin":"×","tsunami":"×","kaji":"○","naisui":"○","kazan":"×"}}
,{"type":"Feature","geometry":{"type":"Point","coordinates":[139.329,36.404]},"properties":{"Name":"桐生地域地場産業　振興センター","Jusho":"群馬県桐生市織姫町2-5","kouzui":"○","gake":"○","takashio":"×","jishin":"×","tsunami":"×","kaji":"○","naisui":"○","kazan":"×"}}
,{"type":"Feature","geometry":{"type":"Point","coordinates":[139.339,36.4]},"properties":{"Name":"南小学校","Jusho":"群馬県桐生市新宿2-7-1","kouzui":"○","gake":"○","takashio":"×","jishin":"○","tsunami":"×","kaji":"○","naisui":"○","kazan":"×"}}
,{"type":"Feature","geometry":{"type":"Point","coordinates":[139.344,36.394]},"properties":{"Name":"南体育館・運動場","Jusho":"群馬県桐生市新宿3-3-19","kouzui":"○","gake":"○","takashio":"×","jishin":"○","tsunami":"×","kaji":"○","naisui":"○","kazan":"×"}}
,{"type":"Feature","geometry":{"type":"Point","coordinates":[139.343,36.397]},"properties":{"Name":"南公民館","Jusho":"群馬県桐生市新宿3-9-52","kouzui":"○","gake":"○","takashio":"×","jishin":"○","tsunami":"×","kaji":"×","naisui":"○","kazan":"×"}}
,{"type":"Feature","geometry":{"type":"Point","coordinates":[139.254,36.45]},"properties":{"Name":"新里町奥沢地区集会所","Jusho":"群馬県桐生市新里町奥沢476","kouzui":"○","gake":"○","takashio":"×","jishin":"×","tsunami":"×","kaji":"×","naisui":"○","kazan":"×"}}
,{"type":"Feature","geometry":{"type":"Point","coordinates":[139.228,36.427]},"properties":{"Name":"山上城跡公園","Jusho":"群馬県桐生市新里町山上297-1","kouzui":"○","gake":"○","takashio":"×","jishin":"○","tsunami":"×","kaji":"○","naisui":"○","kazan":"×"}}
,{"type":"Feature","geometry":{"type":"Point","coordinates":[139.238,36.429]},"properties":{"Name":"新里中学校","Jusho":"群馬県桐生市新里町山上827","kouzui":"○","gake":"○","takashio":"×","jishin":"○","tsunami":"×","kaji":"○","naisui":"○","kazan":"×"}}
,{"type":"Feature","geometry":{"type":"Point","coordinates":[139.237,36.429]},"properties":{"Name":"新里社会体育館","Jusho":"群馬県桐生市新里町山上828-1","kouzui":"○","gake":"○","takashio":"×","jishin":"○","tsunami":"×","kaji":"○","naisui":"○","kazan":"×"}}
,{"type":"Feature","geometry":{"type":"Point","coordinates":[139.237,36.422]},"properties":{"Name":"新里中央小学校","Jusho":"群馬県桐生市新里町小林甲60","kouzui":"○","gake":"○","takashio":"×","jishin":"○","tsunami":"×","kaji":"○","naisui":"○","kazan":"×"}}
,{"type":"Feature","geometry":{"type":"Point","coordinates":[139.257,36.421]},"properties":{"Name":"新里東小学校","Jusho":"群馬県桐生市新里町新川2072","kouzui":"○","gake":"○","takashio":"×","jishin":"○","tsunami":"×","kaji":"○","naisui":"○","kazan":"×"}}
,{"type":"Feature","geometry":{"type":"Point","coordinates":[139.267,36.422]},"properties":{"Name":"東新川駅北公園","Jusho":"群馬県桐生市新里町新川3783-1","kouzui":"○","gake":"○","takashio":"×","jishin":"○","tsunami":"×","kaji":"×","naisui":"○","kazan":"×"}}
,{"type":"Feature","geometry":{"type":"Point","coordinates":[139.27,36.417]},"properties":{"Name":"八幡原公園","Jusho":"群馬県桐生市新里町新川741-11","kouzui":"○","gake":"○","takashio":"×","jishin":"○","tsunami":"×","kaji":"×","naisui":"○","kazan":"×"}}
,{"type":"Feature","geometry":{"type":"Point","coordinates":[139.233,36.45]},"properties":{"Name":"新里北小学校","Jusho":"群馬県桐生市新里町大久保302","kouzui":"○","gake":"○","takashio":"×","jishin":"○","tsunami":"×","kaji":"○","naisui":"○","kazan":"×"}}
,{"type":"Feature","geometry":{"type":"Point","coordinates":[139.252,36.444]},"properties":{"Name":"上鶴ヶ谷住民センター","Jusho":"群馬県桐生市新里町鶴ケ谷521","kouzui":"○","gake":"○","takashio":"×","jishin":"×","tsunami":"×","kaji":"×","naisui":"○","kazan":"×"}}
,{"type":"Feature","geometry":{"type":"Point","coordinates":[139.238,36.408]},"properties":{"Name":"武井遺跡公園","Jusho":"群馬県桐生市新里町武井1100-2","kouzui":"○","gake":"○","takashio":"×","jishin":"○","tsunami":"×","kaji":"×","naisui":"○","kazan":"×"}}
,{"type":"Feature","geometry":{"type":"Point","coordinates":[139.237,36.398]},"properties":{"Name":"新里福祉センター","Jusho":"群馬県桐生市新里町野397-1","kouzui":"×","gake":"○","takashio":"×","jishin":"×","tsunami":"×","kaji":"○","naisui":"○","kazan":"×"}}
,{"type":"Feature","geometry":{"type":"Point","coordinates":[139.325,36.408]},"properties":{"Name":"商業高等学校","Jusho":"群馬県桐生市清瀬町6-1","kouzui":"○","gake":"○","takashio":"×","jishin":"○","tsunami":"×","kaji":"○","naisui":"○","kazan":"×"}}
,{"type":"Feature","geometry":{"type":"Point","coordinates":[139.345,36.423]},"properties":{"Name":"桐生工業高等学校","Jusho":"群馬県桐生市西久方町1-1-41","kouzui":"○","gake":"○","takashio":"×","jishin":"○","tsunami":"×","kaji":"○","naisui":"○","kazan":"×"}}
,{"type":"Feature","geometry":{"type":"Point","coordinates":[139.343,36.422]},"properties":{"Name":"旧北幼稚園","Jusho":"群馬県桐生市西久方町1-4-9","kouzui":"○","gake":"○","takashio":"×","jishin":"×","tsunami":"×","kaji":"×","naisui":"○","kazan":"×"}}
,{"type":"Feature","geometry":{"type":"Point","coordinates":[139.346,36.425]},"properties":{"Name":"北中学校跡","Jusho":"群馬県桐生市西久方町1-9-1","kouzui":"○","gake":"×","takashio":"×","jishin":"×","tsunami":"×","kaji":"○","naisui":"○","kazan":"×"}}
,{"type":"Feature","geometry":{"type":"Point","coordinates":[139.341,36.418]},"properties":{"Name":"北小学校","Jusho":"群馬県桐生市西久方町2-1-5","kouzui":"○","gake":"○","takashio":"×","jishin":"○","tsunami":"×","kaji":"○","naisui":"○","kazan":"×"}}
,{"type":"Feature","geometry":{"type":"Point","coordinates":[139.31,36.427]},"properties":{"Name":"鷹ノ巣１号公園","Jusho":"群馬県桐生市川内町2-91","kouzui":"○","gake":"○","takashio":"×","jishin":"○","tsunami":"×","kaji":"○","naisui":"○","kazan":"×"}}
,{"type":"Feature","geometry":{"type":"Point","coordinates":[139.306,36.434]},"properties":{"Name":"新堀公園","Jusho":"群馬県桐生市川内町3-532","kouzui":"○","gake":"○","takashio":"×","jishin":"○","tsunami":"×","kaji":"×","naisui":"○","kazan":"×"}}
,{"type":"Feature","geometry":{"type":"Point","coordinates":[139.305,36.433]},"properties":{"Name":"川内小学校","Jusho":"群馬県桐生市川内町3-572","kouzui":"○","gake":"○","takashio":"×","jishin":"○","tsunami":"×","kaji":"○","naisui":"○","kazan":"×"}}
,{"type":"Feature","geometry":{"type":"Point","coordinates":[139.312,36.446]},"properties":{"Name":"みやま園","Jusho":"群馬県桐生市川内町5-1199","kouzui":"×","gake":"○","takashio":"×","jishin":"×","tsunami":"×","kaji":"×","naisui":"○","kazan":"×"}}
,{"type":"Feature","geometry":{"type":"Point","coordinates":[139.307,36.439]},"properties":{"Name":"川内中学校","Jusho":"群馬県桐生市川内町5-358","kouzui":"○","gake":"○","takashio":"×","jishin":"○","tsunami":"×","kaji":"○","naisui":"○","kazan":"×"}}
,{"type":"Feature","geometry":{"type":"Point","coordinates":[139.308,36.441]},"properties":{"Name":"川内長寿センター","Jusho":"群馬県桐生市川内町5-398-1","kouzui":"○","gake":"○","takashio":"×","jishin":"○","tsunami":"×","kaji":"○","naisui":"○","kazan":"×"}}
,{"type":"Feature","geometry":{"type":"Point","coordinates":[139.319,36.399]},"properties":{"Name":"桜木小学校","Jusho":"群馬県桐生市相生町1-383","kouzui":"○","gake":"○","takashio":"×","jishin":"○","tsunami":"×","kaji":"○","naisui":"○","kazan":"×"}}
,{"type":"Feature","geometry":{"type":"Point","coordinates":[139.318,36.399]},"properties":{"Name":"桜木西公民館","Jusho":"群馬県桐生市相生町1-451-1","kouzui":"○","gake":"○","takashio":"×","jishin":"○","tsunami":"×","kaji":"×","naisui":"○","kazan":"×"}}
,{"type":"Feature","geometry":{"type":"Point","coordinates":[139.311,36.404]},"properties":{"Name":"足仲児童公園","Jusho":"群馬県桐生市相生町1-507-9","kouzui":"○","gake":"○","takashio":"×","jishin":"○","tsunami":"×","kaji":"×","naisui":"○","kazan":"×"}}
,{"type":"Feature","geometry":{"type":"Point","coordinates":[139.316,36.412]},"properties":{"Name":"赤岩児童公園","Jusho":"群馬県桐生市相生町2-265-7","kouzui":"×","gake":"○","takashio":"×","jishin":"○","tsunami":"×","kaji":"×","naisui":"×","kazan":"×"}}
,{"type":"Feature","geometry":{"type":"Point","coordinates":[139.311,36.413]},"properties":{"Name":"相生幼稚園","Jusho":"群馬県桐生市相生町2-408-9","kouzui":"○","gake":"○","takashio":"×","jishin":"○","tsunami":"×","kaji":"×","naisui":"○","kazan":"×"}}
,{"type":"Feature","geometry":{"type":"Point","coordinates":[139.31,36.413]},"properties":{"Name":"相生小学校","Jusho":"群馬県桐生市相生町2-420","kouzui":"○","gake":"○","takashio":"×","jishin":"○","tsunami":"×","kaji":"○","naisui":"○","kazan":"×"}}
,{"type":"Feature","geometry":{"type":"Point","coordinates":[139.305,36.416]},"properties":{"Name":"相生保育園","Jusho":"群馬県桐生市相生町2-421-1","kouzui":"○","gake":"○","takashio":"×","jishin":"×","tsunami":"×","kaji":"×","naisui":"○","kazan":"×"}}
,{"type":"Feature","geometry":{"type":"Point","coordinates":[139.304,36.415]},"properties":{"Name":"愛宕児童公園","Jusho":"群馬県桐生市相生町2-486-17","kouzui":"○","gake":"○","takashio":"×","jishin":"○","tsunami":"×","kaji":"×","naisui":"○","kazan":"×"}}
,{"type":"Feature","geometry":{"type":"Point","coordinates":[139.302,36.412]},"properties":{"Name":"相生公民館","Jusho":"群馬県桐生市相生町2-620-14","kouzui":"○","gake":"○","takashio":"×","jishin":"○","tsunami":"×","kaji":"×","naisui":"○","kazan":"×"}}
,{"type":"Feature","geometry":{"type":"Point","coordinates":[139.3,36.42]},"properties":{"Name":"桐生市民体育館","Jusho":"群馬県桐生市相生町3-300","kouzui":"○","gake":"○","takashio":"×","jishin":"○","tsunami":"×","kaji":"○","naisui":"○","kazan":"×"}}
,{"type":"Feature","geometry":{"type":"Point","coordinates":[139.302,36.425]},"properties":{"Name":"桐生清桜高等学校","Jusho":"群馬県桐生市相生町3-551-1","kouzui":"○","gake":"○","takashio":"×","jishin":"○","tsunami":"×","kaji":"○","naisui":"○","kazan":"×"}}
,{"type":"Feature","geometry":{"type":"Point","coordinates":[139.298,36.425]},"properties":{"Name":"すみれ保育園","Jusho":"群馬県桐生市相生町3-593-15","kouzui":"○","gake":"×","takashio":"×","jishin":"×","tsunami":"×","kaji":"×","naisui":"○","kazan":"×"}}
,{"type":"Feature","geometry":{"type":"Point","coordinates":[139.31,36.419]},"properties":{"Name":"市民広場","Jusho":"群馬県桐生市相生町3-722-2","kouzui":"×","gake":"○","takashio":"×","jishin":"○","tsunami":"×","kaji":"○","naisui":"×","kazan":"×"}}
,{"type":"Feature","geometry":{"type":"Point","coordinates":[139.3,36.409]},"properties":{"Name":"相生中学校","Jusho":"群馬県桐生市相生町5-247","kouzui":"○","gake":"○","takashio":"×","jishin":"○","tsunami":"×","kaji":"○","naisui":"○","kazan":"×"}}
,{"type":"Feature","geometry":{"type":"Point","coordinates":[139.295,36.416]},"properties":{"Name":"相生町児童公園","Jusho":"群馬県桐生市相生町5-436-6","kouzui":"○","gake":"○","takashio":"×","jishin":"○","tsunami":"×","kaji":"×","naisui":"○","kazan":"×"}}
,{"type":"Feature","geometry":{"type":"Point","coordinates":[139.291,36.413]},"properties":{"Name":"相生町五丁目７号公園","Jusho":"群馬県桐生市相生町5-554-3","kouzui":"○","gake":"○","takashio":"×","jishin":"○","tsunami":"×","kaji":"×","naisui":"○","kazan":"×"}}
,{"type":"Feature","geometry":{"type":"Point","coordinates":[139.295,36.408]},"properties":{"Name":"天沼小学校","Jusho":"群馬県桐生市相生町5-713-1","kouzui":"○","gake":"○","takashio":"×","jishin":"○","tsunami":"×","kaji":"○","naisui":"○","kazan":"×"}}
,{"type":"Feature","geometry":{"type":"Point","coordinates":[139.319,36.398]},"properties":{"Name":"桜木幼稚園","Jusho":"群馬県桐生市相生町１－乙394","kouzui":"○","gake":"○","takashio":"×","jishin":"×","tsunami":"×","kaji":"×","naisui":"○","kazan":"×"}}
,{"type":"Feature","geometry":{"type":"Point","coordinates":[139.344,36.415]},"properties":{"Name":"東町児童公園","Jusho":"群馬県桐生市仲町1-832","kouzui":"×","gake":"○","takashio":"×","jishin":"○","tsunami":"×","kaji":"×","naisui":"×","kazan":"×"}}
,{"type":"Feature","geometry":{"type":"Point","coordinates":[139.343,36.41]},"properties":{"Name":"東小学校","Jusho":"群馬県桐生市仲町2-4-21","kouzui":"○","gake":"○","takashio":"×","jishin":"○","tsunami":"×","kaji":"○","naisui":"○","kazan":"×"}}
,{"type":"Feature","geometry":{"type":"Point","coordinates":[139.35,36.423]},"properties":{"Name":"群馬大学理工学部　体育館・工学部会館・　駐車場・テニスコート","Jusho":"群馬県桐生市天神町1-5-1","kouzui":"○","gake":"○","takashio":"×","jishin":"×","tsunami":"×","kaji":"○","naisui":"○","kazan":"×"}}
,{"type":"Feature","geometry":{"type":"Point","coordinates":[139.355,36.43]},"properties":{"Name":"ふれあいホーム","Jusho":"群馬県桐生市天神町3-14-16","kouzui":"×","gake":"○","takashio":"×","jishin":"×","tsunami":"×","kaji":"×","naisui":"×","kazan":"×"}}
,{"type":"Feature","geometry":{"type":"Point","coordinates":[139.354,36.427]},"properties":{"Name":"天神町児童公園","Jusho":"群馬県桐生市天神町3-344","kouzui":"×","gake":"○","takashio":"×","jishin":"○","tsunami":"×","kaji":"×","naisui":"×","kazan":"×"}}
,{"type":"Feature","geometry":{"type":"Point","coordinates":[139.347,36.413]},"properties":{"Name":"東一丁目児童公園","Jusho":"群馬県桐生市東1-910-22","kouzui":"×","gake":"○","takashio":"×","jishin":"○","tsunami":"×","kaji":"×","naisui":"×","kazan":"×"}}
,{"type":"Feature","geometry":{"type":"Point","coordinates":[139.35,36.413]},"properties":{"Name":"東三丁目児童公園","Jusho":"群馬県桐生市東3-1010","kouzui":"×","gake":"○","takashio":"×","jishin":"○","tsunami":"×","kaji":"×","naisui":"×","kazan":"×"}}
,{"type":"Feature","geometry":{"type":"Point","coordinates":[139.35,36.41]},"properties":{"Name":"清流中学校","Jusho":"群馬県桐生市東3-7-1","kouzui":"○","gake":"○","takashio":"×","jishin":"○","tsunami":"×","kaji":"○","naisui":"○","kazan":"×"}}
,{"type":"Feature","geometry":{"type":"Point","coordinates":[139.347,36.408]},"properties":{"Name":"らららこども園","Jusho":"群馬県桐生市東5-6-47","kouzui":"×","gake":"○","takashio":"×","jishin":"×","tsunami":"×","kaji":"×","naisui":"×","kazan":"×"}}
,{"type":"Feature","geometry":{"type":"Point","coordinates":[139.347,36.408]},"properties":{"Name":"東公民館","Jusho":"群馬県桐生市東5-6-8","kouzui":"○","gake":"○","takashio":"×","jishin":"○","tsunami":"×","kaji":"×","naisui":"○","kazan":"×"}}
,{"type":"Feature","geometry":{"type":"Point","coordinates":[139.344,36.404]},"properties":{"Name":"清水町児童公園","Jusho":"群馬県桐生市東7-17-1","kouzui":"×","gake":"○","takashio":"×","jishin":"○","tsunami":"×","kaji":"×","naisui":"×","kazan":"×"}}
,{"type":"Feature","geometry":{"type":"Point","coordinates":[139.347,36.417]},"properties":{"Name":"北公民館","Jusho":"群馬県桐生市東久方町3-3-26","kouzui":"○","gake":"○","takashio":"×","jishin":"×","tsunami":"×","kaji":"×","naisui":"○","kazan":"×"}}
,{"type":"Feature","geometry":{"type":"Point","coordinates":[139.357,36.435]},"properties":{"Name":"（仮称）第３Ｎ高等学校（旧桐生女子高等学校）","Jusho":"群馬県桐生市梅田町1-185-1","kouzui":"×","gake":"×","takashio":"×","jishin":"○","tsunami":"×","kaji":"×","naisui":"×","kazan":"×"}}
,{"type":"Feature","geometry":{"type":"Point","coordinates":[139.358,36.438]},"properties":{"Name":"たかぞのこども園","Jusho":"群馬県桐生市梅田町1-273-1","kouzui":"○","gake":"○","takashio":"×","jishin":"×","tsunami":"×","kaji":"×","naisui":"○","kazan":"×"}}
,{"type":"Feature","geometry":{"type":"Point","coordinates":[139.38,36.452]},"properties":{"Name":"梅田南小学校","Jusho":"群馬県桐生市梅田町2-179","kouzui":"○","gake":"○","takashio":"×","jishin":"○","tsunami":"×","kaji":"○","naisui":"○","kazan":"×"}}
,{"type":"Feature","geometry":{"type":"Point","coordinates":[139.383,36.456]},"properties":{"Name":"梅田中学校","Jusho":"群馬県桐生市梅田町2-347-1","kouzui":"○","gake":"×","takashio":"×","jishin":"○","tsunami":"×","kaji":"○","naisui":"○","kazan":"×"}}
,{"type":"Feature","geometry":{"type":"Point","coordinates":[139.411,36.499]},"properties":{"Name":"梅田ふるさとセンター","Jusho":"群馬県桐生市梅田町5-7568-1","kouzui":"○","gake":"×","takashio":"×","jishin":"×","tsunami":"×","kaji":"×","naisui":"○","kazan":"×"}}
,{"type":"Feature","geometry":{"type":"Point","coordinates":[139.329,36.409]},"properties":{"Name":"桐生高等学校","Jusho":"群馬県桐生市美原町1-39","kouzui":"○","gake":"○","takashio":"×","jishin":"○","tsunami":"×","kaji":"○","naisui":"○","kazan":"×"}}
,{"type":"Feature","geometry":{"type":"Point","coordinates":[139.329,36.407]},"properties":{"Name":"中央中学校","Jusho":"群馬県桐生市美原町2-15","kouzui":"○","gake":"○","takashio":"×","jishin":"○","tsunami":"×","kaji":"○","naisui":"○","kazan":"×"}}
,{"type":"Feature","geometry":{"type":"Point","coordinates":[139.329,36.407]},"properties":{"Name":"昭和小学校跡","Jusho":"群馬県桐生市美原町2-5","kouzui":"○","gake":"○","takashio":"×","jishin":"○","tsunami":"×","kaji":"○","naisui":"○","kazan":"×"}}
,{"type":"Feature","geometry":{"type":"Point","coordinates":[139.328,36.407]},"properties":{"Name":"昭和公民館","Jusho":"群馬県桐生市美原町3-6","kouzui":"○","gake":"○","takashio":"×","jishin":"○","tsunami":"×","kaji":"×","naisui":"○","kazan":"×"}}
,{"type":"Feature","geometry":{"type":"Point","coordinates":[139.349,36.402]},"properties":{"Name":"城の岡西公園","Jusho":"群馬県桐生市菱町1-3401-2","kouzui":"○","gake":"○","takashio":"×","jishin":"○","tsunami":"×","kaji":"×","naisui":"○","kazan":"×"}}
,{"type":"Feature","geometry":{"type":"Point","coordinates":[139.352,36.402]},"properties":{"Name":"城の岡東公園","Jusho":"群馬県桐生市菱町1-3405-1","kouzui":"○","gake":"×","takashio":"×","jishin":"○","tsunami":"×","kaji":"×","naisui":"○","kazan":"×"}}
,{"type":"Feature","geometry":{"type":"Point","coordinates":[139.35,36.4]},"properties":{"Name":"城の岡南公園","Jusho":"群馬県桐生市菱町1-3416-6","kouzui":"○","gake":"○","takashio":"×","jishin":"○","tsunami":"×","kaji":"×","naisui":"○","kazan":"×"}}
,{"type":"Feature","geometry":{"type":"Point","coordinates":[139.361,36.406]},"properties":{"Name":"群馬大学理工学部　菱グラウンド","Jusho":"群馬県桐生市菱町1-539-1","kouzui":"×","gake":"×","takashio":"×","jishin":"○","tsunami":"×","kaji":"○","naisui":"×","kazan":"×"}}
,{"type":"Feature","geometry":{"type":"Point","coordinates":[139.359,36.41]},"properties":{"Name":"菱公民館","Jusho":"群馬県桐生市菱町2-1349-1","kouzui":"○","gake":"○","takashio":"×","jishin":"○","tsunami":"×","kaji":"×","naisui":"○","kazan":"×"}}
,{"type":"Feature","geometry":{"type":"Point","coordinates":[139.357,36.413]},"properties":{"Name":"菱小学校","Jusho":"群馬県桐生市菱町2-1919-1","kouzui":"○","gake":"○","takashio":"×","jishin":"○","tsunami":"×","kaji":"○","naisui":"○","kazan":"×"}}
,{"type":"Feature","geometry":{"type":"Point","coordinates":[139.357,36.414]},"properties":{"Name":"桐生特別支援学校","Jusho":"群馬県桐生市菱町2-1955-1","kouzui":"○","gake":"○","takashio":"×","jishin":"○","tsunami":"×","kaji":"○","naisui":"○","kazan":"×"}}
,{"type":"Feature","geometry":{"type":"Point","coordinates":[139.358,36.404]},"properties":{"Name":"桐陽台　２　号公園","Jusho":"群馬県桐生市菱町2-3540-1","kouzui":"○","gake":"○","takashio":"×","jishin":"○","tsunami":"×","kaji":"×","naisui":"○","kazan":"×"}}
,{"type":"Feature","geometry":{"type":"Point","coordinates":[139.356,36.406]},"properties":{"Name":"桐陽台　３　号公園","Jusho":"群馬県桐生市菱町2-3541-1","kouzui":"○","gake":"○","takashio":"×","jishin":"○","tsunami":"×","kaji":"×","naisui":"○","kazan":"×"}}
,{"type":"Feature","geometry":{"type":"Point","coordinates":[139.359,36.408]},"properties":{"Name":"桐陽台　１　号公園","Jusho":"群馬県桐生市菱町2-3542-17","kouzui":"○","gake":"○","takashio":"×","jishin":"○","tsunami":"×","kaji":"×","naisui":"○","kazan":"×"}}
,{"type":"Feature","geometry":{"type":"Point","coordinates":[139.355,36.412]},"properties":{"Name":"菱保育園","Jusho":"群馬県桐生市菱町3-1992","kouzui":"○","gake":"○","takashio":"×","jishin":"×","tsunami":"×","kaji":"×","naisui":"○","kazan":"×"}}
,{"type":"Feature","geometry":{"type":"Point","coordinates":[139.352,36.42]},"properties":{"Name":"菱町四丁目集会所","Jusho":"群馬県桐生市菱町4-2283-1","kouzui":"×","gake":"○","takashio":"×","jishin":"×","tsunami":"×","kaji":"×","naisui":"×","kazan":"×"}}
,{"type":"Feature","geometry":{"type":"Point","coordinates":[139.361,36.436]},"properties":{"Name":"上菱児童公園","Jusho":"群馬県桐生市菱町5-570-4","kouzui":"○","gake":"×","takashio":"×","jishin":"○","tsunami":"×","kaji":"×","naisui":"○","kazan":"×"}}
,{"type":"Feature","geometry":{"type":"Point","coordinates":[139.34,36.404]},"properties":{"Name":"浜松町児童公園","Jusho":"群馬県桐生市浜松町1-810-1","kouzui":"×","gake":"○","takashio":"×","jishin":"×","tsunami":"×","kaji":"×","naisui":"×","kazan":"×"}}
,{"type":"Feature","geometry":{"type":"Point","coordinates":[139.334,36.411]},"properties":{"Name":"桐生市保健福祉会館","Jusho":"群馬県桐生市末広町13-4","kouzui":"○","gake":"○","takashio":"×","jishin":"○","tsunami":"×","kaji":"○","naisui":"○","kazan":"×"}}
,{"type":"Feature","geometry":{"type":"Point","coordinates":[139.195,36.302]},"properties":{"Name":"伊勢崎市広瀬生涯学習館","Jusho":"群馬県伊勢崎市ひろせ町4080-5","kouzui":"×","gake":"×","takashio":"×","jishin":"○","tsunami":"×","kaji":"×","naisui":"×","kazan":"×"}}
,{"type":"Feature","geometry":{"type":"Point","coordinates":[139.215,36.324]},"properties":{"Name":"伊勢崎市立殖蓮第二小学校","Jusho":"群馬県伊勢崎市下植木町1203","kouzui":"○","gake":"×","takashio":"×","jishin":"○","tsunami":"×","kaji":"×","naisui":"×","kazan":"×"}}
,{"type":"Feature","geometry":{"type":"Point","coordinates":[139.207,36.277]},"properties":{"Name":"ほっとる〜む・南部教室","Jusho":"群馬県伊勢崎市下道寺町163-1","kouzui":"×","gake":"×","takashio":"×","jishin":"○","tsunami":"×","kaji":"×","naisui":"×","kazan":"×"}}
,{"type":"Feature","geometry":{"type":"Point","coordinates":[139.204,36.279]},"properties":{"Name":"伊勢崎市立第四中学校","Jusho":"群馬県伊勢崎市下道寺町26","kouzui":"○","gake":"×","takashio":"×","jishin":"○","tsunami":"×","kaji":"×","naisui":"×","kazan":"×"}}
,{"type":"Feature","geometry":{"type":"Point","coordinates":[139.255,36.267]},"properties":{"Name":"伊勢崎市立境南中学校","Jusho":"群馬県伊勢崎市境188","kouzui":"×","gake":"×","takashio":"×","jishin":"○","tsunami":"×","kaji":"×","naisui":"×","kazan":"×"}}
,{"type":"Feature","geometry":{"type":"Point","coordinates":[139.254,36.271]},"properties":{"Name":"群馬県立伊勢崎高等特別支援学校","Jusho":"群馬県伊勢崎市境492","kouzui":"○","gake":"×","takashio":"×","jishin":"○","tsunami":"×","kaji":"×","naisui":"×","kazan":"×"}}
,{"type":"Feature","geometry":{"type":"Point","coordinates":[139.252,36.273]},