var hokkaido={"type":"FeatureCollection","name":"hokkaido","features":[
{"type":"Feature","geometry":{"type":"Point","coordinates":[141.328,43.068]},"properties":{"Name":"桑園小学校","Jusho":"北海道札幌市中央区北８条西１７丁目１","kouzui":"○","gake":"×","takashio":"×","jishin":"○","tsunami":"×","kaji":"×","naisui":"×","kazan":"×"}}
,{"type":"Feature","geometry":{"type":"Point","coordinates":[141.318,43.067]},"properties":{"Name":"日新小学校","Jusho":"北海道札幌市中央区北８条西２５丁目２-１","kouzui":"○","gake":"×","takashio":"×","jishin":"○","tsunami":"×","kaji":"×","naisui":"×","kazan":"×"}}
,{"type":"Feature","geometry":{"type":"Point","coordinates":[141.36,43.068]},"properties":{"Name":"中央中学校","Jusho":"北海道札幌市中央区北４条東３丁目","kouzui":"○","gake":"×","takashio":"×","jishin":"○","tsunami":"×","kaji":"×","naisui":"×","kazan":"×"}}
,{"type":"Feature","geometry":{"type":"Point","coordinates":[141.365,43.063]},"properties":{"Name":"中央体育館","Jusho":"北海道札幌市中央区大通東５丁目１２-１３","kouzui":"○","gake":"×","takashio":"×","jishin":"×","tsunami":"×","kaji":"×","naisui":"×","kazan":"×"}}
,{"type":"Feature","geometry":{"type":"Point","coordinates":[141.366,43.062]},"properties":{"Name":"中央小学校","Jusho":"北海道札幌市中央区大通東６丁目１２-１","kouzui":"○","gake":"×","takashio":"×","jishin":"○","tsunami":"×","kaji":"×","naisui":"×","kazan":"×"}}
,{"type":"Feature","geometry":{"type":"Point","coordinates":[141.348,43.056]},"properties":{"Name":"資生館小学校","Jusho":"北海道札幌市中央区南３条西７丁目１-１","kouzui":"○","gake":"×","takashio":"×","jishin":"○","tsunami":"×","kaji":"×","naisui":"×","kazan":"×"}}
,{"type":"Feature","geometry":{"type":"Point","coordinates":[141.323,43.044]},"properties":{"Name":"啓明中学校","Jusho":"北海道札幌市中央区南９条西２２丁目２-１","kouzui":"○","gake":"○","takashio":"×","jishin":"○","tsunami":"×","kaji":"×","naisui":"×","kazan":"×"}}
,{"type":"Feature","geometry":{"type":"Point","coordinates":[141.331,43.046]},"properties":{"Name":"幌西小学校","Jusho":"北海道札幌市中央区南１０条西１７丁目１-１","kouzui":"○","gake":"○","takashio":"×","jishin":"○","tsunami":"×","kaji":"×","naisui":"×","kazan":"×"}}
,{"type":"Feature","geometry":{"type":"Point","coordinates":[141.323,43.043]},"properties":{"Name":"緑丘小学校","Jusho":"北海道札幌市中央区南１０条西２２丁目３-１","kouzui":"○","gake":"○","takashio":"×","jishin":"○","tsunami":"×","kaji":"×","naisui":"×","kazan":"×"}}
,{"type":"Feature","geometry":{"type":"Point","coordinates":[141.319,43.058]},"properties":{"Name":"円山小学校","Jusho":"北海道札幌市中央区北１条西２５丁目１-８","kouzui":"○","gake":"○","takashio":"×","jishin":"○","tsunami":"×","kaji":"×","naisui":"×","kazan":"×"}}
,{"type":"Feature","geometry":{"type":"Point","coordinates":[141.314,43.06]},"properties":{"Name":"向陵中学校","Jusho":"北海道札幌市中央区北４条西２８丁目１-３０","kouzui":"○","gake":"○","takashio":"×","jishin":"○","tsunami":"×","kaji":"×","naisui":"×","kazan":"×"}}
,{"type":"Feature","geometry":{"type":"Point","coordinates":[141.349,43.044]},"properties":{"Name":"中島中学校","Jusho":"北海道札幌市中央区南１２条西７丁目２-１","kouzui":"○","gake":"×","takashio":"×","jishin":"○","tsunami":"×","kaji":"×","naisui":"×","kazan":"×"}}
,{"type":"Feature","geometry":{"type":"Point","coordinates":[141.345,43.041]},"properties":{"Name":"山鼻小学校","Jusho":"北海道札幌市中央区南１４条西１０丁目１-１","kouzui":"○","gake":"○","takashio":"×","jishin":"○","tsunami":"×","kaji":"×","naisui":"×","kazan":"×"}}
,{"type":"Feature","geometry":{"type":"Point","coordinates":[141.333,43.038]},"properties":{"Name":"伏見中学校","Jusho":"北海道札幌市中央区南１６条西１７丁目１-３５","kouzui":"○","gake":"○","takashio":"×","jishin":"○","tsunami":"×","kaji":"×","naisui":"×","kazan":"×"}}
,{"type":"Feature","geometry":{"type":"Point","coordinates":[141.336,43.035]},"properties":{"Name":"伏見小学校","Jusho":"北海道札幌市中央区南１８条西１５丁目１-１","kouzui":"○","gake":"○","takashio":"×","jishin":"○","tsunami":"×","kaji":"×","naisui":"×","kazan":"×"}}
,{"type":"Feature","geometry":{"type":"Point","coordinates":[141.354,43.032]},"properties":{"Name":"幌南小学校","Jusho":"北海道札幌市中央区南２１条西５丁目１-１","kouzui":"×","gake":"×","takashio":"×","jishin":"○","tsunami":"×","kaji":"×","naisui":"×","kazan":"×"}}
,{"type":"Feature","geometry":{"type":"Point","coordinates":[141.353,43.031]},"properties":{"Name":"柏中学校","Jusho":"北海道札幌市中央区南２１条西５丁目","kouzui":"×","gake":"×","takashio":"×","jishin":"○","tsunami":"×","kaji":"×","naisui":"×","kazan":"×"}}
,{"type":"Feature","geometry":{"type":"Point","coordinates":[141.341,43.029]},"properties":{"Name":"山鼻中学校","Jusho":"北海道札幌市中央区南２３条西１３丁目１-１","kouzui":"○","gake":"○","takashio":"×","jishin":"○","tsunami":"×","kaji":"×","naisui":"×","kazan":"×"}}
,{"type":"Feature","geometry":{"type":"Point","coordinates":[141.295,43.046]},"properties":{"Name":"宮の森中学校","Jusho":"北海道札幌市中央区宮の森１条１６丁目５-１","kouzui":"×","gake":"×","takashio":"×","jishin":"○","tsunami":"×","kaji":"×","naisui":"×","kazan":"×"}}
,{"type":"Feature","geometry":{"type":"Point","coordinates":[141.297,43.051]},"properties":{"Name":"大倉山小学校","Jusho":"北海道札幌市中央区宮の森３条１３丁目６-２０","kouzui":"○","gake":"○","takashio":"×","jishin":"○","tsunami":"×","kaji":"×","naisui":"×","kazan":"×"}}
,{"type":"Feature","geometry":{"type":"Point","coordinates":[141.303,43.064]},"properties":{"Name":"宮の森小学校","Jusho":"北海道札幌市中央区宮の森４条６丁目１-２","kouzui":"×","gake":"×","takashio":"×","jishin":"○","tsunami":"×","kaji":"×","naisui":"×","kazan":"×"}}
,{"type":"Feature","geometry":{"type":"Point","coordinates":[141.296,43.057]},"properties":{"Name":"三角山小学校","Jusho":"北海道札幌市中央区宮の森４条１１丁目４-１","kouzui":"○","gake":"○","takashio":"×","jishin":"○","tsunami":"×","kaji":"×","naisui":"×","kazan":"×"}}
,{"type":"Feature","geometry":{"type":"Point","coordinates":[141.349,43.083]},"properties":{"Name":"北辰中学校","Jusho":"北海道札幌市北区北１８条西２丁目２１-５０","kouzui":"○","gake":"×","takashio":"×","jishin":"○","tsunami":"×","kaji":"×","naisui":"×","kazan":"×"}}
,{"type":"Feature","geometry":{"type":"Point","coordinates":[141.349,43.084]},"properties":{"Name":"幌北小学校","Jusho":"北海道札幌市北区北１９条西２丁目１-１","kouzui":"○","gake":"×","takashio":"×","jishin":"○","tsunami":"×","kaji":"×","naisui":"×","kazan":"×"}}
,{"type":"Feature","geometry":{"type":"Point","coordinates":[141.339,43.09]},"properties":{"Name":"白楊小学校","Jusho":"北海道札幌市北区北２４条西７丁目１-１","kouzui":"○","gake":"×","takashio":"×","jishin":"○","tsunami":"×","kaji":"×","naisui":"×","kazan":"×"}}
,{"type":"Feature","geometry":{"type":"Point","coordinates":[141.335,43.101]},"properties":{"Name":"北陽中学校","Jusho":"北海道札幌市北区北３４条西７丁目３-１","kouzui":"○","gake":"×","takashio":"×","jishin":"○","tsunami":"×","kaji":"×","naisui":"×","kazan":"×"}}
,{"type":"Feature","geometry":{"type":"Point","coordinates":[141.336,43.102]},"properties":{"Name":"和光小学校","Jusho":"北海道札幌市北区北３４条西７丁目３-２","kouzui":"○","gake":"×","takashio":"×","jishin":"○","tsunami":"×","kaji":"×","naisui":"×","kazan":"×"}}
,{"type":"Feature","geometry":{"type":"Point","coordinates":[141.307,43.11]},"properties":{"Name":"新光小学校","Jusho":"北海道札幌市北区新琴似１条１２丁目１-１","kouzui":"○","gake":"×","takashio":"×","jishin":"○","tsunami":"×","kaji":"×","naisui":"×","kazan":"×"}}
,{"type":"Feature","geometry":{"type":"Point","coordinates":[141.323,43.104]},"properties":{"Name":"新琴似南小学校","Jusho":"北海道札幌市北区新琴似１条３丁目１-１","kouzui":"○","gake":"×","takashio":"×","jishin":"○","tsunami":"×","kaji":"×","naisui":"×","kazan":"×"}}
,{"type":"Feature","geometry":{"type":"Point","coordinates":[141.316,43.116]},"properties":{"Name":"光陽小学校","Jusho":"北海道札幌市北区新琴似５条１１丁目４-１","kouzui":"○","gake":"×","takashio":"×","jishin":"○","tsunami":"×","kaji":"×","naisui":"×","kazan":"×"}}
,{"type":"Feature","geometry":{"type":"Point","coordinates":[141.331,43.113]},"properties":{"Name":"新琴似小学校","Jusho":"北海道札幌市北区新琴似７条３丁目２-１","kouzui":"○","gake":"×","takashio":"×","jishin":"○","tsunami":"×","kaji":"×","naisui":"×","kazan":"×"}}
,{"type":"Feature","geometry":{"type":"Point","coordinates":[141.329,43.113]},"properties":{"Name":"新琴似中学校","Jusho":"北海道札幌市北区新琴似７条４丁目１-１","kouzui":"○","gake":"×","takashio":"×","jishin":"○","tsunami":"×","kaji":"×","naisui":"×","kazan":"×"}}
,{"type":"Feature","geometry":{"type":"Point","coordinates":[141.334,43.113]},"properties":{"Name":"北区体育館","Jusho":"北海道札幌市北区新琴似８条２丁目１-２５","kouzui":"○","gake":"×","takashio":"×","jishin":"○","tsunami":"×","kaji":"×","naisui":"×","kazan":"×"}}
,{"type":"Feature","geometry":{"type":"Point","coordinates":[141.325,43.122]},"properties":{"Name":"新琴似北中学校","Jusho":"北海道札幌市北区新琴似１０条１０丁目２-４６","kouzui":"○","gake":"×","takashio":"×","jishin":"○","tsunami":"×","kaji":"×","naisui":"×","kazan":"×"}}
,{"type":"Feature","geometry":{"type":"Point","coordinates":[141.322,43.123]},"properties":{"Name":"新琴似緑小学校","Jusho":"北海道札幌市北区新琴似１０条１１丁目５-１","kouzui":"○","gake":"×","takashio":"×","jishin":"○","tsunami":"×","kaji":"×","naisui":"×","kazan":"×"}}
,{"type":"Feature","geometry":{"type":"Point","coordinates":[141.331,43.12]},"properties":{"Name":"新琴似北小学校","Jusho":"北海道札幌市北区新琴似１１条６丁目１-１","kouzui":"○","gake":"×","takashio":"×","jishin":"○","tsunami":"×","kaji":"×","naisui":"×","kazan":"×"}}
,{"type":"Feature","geometry":{"type":"Point","coordinates":[141.316,43.128]},"properties":{"Name":"新琴似西小学校","Jusho":"北海道札幌市北区新琴似１１条１５丁目１-５","kouzui":"○","gake":"×","takashio":"×","jishin":"○","tsunami":"×","kaji":"×","naisui":"×","kazan":"×"}}
,{"type":"Feature","geometry":{"type":"Point","coordinates":[141.321,43.098]},"properties":{"Name":"新川中央小学校","Jusho":"北海道札幌市北区新川３条３丁目２-１","kouzui":"○","gake":"×","takashio":"×","jishin":"○","tsunami":"×","kaji":"×","naisui":"×","kazan":"×"}}
,{"type":"Feature","geometry":{"type":"Point","coordinates":[141.322,43.099]},"properties":{"Name":"新川中学校","Jusho":"北海道札幌市北区新川４条３丁目１-１","kouzui":"○","gake":"×","takashio":"×","jishin":"○","tsunami":"×","kaji":"×","naisui":"×","kazan":"×"}}
,{"type":"Feature","geometry":{"type":"Point","coordinates":[141.3,43.113]},"properties":{"Name":"新川西中学校","Jusho":"北海道札幌市北区新川４条１５丁目１-１","kouzui":"○","gake":"×","takashio":"×","jishin":"○","tsunami":"×","kaji":"×","naisui":"×","kazan":"×"}}
,{"type":"Feature","geometry":{"type":"Point","coordinates":[141.299,43.115]},"properties":{"Name":"新川小学校","Jusho":"北海道札幌市北区新川５条１５丁目１-１","kouzui":"○","gake":"×","takashio":"×","jishin":"○","tsunami":"×","kaji":"×","naisui":"×","kazan":"×"}}
,{"type":"Feature","geometry":{"type":"Point","coordinates":[141.337,43.132]},"properties":{"Name":"屯田南小学校","Jusho":"北海道札幌市北区屯田５条４丁目６-１","kouzui":"○","gake":"×","takashio":"×","jishin":"○","tsunami":"×","kaji":"×","naisui":"×","kazan":"×"}}
,{"type":"Feature","geometry":{"type":"Point","coordinates":[141.32,43.136]},"properties":{"Name":"屯田西小学校","Jusho":"北海道札幌市北区屯田６条１０丁目３-１","kouzui":"○","gake":"×","takashio":"×","jishin":"○","tsunami":"×","kaji":"×","naisui":"×","kazan":"×"}}
,{"type":"Feature","geometry":{"type":"Point","coordinates":[141.327,43.134]},"properties":{"Name":"屯田中央中学校","Jusho":"北海道札幌市北区屯田６条８丁目１-１","kouzui":"○","gake":"×","takashio":"×","jishin":"○","tsunami":"×","kaji":"×","naisui":"×","kazan":"×"}}
,{"type":"Feature","geometry":{"type":"Point","coordinates":[141.332,43.137]},"properties":{"Name":"屯田小学校","Jusho":"北海道札幌市北区屯田７条６丁目２-２","kouzui":"○","gake":"×","takashio":"×","jishin":"○","tsunami":"×","kaji":"×","naisui":"×","kazan":"×"}}
,{"type":"Feature","geometry":{"type":"Point","coordinates":[141.342,43.143]},"properties":{"Name":"屯田北小学校","Jusho":"北海道札幌市北区屯田９条３丁目４-１","kouzui":"○","gake":"×","takashio":"×","jishin":"○","tsunami":"×","kaji":"×","naisui":"×","kazan":"×"}}
,{"type":"Feature","geometry":{"type":"Point","coordinates":[141.339,43.143]},"properties":{"Name":"屯田北中学校","Jusho":"北海道札幌市北区屯田９条４丁目","kouzui":"○","gake":"×","takashio":"×","jishin":"○","tsunami":"×","kaji":"×","naisui":"×","kazan":"×"}}
,{"type":"Feature","geometry":{"type":"Point","coordinates":[141.347,43.124]},"properties":{"Name":"太平南小学校","Jusho":"北海道札幌市北区太平１条１丁目２-１","kouzui":"○","gake":"×","takashio":"×","jishin":"○","tsunami":"×","kaji":"×","naisui":"×","kazan":"×"}}
,{"type":"Feature","geometry":{"type":"Point","coordinates":[141.35,43.134]},"properties":{"Name":"太平中学校","Jusho":"北海道札幌市北区太平８条２丁目１-１","kouzui":"○","gake":"×","takashio":"×","jishin":"○","tsunami":"×","kaji":"×","naisui":"×","kazan":"×"}}
,{"type":"Feature","geometry":{"type":"Point","coordinates":[141.353,43.141]},"properties":{"Name":"太平小学校","Jusho":"北海道札幌市北区篠路１条２丁目６-２０","kouzui":"○","gake":"×","takashio":"×","jishin":"○","tsunami":"×","kaji":"×","naisui":"×","kazan":"×"}}
,{"type":"Feature","geometry":{"type":"Point","coordinates":[141.371,43.146]},"properties":{"Name":"篠路小学校","Jusho":"北海道札幌市北区篠路４条９丁目３-１","kouzui":"○","gake":"×","takashio":"×","jishin":"○","tsunami":"×","kaji":"×","naisui":"×","kazan":"×"}}
,{"type":"Feature","geometry":{"type":"Point","coordinates":[141.354,43.149]},"properties":{"Name":"篠路西小学校","Jusho":"北海道札幌市北区篠路５条２丁目２-１","kouzui":"○","gake":"×","takashio":"×","jishin":"○","tsunami":"×","kaji":"×","naisui":"×","kazan":"×"}}
,{"type":"Feature","geometry":{"type":"Point","coordinates":[141.355,43.151]},"properties":{"Name":"篠路西中学校","Jusho":"北海道札幌市北区篠路６条２丁目１-５０","kouzui":"○","gake":"×","takashio":"×","jishin":"○","tsunami":"×","kaji":"×","naisui":"×","kazan":"×"}}
,{"type":"Feature","geometry":{"type":"Point","coordinates":[141.356,43.16]},"properties":{"Name":"茨戸小学校","Jusho":"北海道札幌市北区東茨戸１条２丁目３１４-１５","kouzui":"○","gake":"×","takashio":"×","jishin":"○","tsunami":"×","kaji":"×","naisui":"×","kazan":"×"}}
,{"type":"Feature","geometry":{"type":"Point","coordinates":[141.371,43.135]},"properties":{"Name":"上篠路中学校","Jusho":"北海道札幌市北区篠路町上篠路１１６番地１４","kouzui":"○","gake":"×","takashio":"×","jishin":"○","tsunami":"×","kaji":"×","naisui":"×","kazan":"×"}}
,{"type":"Feature","geometry":{"type":"Point","coordinates":[141.374,43.157]},"properties":{"Name":"篠路中学校","Jusho":"北海道札幌市北区篠路町篠路３６８番地","kouzui":"○","gake":"×","takashio":"×","jishin":"○","tsunami":"×","kaji":"×","naisui":"×","kazan":"×"}}
,{"type":"Feature","geometry":{"type":"Point","coordinates":[141.382,43.16]},"properties":{"Name":"拓北小学校","Jusho":"北海道札幌市北区あいの里２条１丁目２４-１","kouzui":"○","gake":"×","takashio":"×","jishin":"○","tsunami":"×","kaji":"×","naisui":"×","kazan":"×"}}
,{"type":"Feature","geometry":{"type":"Point","coordinates":[141.392,43.161]},"properties":{"Name":"あいの里西小学校","Jusho":"北海道札幌市北区あいの里２条３丁目９-１","kouzui":"○","gake":"×","takashio":"×","jishin":"○","tsunami":"×","kaji":"×","naisui":"×","kazan":"×"}}
,{"type":"Feature","geometry":{"type":"Point","coordinates":[141.41,43.16]},"properties":{"Name":"あいの里東中学校","Jusho":"北海道札幌市北区あいの里２条７丁目１４-１","kouzui":"○","gake":"×","takashio":"×","jishin":"○","tsunami":"×","kaji":"×","naisui":"×","kazan":"×"}}
,{"type":"Feature","geometry":{"type":"Point","coordinates":[141.402,43.163]},"properties":{"Name":"鴻城小学校","Jusho":"北海道札幌市北区あいの里３条６丁目２-１","kouzui":"○","gake":"×","takashio":"×","jishin":"○","tsunami":"×","kaji":"×","naisui":"×","kazan":"×"}}
,{"type":"Feature","geometry":{"type":"Point","coordinates":[141.409,43.162]},"properties":{"Name":"あいの里東小学校","Jusho":"北海道札幌市北区あいの里３条７丁目１１-１","kouzui":"○","gake":"×","takashio":"×","jishin":"○","tsunami":"×","kaji":"×","naisui":"×","kazan":"×"}}
,{"type":"Feature","geometry":{"type":"Point","coordinates":[141.366,43.134]},"properties":{"Name":"百合が原小学校","Jusho":"北海道札幌市北区百合が原６丁目５-１","kouzui":"○","gake":"×","takashio":"×","jishin":"○","tsunami":"×","kaji":"×","naisui":"×","kazan":"×"}}
,{"type":"Feature","geometry":{"type":"Point","coordinates":[141.353,43.072]},"properties":{"Name":"北九条小学校","Jusho":"北海道札幌市北区北９条西１丁目１-１","kouzui":"○","gake":"×","takashio":"×","jishin":"○","tsunami":"×","kaji":"×","naisui":"×","kazan":"×"}}
,{"type":"Feature","geometry":{"type":"Point","coordinates":[141.405,43.09]},"properties":{"Name":"東苗穂小学校","Jusho":"北海道札幌市東区東苗穂５条２丁目３-１","kouzui":"○","gake":"×","takashio":"×","jishin":"○","tsunami":"×","kaji":"×","naisui":"×","kazan":"×"}}
,{"type":"Feature","geometry":{"type":"Point","coordinates":[141.406,43.097]},"properties":{"Name":"札苗中学校","Jusho":"北海道札幌市東区東苗穂７条１丁目１-１","kouzui":"○","gake":"×","takashio":"×","jishin":"○","tsunami":"×","kaji":"×","naisui":"×","kazan":"×"}}
,{"type":"Feature","geometry":{"type":"Point","coordinates":[141.411,43.094]},"properties":{"Name":"札苗小学校","Jusho":"北海道札幌市東区東苗穂７条２丁目３-１","kouzui":"○","gake":"×","takashio":"×","jishin":"○","tsunami":"×","kaji":"×","naisui":"×","kazan":"×"}}
,{"type":"Feature","geometry":{"type":"Point","coordinates":[141.417,43.098]},"properties":{"Name":"札苗北小学校","Jusho":"北海道札幌市東区東苗穂９条３丁目２-３","kouzui":"○","gake":"×","takashio":"×","jishin":"○","tsunami":"×","kaji":"×","naisui":"×","kazan":"×"}}
,{"type":"Feature","geometry":{"type":"Point","coordinates":[141.421,43.1]},"properties":{"Name":"札苗北中学校","Jusho":"北海道札幌市東区東苗穂１０条３丁目６４５","kouzui":"○","gake":"×","takashio":"×","jishin":"○","tsunami":"×","kaji":"×","naisui":"×","kazan":"×"}}
,{"type":"Feature","geometry":{"type":"Point","coordinates":[141.429,43.105]},"properties":{"Name":"札苗緑小学校","Jusho":"北海道札幌市東区東苗穂１３条４丁目９-３０","kouzui":"○","gake":"×","takashio":"×","jishin":"○","tsunami":"×","kaji":"×","naisui":"×","kazan":"×"}}
,{"type":"Feature","geometry":{"type":"Point","coordinates":[141.365,43.106]},"properties":{"Name":"栄町小学校","Jusho":"北海道札幌市東区北３６条東１３丁目３-１","kouzui":"○","gake":"×","takashio":"×","jishin":"○","tsunami":"×","kaji":"×","naisui":"×","kazan":"×"}}
,{"type":"Feature","geometry":{"type":"Point","coordinates":[141.366,43.106]},"properties":{"Name":"栄町中学校","Jusho":"北海道札幌市東区北３６条東１４丁目１-１","kouzui":"○","gake":"×","takashio":"×","jishin":"○","tsunami":"×","kaji":"×","naisui":"×","kazan":"×"}}
,{"type":"Feature","geometry":{"type":"Point","coordinates":[141.37,43.106]},"properties":{"Name":"栄南中学校","Jusho":"北海道札幌市東区北３６条東１６丁目１-１","kouzui":"○","gake":"×","takashio":"×","jishin":"○","tsunami":"×","kaji":"×","naisui":"×","kazan":"×"}}
,{"type":"Feature","geometry":{"type":"Point","coordinates":[141.377,43.109]},"properties":{"Name":"栄南小学校","Jusho":"北海道札幌市東区北３７条東２０丁目３-１","kouzui":"○","gake":"×","takashio":"×","jishin":"○","tsunami":"×","kaji":"×","naisui":"×","kazan":"×"}}
,{"type":"Feature","geometry":{"type":"Point","coordinates":[141.36,43.112]},"properties":{"Name":"栄小学校","Jusho":"北海道札幌市東区北４２条東１０丁目２-３","kouzui":"○","gake":"×","takashio":"×","jishin":"○","tsunami":"×","kaji":"×","naisui":"×","kazan":"×"}}
,{"type":"Feature","geometry":{"type":"Point","coordinates":[141.361,43.117]},"properties":{"Name":"栄東小学校","Jusho":"北海道札幌市東区北４６条東１３丁目１-１","kouzui":"○","gake":"×","takashio":"×","jishin":"○","tsunami":"×","kaji":"×","naisui":"×","kazan":"×"}}
,{"type":"Feature","geometry":{"type":"Point","coordinates":[141.352,43.116]},"properties":{"Name":"栄中学校","Jusho":"北海道札幌市東区北４６条東６丁目１-１","kouzui":"○","gake":"×","takashio":"×","jishin":"○","tsunami":"×","kaji":"×","naisui":"×","kazan":"×"}}
,{"type":"Feature","geometry":{"type":"Point","coordinates":[141.351,43.118]},"properties":{"Name":"栄北小学校","Jusho":"北海道札幌市東区北４７条東６丁目１-１","kouzui":"○","gake":"×","takashio":"×","jishin":"○","tsunami":"×","kaji":"×","naisui":"×","kazan":"×"}}
,{"type":"Feature","geometry":{"type":"Point","coordinates":[141.359,43.124]},"properties":{"Name":"栄緑小学校","Jusho":"北海道札幌市東区北５１条東１０丁目１-１","kouzui":"○","gake":"×","takashio":"×","jishin":"○","tsunami":"×","kaji":"×","naisui":"×","kazan":"×"}}
,{"type":"Feature","geometry":{"type":"Point","coordinates":[141.388,43.083]},"properties":{"Name":"札幌小学校","Jusho":"北海道札幌市東区伏古１条２丁目１-３１","kouzui":"○","gake":"×","takashio":"×","jishin":"○","tsunami":"×","kaji":"×","naisui":"×","kazan":"×"}}
,{"type":"Feature","geometry":{"type":"Point","coordinates":[141.389,43.095]},"properties":{"Name":"札幌中学校","Jusho":"北海道札幌市東区伏古８条１丁目１-２８","kouzui":"○","gake":"×","takashio":"×","jishin":"○","tsunami":"×","kaji":"×","naisui":"×","kazan":"×"}}
,{"type":"Feature","geometry":{"type":"Point","coordinates":[141.399,43.09]},"properties":{"Name":"伏古小学校","Jusho":"北海道札幌市東区伏古８条５丁目２-１","kouzui":"○","gake":"×","takashio":"×","jishin":"○","tsunami":"×","kaji":"×","naisui":"×","kazan":"×"}}
,{"type":"Feature","geometry":{"type":"Point","coordinates":[141.394,43.099]},"properties":{"Name":"伏古北小学校","Jusho":"北海道札幌市東区伏古１１条１丁目２-１０","kouzui":"○","gake":"×","takashio":"×","jishin":"○","tsunami":"×","kaji":"×","naisui":"×","kazan":"×"}}
,{"type":"Feature","geometry":{"type":"Point","coordinates":[141.404,43.121]},"properties":{"Name":"丘珠小学校","Jusho":"北海道札幌市東区丘珠町５９３番地３","kouzui":"○","gake":"×","takashio":"×","jishin":"○","tsunami":"×","kaji":"×","naisui":"×","kazan":"×"}}
,{"type":"Feature","geometry":{"type":"Point","coordinates":[141.401,43.121]},"properties":{"Name":"丘珠中学校","Jusho":"北海道札幌市東区丘珠町６７４番地１５","kouzui":"○","gake":"×","takashio":"×","jishin":"○","tsunami":"×","kaji":"×","naisui":"×","kazan":"×"}}
,{"type":"Feature","geometry":{"type":"Point","coordinates":[141.438,43.152]},"properties":{"Name":"福移小中学校","Jusho":"北海道札幌市東区中沼町２４０番地","kouzui":"×","gake":"×","takashio":"×","jishin":"○","tsunami":"×","kaji":"×","naisui":"×","kazan":"×"}}
,{"type":"Feature","geometry":{"type":"Point","coordinates":[141.433,43.132]},"properties":{"Name":"中沼小学校","Jusho":"北海道札幌市東区中沼町７３番地１０","kouzui":"○","gake":"×","takashio":"×","jishin":"○","tsunami":"×","kaji":"×","naisui":"×","kazan":"×"}}
,{"type":"Feature","geometry":{"type":"Point","coordinates":[141.374,43.075]},"properties":{"Name":"苗穂小学校","Jusho":"北海道札幌市東区北９条東１３丁目１-１","kouzui":"○","gake":"×","takashio":"×","jishin":"○","tsunami":"×","kaji":"×","naisui":"×","kazan":"×"}}
,{"type":"Feature","geometry":{"type":"Point","coordinates":[141.362,43.078]},"properties":{"Name":"北光小学校","Jusho":"北海道札幌市東区北１２条東６丁目５-８","kouzui":"○","gake":"×","takashio":"×","jishin":"○","tsunami":"×","kaji":"×","naisui":"×","kazan":"×"}}
,{"type":"Feature","geometry":{"type":"Point","coordinates":[141.36,43.083]},"properties":{"Name":"美香保中学校","Jusho":"北海道札幌市東区北１７条東６丁目２-１１","kouzui":"○","gake":"×","takashio":"×","jishin":"○","tsunami":"×","kaji":"×","naisui":"×","kazan":"×"}}
,{"type":"Feature","geometry":{"type":"Point","coordinates":[141.371,43.086]},"properties":{"Name":"明園小学校","Jusho":"北海道札幌市東区北１９条東１４丁目１-１","kouzui":"○","gake":"×","takashio":"×","jishin":"○","tsunami":"×","kaji":"×","naisui":"×","kazan":"×"}}
,{"type":"Feature","geometry":{"type":"Point","coordinates":[141.366,43.09]},"properties":{"Name":"明園中学校","Jusho":"北海道札幌市東区北２２条東１２丁目１-１","kouzui":"○","gake":"×","takashio":"×","jishin":"○","tsunami":"×","kaji":"×","naisui":"×","kazan":"×"}}
,{"type":"Feature","geometry":{"type":"Point","coordinates":[141.374,43.096]},"properties":{"Name":"元町小学校","Jusho":"北海道札幌市東区北２５条東１７丁目１-１","kouzui":"○","gake":"×","takashio":"×","jishin":"○","tsunami":"×","kaji":"×","naisui":"×","kazan":"×"}}
,{"type":"Feature","geometry":{"type":"Point","coordinates":[141.355,43.093]},"properties":{"Name":"北園小学校","Jusho":"北海道札幌市東区北２５条東４丁目３-１","kouzui":"○","gake":"×","takashio":"×","jishin":"○","tsunami":"×","kaji":"×","naisui":"×","kazan":"×"}}
,{"type":"Feature","geometry":{"type":"Point","coordinates":[141.369,43.097]},"properties":{"Name":"東区体育館","Jusho":"北海道札幌市東区北２７条東１４丁目３-１","kouzui":"○","gake":"×","takashio":"×","jishin":"○","tsunami":"×","kaji":"×","naisui":"×","kazan":"×"}}
,{"type":"Feature","geometry":{"type":"Point","coordinates":[141.367,43.101]},"properties":{"Name":"元町北小学校","Jusho":"北海道札幌市東区北３１条東１４丁目１-１","kouzui":"○","gake":"×","takashio":"×","jishin":"○","tsunami":"×","kaji":"×","naisui":"×","kazan":"×"}}
,{"type":"Feature","geometry":{"type":"Point","coordinates":[141.35,43.101]},"properties":{"Name":"北栄中学校","Jusho":"北海道札幌市東区北３３条東２丁目１-１","kouzui":"○","gake":"×","takashio":"×","jishin":"○","tsunami":"×","kaji":"×","naisui":"×","kazan":"×"}}
,{"type":"Feature","geometry":{"type":"Point","coordinates":[141.353,43.101]},"properties":{"Name":"北小学校","Jusho":"北海道札幌市東区北３３条東４丁目１-１","kouzui":"○","gake":"×","takashio":"×","jishin":"○","tsunami":"×","kaji":"×","naisui":"×","kazan":"×"}}
,{"type":"Feature","geometry":{"type":"Point","coordinates":[141.393,43.075]},"properties":{"Name":"東栄中学校","Jusho":"北海道札幌市東区本町１条７丁目２-７","kouzui":"○","gake":"×","takashio":"×","jishin":"○","tsunami":"×","kaji":"×","naisui":"×","kazan":"×"}}
,{"type":"Feature","geometry":{"type":"Point","coordinates":[141.38,43.081]},"properties":{"Name":"東光小学校","Jusho":"北海道札幌市東区本町２条１丁目２-３２","kouzui":"○","gake":"×","takashio":"×","jishin":"○","tsunami":"×","kaji":"×","naisui":"×","kazan":"×"}}
,{"type":"Feature","geometry":{"type":"Point","coordinates":[141.393,43.076]},"properties":{"Name":"本町小学校","Jusho":"北海道札幌市東区本町２条７丁目１-３０","kouzui":"○","gake":"×","takashio":"×","jishin":"×","tsunami":"×","kaji":"×","naisui":"×","kazan":"×"}}
,{"type":"Feature","geometry":{"type":"Point","coordinates":[141.393,43.048]},"properties":{"Name":"日章中学校","Jusho":"北海道札幌市白石区東札幌４条５丁目１-１","kouzui":"○","gake":"×","takashio":"×","jishin":"○","tsunami":"×","kaji":"×","naisui":"×","kazan":"×"}}
,{"type":"Feature","geometry":{"type":"Point","coordinates":[141.396,43.048]},"properties":{"Name":"東札幌小学校","Jusho":"北海道札幌市白石区東札幌４条５丁目４-２０","kouzui":"×","gake":"×","takashio":"×","jishin":"○","tsunami":"×","kaji":"×","naisui":"×","kazan":"×"}}
,{"type":"Feature","geometry":{"type":"Point","coordinates":[141.388,43.057]},"properties":{"Name":"札幌コンベンションセンター","Jusho":"北海道札幌市白石区東札幌６条１丁目１-１","kouzui":"○","gake":"×","takashio":"×","jishin":"○","tsunami":"×","kaji":"×","naisui":"×","kazan":"×"}}
,{"type":"Feature","geometry":{"type":"Point","coordinates":[141.403,43.058]},"properties":{"Name":"西白石小学校","Jusho":"北海道札幌市白石区中央３条５丁目２-２２","kouzui":"○","gake":"×","takashio":"×","jishin":"○","tsunami":"×","kaji":"×","naisui":"×","kazan":"×"}}
,{"type":"Feature","geometry":{"type":"Point","coordinates":[141.4,43.042]},"properties":{"Name":"南白石小学校","Jusho":"北海道札幌市白石区南郷通２丁目南６-３５","kouzui":"○","gake":"×","takashio":"×","jishin":"○","tsunami":"×","kaji":"×","naisui":"×","kazan":"×"}}
,{"type":"Feature","geometry":{"type":"Point","coordinates":[141.408,43.042]},"properties":{"Name":"白石区体育館","Jusho":"北海道札幌市白石区南郷通６丁目北１","kouzui":"○","gake":"×","takashio":"×","jishin":"○","tsunami":"×","kaji":"×","naisui":"×","kazan":"×"}}
,{"type":"Feature","geometry":{"type":"Point","coordinates":[141.416,43.037]},"properties":{"Name":"本郷小学校","Jusho":"北海道札幌市白石区南郷通１０丁目南３-１","kouzui":"○","gake":"×","takashio":"×","jishin":"○","tsunami":"×","kaji":"×","naisui":"×","kazan":"×"}}
,{"type":"Feature","geometry":{"type":"Point","coordinates":[141.428,43.035]},"properties":{"Name":"東白石中学校","Jusho":"北海道札幌市白石区南郷通１５丁目北４-１","kouzui":"○","gake":"×","takashio":"×","jishin":"○","tsunami":"×","kaji":"×","naisui":"×","kazan":"×"}}
,{"type":"Feature","geometry":{"type":"Point","coordinates":[141.407,43.045]},"properties":{"Name":"南郷小学校","Jusho":"北海道札幌市白石区本郷通４丁目南３-１","kouzui":"○","gake":"×","takashio":"×","jishin":"○","tsunami":"×","kaji":"×","naisui":"×","kazan":"×"}}
,{"type":"Feature","geometry":{"type":"Point","coordinates":[141.41,43.043]},"properties":{"Name":"白石中学校","Jusho":"北海道札幌市白石区本郷通６丁目南１-１","kouzui":"○","gake":"×","takashio":"×","jishin":"○","tsunami":"×","kaji":"×","naisui":"×","kazan":"×"}}
,{"type":"Feature","geometry":{"type":"Point","coordinates":[141.406,43.052]},"properties":{"Name":"白石小学校","Jusho":"北海道札幌市白石区本通１丁目北４-１","kouzui":"○","gake":"×","takashio":"×","jishin":"○","tsunami":"×","kaji":"×","naisui":"×","kazan":"×"}}
,{"type":"Feature","geometry":{"type":"Point","coordinates":[141.427,43.037]},"properties":{"Name":"東白石小学校","Jusho":"北海道札幌市白石区本通１４丁目南６-１","kouzui":"×","gake":"×","takashio":"×","jishin":"○","tsunami":"×","kaji":"×","naisui":"×","kazan":"×"}}
,{"type":"Feature","geometry":{"type":"Point","coordinates":[141.432,43.039]},"properties":{"Name":"平和通小学校","Jusho":"北海道札幌市白石区本通１５丁目北３-１","kouzui":"○","gake":"×","takashio":"×","jishin":"○","tsunami":"×","kaji":"×","naisui":"×","kazan":"×"}}
,{"type":"Feature","geometry":{"type":"Point","coordinates":[141.436,43.032]},"properties":{"Name":"大谷地小学校","Jusho":"北海道札幌市白石区本通１８丁目南１-１","kouzui":"○","gake":"×","takashio":"×","jishin":"○","tsunami":"×","kaji":"×","naisui":"×","kazan":"×"}}
,{"type":"Feature","geometry":{"type":"Point","coordinates":[141.42,43.048]},"properties":{"Name":"柏丘中学校","Jusho":"北海道札幌市白石区平和通８丁目北３-１","kouzui":"○","gake":"×","takashio":"×","jishin":"○","tsunami":"×","kaji":"×","naisui":"×","kazan":"×"}}
,{"type":"Feature","geometry":{"type":"Point","coordinates":[141.421,43.045]},"properties":{"Name":"本通小学校","Jusho":"北海道札幌市白石区平和通９丁目南１-１","kouzui":"○","gake":"×","takashio":"×","jishin":"○","tsunami":"×","kaji":"×","naisui":"×","kazan":"×"}}
,{"type":"Feature","geometry":{"type":"Point","coordinates":[141.38,43.057]},"properties":{"Name":"幌東中学校","Jusho":"北海道札幌市白石区菊水６条３丁目２-５１","kouzui":"○","gake":"×","takashio":"×","jishin":"○","tsunami":"×","kaji":"×","naisui":"×","kazan":"×"}}
,{"type":"Feature","geometry":{"type":"Point","coordinates":[141.379,43.058]},"properties":{"Name":"幌東小学校","Jusho":"北海道札幌市白石区菊水６条３丁目２-６５","kouzui":"○","gake":"×","takashio":"×","jishin":"○","tsunami":"×","kaji":"×","naisui":"×","kazan":"×"}}
,{"type":"Feature","geometry":{"type":"Point","coordinates":[141.381,43.062]},"properties":{"Name":"東橋小学校","Jusho":"北海道札幌市白石区菊水８条１丁目３-２５","kouzui":"○","gake":"×","takashio":"×","jishin":"○","tsunami":"×","kaji":"×","naisui":"×","kazan":"×"}}
,{"type":"Feature","geometry":{"type":"Point","coordinates":[141.387,43.062]},"properties":{"Name":"上白石小学校","Jusho":"北海道札幌市白石区菊水上町１条３丁目５２","kouzui":"○","gake":"×","takashio":"×","jishin":"○","tsunami":"×","kaji":"×","naisui":"×","kazan":"×"}}
,{"type":"Feature","geometry":{"type":"Point","coordinates":[141.401,43.066]},"properties":{"Name":"菊水小学校","Jusho":"北海道札幌市白石区菊水元町２条３丁目","kouzui":"○","gake":"×","takashio":"×","jishin":"○","tsunami":"×","kaji":"×","naisui":"×","kazan":"×"}}
,{"type":"Feature","geometry":{"type":"Point","coordinates":[141.434,43.051]},"properties":{"Name":"北都小学校","Jusho":"北海道札幌市白石区北郷３条１１丁目７-１","kouzui":"○","gake":"×","takashio":"×","jishin":"○","tsunami":"×","kaji":"×","naisui":"×","kazan":"×"}}
,{"type":"Feature","geometry":{"type":"Point","coordinates":[141.419,43.059]},"properties":{"Name":"北郷小学校","Jusho":"北海道札幌市白石区北郷４条５丁目１-１","kouzui":"○","gake":"×","takashio":"×","jishin":"○","tsunami":"×","kaji":"×","naisui":"×","kazan":"×"}}
,{"type":"Feature","geometry":{"type":"Point","coordinates":[141.418,43.064]},"properties":{"Name":"北白石中学校","Jusho":"北海道札幌市白石区北郷６条３丁目５-１","kouzui":"○","gake":"×","takashio":"×","jishin":"○","tsunami":"×","kaji":"×","naisui":"×","kazan":"×"}}
,{"type":"Feature","geometry":{"type":"Point","coordinates":[141.418,43.065]},"properties":{"Name":"北白石小学校","Jusho":"北海道札幌市白石区北郷６条３丁目５-２","kouzui":"○","gake":"×","takashio":"×","jishin":"○","tsunami":"×","kaji":"×","naisui":"×","kazan":"×"}}
,{"type":"Feature","geometry":{"type":"Point","coordinates":[141.436,43.064]},"properties":{"Name":"川北小学校","Jusho":"北海道札幌市白石区川北４条２丁目２-１","kouzui":"○","gake":"×","takashio":"×","jishin":"○","tsunami":"×","kaji":"×","naisui":"×","kazan":"×"}}
,{"type":"Feature","geometry":{"type":"Point","coordinates":[141.444,43.051]},"properties":{"Name":"東川下小学校","Jusho":"北海道札幌市白石区川下４条３丁目１-１","kouzui":"○","gake":"×","takashio":"×","jishin":"○","tsunami":"×","kaji":"×","naisui":"×","kazan":"×"}}
,{"type":"Feature","geometry":{"type":"Point","coordinates":[141.441,43.057]},"properties":{"Name":"北都中学校","Jusho":"北海道札幌市白石区川下７４９番地５６","kouzui":"○","gake":"×","takashio":"×","jishin":"○","tsunami":"×","kaji":"×","naisui":"×","kazan":"×"}}
,{"type":"Feature","geometry":{"type":"Point","coordinates":[141.418,43.074]},"properties":{"Name":"米里小学校","Jusho":"北海道札幌市白石区米里１条３丁目８-１","kouzui":"○","gake":"×","takashio":"×","jishin":"○","tsunami":"×","kaji":"×","naisui":"×","kazan":"×"}}
,{"type":"Feature","geometry":{"type":"Point","coordinates":[141.419,43.071]},"properties":{"Name":"米里中学校","Jusho":"北海道札幌市白石区米里１条４丁目５-１","kouzui":"○","gake":"×","takashio":"×","jishin":"○","tsunami":"×","kaji":"×","naisui":"×","kazan":"×"}}
,{"type":"Feature","geometry":{"type":"Point","coordinates":[141.457,43.081]},"properties":{"Name":"札幌白陵高校","Jusho":"北海道札幌市白石区東米里2062番地","kouzui":"○","gake":"×","takashio":"×","jishin":"○","tsunami":"×","kaji":"×","naisui":"×","kazan":"×"}}
,{"type":"Feature","geometry":{"type":"Point","coordinates":[141.485,43.044]},"properties":{"Name":"小野幌小学校","Jusho":"北海道札幌市厚別区厚別東２条４丁目５-１","kouzui":"○","gake":"○","takashio":"×","jishin":"○","tsunami":"×","kaji":"×","naisui":"×","kazan":"×"}}
,{"type":"Feature","geometry":{"type":"Point","coordinates":[141.487,43.047]},"properties":{"Name":"厚別中学校","Jusho":"北海道札幌市厚別区厚別東３条５丁目１-１","kouzui":"○","gake":"○","takashio":"×","jishin":"○","tsunami":"×","kaji":"×","naisui":"×","kazan":"×"}}
,{"type":"Feature","geometry":{"type":"Point","coordinates":[141.487,43.055]},"properties":{"Name":"厚別東小学校","Jusho":"北海道札幌市厚別区厚別東４条８丁目１-１","kouzui":"○","gake":"○","takashio":"×","jishin":"○","tsunami":"×","kaji":"×","naisui":"×","kazan":"×"}}
,{"type":"Feature","geometry":{"type":"Point","coordinates":[141.47,43.059]},"properties":{"Name":"厚別北中学校","Jusho":"北海道札幌市厚別区厚別町小野幌７７４番地５","kouzui":"×","gake":"×","takashio":"×","jishin":"○","tsunami":"×","kaji":"×","naisui":"×","kazan":"×"}}
,{"type":"Feature","geometry":{"type":"Point","coordinates":[141.498,43.03]},"properties":{"Name":"もみじの丘小学校","Jusho":"北海道札幌市厚別区もみじ台東４丁目５-１","kouzui":"○","gake":"○","takashio":"×","jishin":"○","tsunami":"×","kaji":"×","naisui":"×","kazan":"×"}}
,{"type":"Feature","geometry":{"type":"Point","coordinates":[141.504,43.022]},"properties":{"Name":"もみじ台南中学校","Jusho":"北海道札幌市厚別区もみじ台南７丁目３-１","kouzui":"×","gake":"×","takashio":"×","jishin":"○","tsunami":"×","kaji":"×","naisui":"×","kazan":"×"}}
,{"type":"Feature","geometry":{"type":"Point","coordinates":[141.485,43.038]},"properties":{"Name":"もみじ台中学校","Jusho":"北海道札幌市厚別区もみじ台西１丁目１-１","kouzui":"○","gake":"○","takashio":"×","jishin":"○","tsunami":"×","kaji":"×","naisui":"×","kazan":"×"}}
,{"type":"Feature","geometry":{"type":"Point","coordinates":[141.486,43.032]},"properties":{"Name":"もみじの森小学校","Jusho":"北海道札幌市厚別区もみじ台西３丁目４-１","kouzui":"×","gake":"×","takashio":"×","jishin":"○","tsunami":"×","kaji":"×","naisui":"×","kazan":"×"}}
,{"type":"Feature","geometry":{"type":"Point","coordinates":[141.476,43.03]},"properties":{"Name":"青葉小学校","Jusho":"北海道札幌市厚別区青葉町６丁目２-２４","kouzui":"○","gake":"○","takashio":"×","jishin":"○","tsunami":"×","kaji":"×","naisui":"×","kazan":"×"}}
,{"type":"Feature","geometry":{"type":"Point","coordinates":[141.48,43.025]},"properties":{"Name":"青葉中学校","Jusho":"北海道札幌市厚別区青葉町１０丁目１-１","kouzui":"○","gake":"○","takashio":"×","jishin":"○","tsunami":"×","kaji":"×","naisui":"×","kazan":"×"}}
,{"type":"Feature","geometry":{"type":"Point","coordinates":[141.471,43.03]},"properties":{"Name":"共栄小学校","Jusho":"北海道札幌市厚別区厚別南２丁目２１-２２","kouzui":"○","gake":"○","takashio":"×","jishin":"○","tsunami":"×","kaji":"×","naisui":"×","kazan":"×"}}
,{"type":"Feature","geometry":{"type":"Point","coordinates":[141.479,43.023]},"properties":{"Name":"上野幌小学校","Jusho":"北海道札幌市厚別区厚別南７丁目９-１","kouzui":"○","gake":"○","takashio":"×","jishin":"○","tsunami":"×","kaji":"×","naisui":"×","kazan":"×"}}
,{"type":"Feature","geometry":{"type":"Point","coordinates":[141.472,43.016]},"properties":{"Name":"上野幌中学校","Jusho":"北海道札幌市厚別区上野幌２条３丁目１０-１","kouzui":"○","gake":"○","takashio":"×","jishin":"○","tsunami":"×","kaji":"×","naisui":"×","kazan":"×"}}
,{"type":"Feature","geometry":{"type":"Point","coordinates":[141.475,43.014]},"properties":{"Name":"ノホロの丘小学校","Jusho":"北海道札幌市厚別区上野幌２条４丁目５-１","kouzui":"○","gake":"○","takashio":"×","jishin":"○","tsunami":"×","kaji":"×","naisui":"×","kazan":"×"}}
,{"type":"Feature","geometry":{"type":"Point","coordinates":[141.458,43.024]},"properties":{"Name":"大谷地東小学校","Jusho":"北海道札幌市厚別区大谷地東５丁目８-１","kouzui":"○","gake":"○","takashio":"×","jishin":"○","tsunami":"×","kaji":"×","naisui":"×","kazan":"×"}}
,{"type":"Feature","geometry":{"type":"Point","coordinates":[141.46,43.029]},"properties":{"Name":"厚別南中学校","Jusho":"北海道札幌市厚別区大谷地東７丁目１-１","kouzui":"×","gake":"×","takashio":"×","jishin":"○","tsunami":"×","kaji":"×","naisui":"×","kazan":"×"}}
,{"type":"Feature","geometry":{"type":"Point","coordinates":[141.466,43.036]},"properties":{"Name":"ひばりが丘小学校","Jusho":"北海道札幌市厚別区厚別中央２条４丁目３-１","kouzui":"○","gake":"○","takashio":"×","jishin":"○","tsunami":"×","kaji":"×","naisui":"×","kazan":"×"}}
,{"type":"Feature","geometry":{"type":"Point","coordinates":[141.471,43.037]},"properties":{"Name":"厚別区体育館","Jusho":"北海道札幌市厚別区厚別中央２条５丁目","kouzui":"○","gake":"○","takashio":"×","jishin":"○","tsunami":"×","kaji":"×","naisui":"×","kazan":"×"}}
,{"type":"Feature","geometry":{"type":"Point","coordinates":[141.46,43.036]},"properties":{"Name":"信濃中学校","Jusho":"北海道札幌市厚別区厚別中央３条２丁目３-１","kouzui":"○","gake":"○","takashio":"×","jishin":"○","tsunami":"×","kaji":"×","naisui":"×","kazan":"×"}}
,{"type":"Feature","geometry":{"type":"Point","coordinates":[141.463,43.042]},"properties":{"Name":"信濃小学校","Jusho":"北海道札幌市厚別区厚別中央４条３丁目６-１","kouzui":"○","gake":"○","takashio":"×","jishin":"○","tsunami":"×","kaji":"×","naisui":"×","kazan":"×"}}
,{"type":"Feature","geometry":{"type":"Point","coordinates":[141.458,43.048]},"properties":{"Name":"厚別西小学校","Jusho":"北海道札幌市厚別区厚別西３条１丁目３-１","kouzui":"○","gake":"×","takashio":"×","jishin":"○","tsunami":"×","kaji":"×","naisui":"×","kazan":"×"}}
,{"type":"Feature","geometry":{"type":"Point","coordinates":[141.462,43.052]},"properties":{"Name":"厚別通小学校","Jusho":"北海道札幌市厚別区厚別西４条３丁目１０-３０","kouzui":"○","gake":"×","takashio":"×","jishin":"○","tsunami":"×","kaji":"×","naisui":"×","kazan":"×"}}
,{"type":"Feature","geometry":{"type":"Point","coordinates":[141.476,43.055]},"properties":{"Name":"厚別北小学校","Jusho":"北海道札幌市厚別区厚別北２条３丁目３-１","kouzui":"○","gake":"○","takashio":"×","jishin":"○","tsunami":"×","kaji":"×","naisui":"×","kazan":"×"}}
,{"type":"Feature","geometry":{"type":"Point","coordinates":[141.389,43.044]},"properties":{"Name":"豊園小学校","Jusho":"北海道札幌市豊平区美園１条４丁目１-１","kouzui":"○","gake":"○","takashio":"×","jishin":"○","tsunami":"×","kaji":"×","naisui":"×","kazan":"×"}}
,{"type":"Feature","geometry":{"type":"Point","coordinates":[141.381,43.042]},"properties":{"Name":"みどり小学校","Jusho":"北海道札幌市豊平区美園５条２丁目２-１","kouzui":"○","gake":"○","takashio":"×","jishin":"○","tsunami":"×","kaji":"×","naisui":"×","kazan":"×"}}
,{"type":"Feature","geometry":{"type":"Point","coordinates":[141.39,43.032]},"properties":{"Name":"月寒小学校","Jusho":"北海道札幌市豊平区月寒西２条５丁目１-１","kouzui":"○","gake":"○","takashio":"×","jishin":"○","tsunami":"×","kaji":"×","naisui":"×","kazan":"×"}}
,{"type":"Feature","geometry":{"type":"Point","coordinates":[141.39,43.027]},"properties":{"Name":"南月寒小学校","Jusho":"北海道札幌市豊平区月寒西４条８丁目２-１","kouzui":"○","gake":"○","takashio":"×","jishin":"○","tsunami":"×","kaji":"×","naisui":"×","kazan":"×"}}
,{"type":"Feature","geometry":{"type":"Point","coordinates":[141.382,43.007]},"properties":{"Name":"西岡小学校","Jusho":"北海道札幌市豊平区西岡２条９丁目１-１","kouzui":"○","gake":"○","takashio":"×","jishin":"○","tsunami":"×","kaji":"×","naisui":"×","kazan":"×"}}
,{"type":"Feature","geometry":{"type":"Point","coordinates":[141.378,42.997]},"properties":{"Name":"西岡中学校","Jusho":"北海道札幌市豊平区西岡３条１２丁目１-１","kouzui":"○","gake":"○","takashio":"×","jishin":"○","tsunami":"×","kaji":"×","naisui":"×","kazan":"×"}}
,{"type":"Feature","geometry":{"type":"Point","coordinates":[141.386,43.013]},"properties":{"Name":"西岡北小学校","Jusho":"北海道札幌市豊平区西岡３条６丁目７-２０","kouzui":"○","gake":"○","takashio":"×","jishin":"○","tsunami":"×","kaji":"×","naisui":"×","kazan":"×"}}
,{"type":"Feature","geometry":{"type":"Point","coordinates":[141.384,43.008]},"properties":{"Name":"西岡北中学校","Jusho":"北海道札幌市豊平区西岡３条８丁目１-１","kouzui":"○","gake":"○","takashio":"×","jishin":"○","tsunami":"×","kaji":"×","naisui":"×","kazan":"×"}}
,{"type":"Feature","geometry":{"type":"Point","coordinates":[141.379,42.997]},"properties":{"Name":"西岡南小学校","Jusho":"北海道札幌市豊平区西岡４条１２丁目７-１","kouzui":"○","gake":"○","takashio":"×","jishin":"○","tsunami":"×","kaji":"×","naisui":"×","kazan":"×"}}
,{"type":"Feature","geometry":{"type":"Point","coordinates":[141.397,43.018]},"properties":{"Name":"羊丘中学校","Jusho":"北海道札幌市豊平区福住１条３丁目１６-１","kouzui":"○","gake":"○","takashio":"×","jishin":"○","tsunami":"×","kaji":"×","naisui":"×","kazan":"×"}}
,{"type":"Feature","geometry":{"type":"Point","coordinates":[141.402,43.013]},"properties":{"Name":"福住小学校","Jusho":"北海道札幌市豊平区福住３条５丁目１-１","kouzui":"○","gake":"○","takashio":"×","jishin":"○","tsunami":"×","kaji":"×","naisui":"×","kazan":"×"}}
,{"type":"Feature","geometry":{"type":"Point","coordinates":[141.404,43.025]},"properties":{"Name":"あやめ野小学校","Jusho":"北海道札幌市豊平区月寒東１条１１丁目７-３２","kouzui":"×","gake":"×","takashio":"×","jishin":"○","tsunami":"×","kaji":"×","naisui":"×","kazan":"×"}}
,{"type":"Feature","geometry":{"type":"Point","coordinates":[141.412,43.018]},"properties":{"Name":"羊丘小学校","Jusho":"北海道札幌市豊平区月寒東１条１６丁目３-１","kouzui":"○","gake":"○","takashio":"×","jishin":"○","tsunami":"×","kaji":"×","naisui":"×","kazan":"×"}}
,{"type":"Feature","geometry":{"type":"Point","coordinates":[141.399,43.039]},"properties":{"Name":"月寒中学校","Jusho":"北海道札幌市豊平区月寒東２条２丁目４-５４","kouzui":"○","gake":"○","takashio":"×","jishin":"○","tsunami":"×","kaji":"×","naisui":"×","kazan":"×"}}
,{"type":"Feature","geometry":{"type":"Point","coordinates":[141.427,43.014]},"properties":{"Name":"豊平区体育館","Jusho":"北海道札幌市豊平区月寒東２条２０丁目４-１５","kouzui":"○","gake":"○","takashio":"×","jishin":"○","tsunami":"×","kaji":"×","naisui":"×","kazan":"×"}}
,{"type":"Feature","geometry":{"type":"Point","coordinates":[141.406,43.03]},"properties":{"Name":"月寒東小学校","Jusho":"北海道札幌市豊平区月寒東３条１０丁目１-１","kouzui":"○","gake":"×","takashio":"×","jishin":"○","tsunami":"×","kaji":"×","naisui":"×","kazan":"×"}}
,{"type":"Feature","geometry":{"type":"Point","coordinates":[141.417,43.03]},"properties":{"Name":"あやめ野中学校","Jusho":"北海道札幌市豊平区月寒東３条１１丁目１５-１","kouzui":"○","gake":"×","takashio":"×","jishin":"○","tsunami":"×","kaji":"×","naisui":"×","kazan":"×"}}
,{"type":"Feature","geometry":{"type":"Point","coordinates":[141.421,43.019]},"properties":{"Name":"東月寒中学校","Jusho":"北海道札幌市豊平区月寒東３条１８丁目１-７２","kouzui":"○","gake":"○","takashio":"×","jishin":"○","tsunami":"×","kaji":"×","naisui":"×","kazan":"×"}}
,{"type":"Feature","geometry":{"type":"Point","coordinates":[141.428,43.023]},"properties":{"Name":"しらかば台小学校","Jusho":"北海道札幌市豊平区月寒東４条１８丁目１０-４３","kouzui":"○","gake":"○","takashio":"×","jishin":"○","tsunami":"×","kaji":"×","naisui":"×","kazan":"×"}}
,{"type":"Feature","geometry":{"type":"Point","coordinates":[141.382,43.048]},"properties":{"Name":"東園小学校","Jusho":"北海道札幌市豊平区豊平１条１２丁目１-１","kouzui":"○","gake":"×","takashio":"×","jishin":"○","tsunami":"×","kaji":"×","naisui":"×","kazan":"×"}}
,{"type":"Feature","geometry":{"type":"Point","coordinates":[141.372,43.048]},"properties":{"Name":"豊平小学校","Jusho":"北海道札幌市豊平区豊平５条７丁目１-２","kouzui":"○","gake":"×","takashio":"×","jishin":"○","tsunami":"×","kaji":"×","naisui":"×","kazan":"×"}}
,{"type":"Feature","geometry":{"type":"Point","coordinates":[141.377,43.041]},"properties":{"Name":"八条中学校","Jusho":"北海道札幌市豊平区豊平８条１３丁目２-１","kouzui":"○","gake":"○","takashio":"×","jishin":"○","tsunami":"×","kaji":"×","naisui":"×","kazan":"×"}}
,{"type":"Feature","geometry":{"type":"Point","coordinates":[141.363,43.047]},"properties":{"Name":"旭小学校","Jusho":"北海道札幌市豊平区水車町３丁目１-２２","kouzui":"×","gake":"×","takashio":"×","jishin":"○","tsunami":"×","kaji":"×","naisui":"×","kazan":"×"}}
,{"type":"Feature","geometry":{"type":"Point","coordinates":[141.363,43.038]},"properties":{"Name":"中の島小学校","Jusho":"北海道札幌市豊平区中の島２条１丁目１-２２","kouzui":"×","gake":"×","takashio":"×","jishin":"○","tsunami":"×","kaji":"×","naisui":"×","kazan":"×"}}
,{"type":"Feature","geometry":{"type":"Point","coordinates":[141.362,43.034]},"properties":{"Name":"中の島中学校","Jusho":"北海道札幌市豊平区中の島２条３丁目９-１","kouzui":"○","gake":"○","takashio":"×","jishin":"○","tsunami":"×","kaji":"×","naisui":"×","kazan":"×"}}
,{"type":"Feature","geometry":{"type":"Point","coordinates":[141.362,43.025]},"properties":{"Name":"平岸西小学校","Jusho":"北海道札幌市豊平区平岸１条１５丁目２-１","kouzui":"○","gake":"○","takashio":"×","jishin":"○","tsunami":"×","kaji":"×","naisui":"×","kazan":"×"}}
,{"type":"Feature","geometry":{"type":"Point","coordinates":[141.358,43.017]},"properties":{"Name":"平岸中学校","Jusho":"北海道札幌市豊平区平岸１条２１丁目３-１","kouzui":"×","gake":"×","takashio":"×","jishin":"○","tsunami":"×","kaji":"×","naisui":"×","kazan":"×"}}
,{"type":"Feature","geometry":{"type":"Point","coordinates":[141.367,43.026]},"properties":{"Name":"平岸小学校","Jusho":"北海道札幌市豊平区平岸２条１４丁目１-２８","kouzui":"○","gake":"○","takashio":"×","jishin":"○","tsunami":"×","kaji":"×","naisui":"×","kazan":"×"}}
,{"type":"Feature","geometry":{"type":"Point","coordinates":[141.374,43.03]},"properties":{"Name":"東山小学校","Jusho":"北海道札幌市豊平区平岸４条１１丁目６-１","kouzui":"○","gake":"○","takashio":"×","jishin":"○","tsunami":"×","kaji":"×","naisui":"×","kazan":"×"}}
,{"type":"Feature","geometry":{"type":"Point","coordinates":[141.379,43.036]},"properties":{"Name":"美園小学校","Jusho":"北海道札幌市豊平区平岸５条７丁目２-２１","kouzui":"○","gake":"○","takashio":"×","jishin":"○","tsunami":"×","kaji":"×","naisui":"×","kazan":"×"}}
,{"type":"Feature","geometry":{"type":"Point","coordinates":[141.373,43.018]},"properties":{"Name":"平岸高台小学校","Jusho":"北海道札幌市豊平区平岸５条１８丁目１-１","kouzui":"○","gake":"○","takashio":"×","jishin":"○","tsunami":"×","kaji":"×","naisui":"×","kazan":"×"}}
,{"type":"Feature","geometry":{"type":"Point","coordinates":[141.381,43.03]},"properties":{"Name":"陵陽中学校","Jusho":"北海道札幌市豊平区平岸６条１１丁目１-２５","kouzui":"○","gake":"○","takashio":"×","jishin":"○","tsunami":"×","kaji":"×","naisui":"×","kazan":"×"}}
,{"type":"Feature","geometry":{"type":"Point","coordinates":[141.469,42.981]},"properties":{"Name":"三里塚小学校","Jusho":"北海道札幌市清田区里塚２条６丁目７-１","kouzui":"×","gake":"○","takashio":"×","jishin":"○","tsunami":"×","kaji":"×","naisui":"×","kazan":"×"}}
,{"type":"Feature","geometry":{"type":"Point","coordinates":[141.448,42.99]},"properties":{"Name":"真栄小学校","Jusho":"北海道札幌市清田区美しが丘１条１丁目１-１０","kouzui":"○","gake":"○","takashio":"×","jishin":"○","tsunami":"×","kaji":"×","naisui":"×","kazan":"×"}}
,{"type":"Feature","geometry":{"type":"Point","coordinates":[141.449,42.989]},"properties":{"Name":"真栄中学校","Jusho":"北海道札幌市清田区美しが丘１条１丁目２-１０","kouzui":"○","gake":"○","takashio":"×","jishin":"○","tsunami":"×","kaji":"×","naisui":"×","kazan":"×"}}
,{"type":"Feature","geometry":{"type":"Point","coordinates":[141.454,42.984]},"properties":{"Name":"美しが丘小学校","Jusho":"北海道札幌市清田区美しが丘２条５丁目１-１","kouzui":"○","gake":"○","takashio":"×","jishin":"○","tsunami":"×","kaji":"×","naisui":"×","kazan":"×"}}
,{"type":"Feature","geometry":{"type":"Point","coordinates":[141.452,42.978]},"properties":{"Name":"美しが丘緑小学校","Jusho":"北海道札幌市清田区美しが丘４条５丁目８-１","kouzui":"○","gake":"○","takashio":"×","jishin":"○","tsunami":"×","kaji":"×","naisui":"×","kazan":"×"}}
,{"type":"Feature","geometry":{"type":"Point","coordinates":[141.451,42.95]},"properties":{"Name":"有明小学校","Jusho":"北海道札幌市清田区有明１４１-２","kouzui":"○","gake":"○","takashio":"×","jishin":"○","tsunami":"×","kaji":"×","naisui":"×","kazan":"×"}}
,{"type":"Feature","geometry":{"type":"Point","coordinates":[141.44,43.001]},"properties":{"Name":"清田小学校","Jusho":"北海道札幌市清田区清田１条４丁目３-３０","kouzui":"○","gake":"○","takashio":"×","jishin":"○","tsunami":"×","kaji":"×","naisui":"×","kazan":"×"}}
,{"type":"Feature","geometry":{"type":"Point","coordinates":[141.43,42.997]},"properties":{"Name":"清田南小学校","Jusho":"北海道札幌市清田区清田５条２丁目１８-１","kouzui":"○","gake":"○","takashio":"×","jishin":"○","tsunami":"×","kaji":"×","naisui":"×","kazan":"×"}}
,{"type":"Feature","geometry":{"type":"Point","coordinates":[141.434,42.988]},"properties":{"Name":"清田緑小学校","Jusho":"北海道札幌市清田区清田７条３丁目１２-１０","kouzui":"○","gake":"○","takashio":"×","jishin":"○","tsunami":"×","kaji":"×","naisui":"×","kazan":"×"}}
,{"type":"Feature","geometry":{"type":"Point","coordinates":[141.435,43.01]},"properties":{"Name":"北野平小学校","Jusho":"北海道札幌市清田区北野２条３丁目７-１","kouzui":"○","gake":"○","takashio":"×","jishin":"○","tsunami":"×","kaji":"×","naisui":"×","kazan":"×"}}
,{"type":"Feature","geometry":{"type":"Point","coordinates":[141.437,43.009]},"properties":{"Name":"北野中学校","Jusho":"北海道札幌市清田区北野２条３丁目７-３０","kouzui":"○","gake":"○","takashio":"×","jishin":"○","tsunami":"×","kaji":"×","naisui":"×","kazan":"×"}}
,{"type":"Feature","geometry":{"type":"Point","coordinates":[141.433,43.015]},"properties":{"Name":"北野小学校","Jusho":"北海道札幌市清田区北野３条２丁目１０-１","kouzui":"○","gake":"○","takashio":"×","jishin":"○","tsunami":"×","kaji":"×","naisui":"×","kazan":"×"}}
,{"type":"Feature","geometry":{"type":"Point","coordinates":[141.443,43.013]},"properties":{"Name":"北野台中学校","Jusho":"北海道札幌市清田区北野４条４丁目１３-１","kouzui":"○","gake":"○","takashio":"×","jishin":"○","tsunami":"×","kaji":"×","naisui":"×","kazan":"×"}}
,{"type":"Feature","geometry":{"type":"Point","coordinates":[141.447,43.012]},"properties":{"Name":"北野台小学校","Jusho":"北海道札幌市清田区北野４条５丁目４-８０","kouzui":"○","gake":"○","takashio":"×","jishin":"○","tsunami":"×","kaji":"×","naisui":"×","kazan":"×"}}
,{"type":"Feature","geometry":{"type":"Point","coordinates":[141.452,42.991]},"properties":{"Name":"清田区体育館","Jusho":"北海道札幌市清田区平岡１条５丁目４-１","kouzui":"○","gake":"○","takashio":"×","jishin":"○","tsunami":"×","kaji":"×","naisui":"×","kazan":"×"}}
,{"type":"Feature","geometry":{"type":"Point","coordinates":[141.455,42.994]},"properties":{"Name":"平岡中学校","Jusho":"北海道札幌市清田区平岡２条５丁目４-１０","kouzui":"○","gake":"○","takashio":"×","jishin":"○","tsunami":"×","kaji":"×","naisui":"×","kazan":"×"}}
,{"type":"Feature","geometry":{"type":"Point","coordinates":[141.457,42.993]},"properties":{"Name":"平岡南小学校","Jusho":"北海道札幌市清田区平岡２条６丁目２-１","kouzui":"○","gake":"○","takashio":"×","jishin":"○","tsunami":"×","kaji":"×","naisui":"×","kazan":"×"}}
,{"type":"Feature","geometry":{"type":"Point","coordinates":[141.457,43.006]},"properties":{"Name":"平岡中央小学校","Jusho":"北海道札幌市清田区平岡５条３丁目９-１","kouzui":"○","gake":"○","takashio":"×","jishin":"○","tsunami":"×","kaji":"×","naisui":"×","kazan":"×"}}
,{"type":"Feature","geometry":{"type":"Point","coordinates":[141.458,43.004]},"properties":{"Name":"平岡中央中学校","Jusho":"北海道札幌市清田区平岡５条４丁目７-１","kouzui":"○","gake":"○","takashio":"×","jishin":"○","tsunami":"×","kaji":"×","naisui":"×","kazan":"×"}}
,{"type":"Feature","geometry":{"type":"Point","coordinates":[141.459,43.015]},"properties":{"Name":"平岡小学校","Jusho":"北海道札幌市清田区平岡９条２丁目５-１","kouzui":"○","gake":"○","takashio":"×","jishin":"○","tsunami":"×","kaji":"×","naisui":"×","kazan":"×"}}
,{"type":"Feature","geometry":{"type":"Point","coordinates":[141.474,43.004]},"properties":{"Name":"平岡公園小学校","Jusho":"北海道札幌市清田区平岡公園東５丁目９-１","kouzui":"×","gake":"○","takashio":"×","jishin":"○","tsunami":"×","kaji":"×","naisui":"×","kazan":"×"}}
,{"type":"Feature","geometry":{"type":"Point","coordinates":[141.476,43.001]},"properties":{"Name":"平岡緑中学校","Jusho":"北海道札幌市清田区平岡公園東９丁目１１-１","kouzui":"×","gake":"×","takashio":"×","jishin":"○","tsunami":"×","kaji":"×","naisui":"×","kazan":"×"}}
,{"type":"Feature","geometry":{"type":"Point","coordinates":[141.362,43.01]},"properties":{"Name":"澄川西小学校","Jusho":"北海道札幌市南区澄川２条５丁目７-２","kouzui":"×","gake":"×","takashio":"×","jishin":"○","tsunami":"×","kaji":"×","naisui":"×","kazan":"×"}}
,{"type":"Feature","geometry":{"type":"Point","coordinates":[141.371,43.013]},"properties":{"Name":"澄川小学校","Jusho":"北海道札幌市南区澄川５条４丁目１-１","kouzui":"○","gake":"○","takashio":"×","jishin":"○","tsunami":"×","kaji":"×","naisui":"×","kazan":"×"}}
,{"type":"Feature","geometry":{"type":"Point","coordinates":[141.369,42.993]},"properties":{"Name":"澄川南小学校","Jusho":"北海道札幌市南区澄川５条１３丁目７-１","kouzui":"○","gake":"○","takashio":"×","jishin":"○","tsunami":"×","kaji":"×","naisui":"×","kazan":"×"}}
,{"type":"Feature","geometry":{"type":"Point","coordinates":[141.373,43.008]},"properties":{"Name":"澄川中学校","Jusho":"北海道札幌市南区澄川６条６丁目１-１０","kouzui":"○","gake":"○","takashio":"×","jishin":"○","tsunami":"×","kaji":"×","naisui":"×","kazan":"×"}}
,{"type":"Feature","geometry":{"type":"Point","coordinates":[141.357,42.99]},"properties":{"Name":"真駒内中学校","Jusho":"北海道札幌市南区真駒内幸町３丁目１-１","kouzui":"○","gake":"○","takashio":"×","jishin":"○","tsunami":"×","kaji":"×","naisui":"×","kazan":"×"}}
,{"type":"Feature","geometry":{"type":"Point","coordinates":[141.355,42.985]},"properties":{"Name":"真駒内桜山小学校","Jusho":"北海道札幌市南区真駒内泉町３丁目","kouzui":"○","gake":"○","takashio":"×","jishin":"○","tsunami":"×","kaji":"×","naisui":"×","kazan":"×"}}
,{"type":"Feature","geometry":{"type":"Point","coordinates":[141.349,43]},"properties":{"Name":"真駒内公園小学校","Jusho":"北海道札幌市南区真駒内曙町２丁目１-１","kouzui":"○","gake":"○","takashio":"×","jishin":"○","tsunami":"×","kaji":"×","naisui":"×","kazan":"×"}}
,{"type":"Feature","geometry":{"type":"Point","coordinates":[141.35,42.999]},"properties":{"Name":"真駒内曙中学校","Jusho":"北海道札幌市南区真駒内曙町２丁目１-２","kouzui":"○","gake":"○","takashio":"×","jishin":"○","tsunami":"×","kaji":"×","naisui":"×","kazan":"×"}}
,{"type":"Feature","geometry":{"type":"Point","coordinates":[141.349,43.017]},"properties":{"Name":"南小学校","Jusho":"北海道札幌市南区南３１条西９丁目","kouzui":"○","gake":"○","takashio":"×","jishin":"○","tsunami":"×","kaji":"×","naisui":"×","kazan":"×"}}
,{"type":"Feature","geometry":{"type":"Point","coordinates":[141.33,42.999]},"properties":{"Name":"藻岩北小学校","Jusho":"北海道札幌市南区川沿２条３丁目７-１","kouzui":"○","gake":"○","takashio":"×","jishin":"○","tsunami":"×","kaji":"×","naisui":"×","kazan":"×"}}
,{"type":"Feature","geometry":{"type":"Point","coordinates":[141.333,42.995]},"properties":{"Name":"南区体育館","Jusho":"北海道札幌市南区川沿４条２丁目２-１","kouzui":"○","gake":"○","takashio":"×","jishin":"○","tsunami":"×","kaji":"×","naisui":"×","kazan":"×"}}
,{"type":"Feature","geometry":{"type":"Point","coordinates":[141.333,42.988]},"properties":{"Name":"藻岩小学校","Jusho":"北海道札幌市南区川沿７条２丁目３-１","kouzui":"○","gake":"○","takashio":"×","jishin":"○","tsunami":"×","kaji":"×","naisui":"×","kazan":"×"}}
,{"type":"Feature","geometry":{"type":"Point","coordinates":[141.331,42.988]},"properties":{"Name":"藻岩中学校","Jusho":"北海道札幌市南区川沿７条３丁目４-１","kouzui":"○","gake":"○","takashio":"×","jishin":"○","tsunami":"×","kaji":"×","naisui":"×","kazan":"×"}}
,{"type":"Feature","geometry":{"type":"Point","coordinates":[141.332,42.973]},"properties":{"Name":"藻岩南小学校","Jusho":"北海道札幌市南区川沿１８条２丁目１-１５","kouzui":"○","gake":"○","takashio":"×","jishin":"○","tsunami":"×","kaji":"×","naisui":"×","kazan":"×"}}
,{"type":"Feature","geometry":{"type":"Point","coordinates":[141.325,42.985]},"properties":{"Name":"南が丘中学校","Jusho":"北海道札幌市南区南沢２条１丁目１７-１","kouzui":"○","gake":"○","takashio":"×","jishin":"○","tsunami":"×","kaji":"×","naisui":"×","kazan":"×"}}
,{"type":"Feature","geometry":{"type":"Point","coordinates":[141.319,42.987]},"properties":{"Name":"南の沢小学校","Jusho":"北海道札幌市南区南沢３条２丁目１８-１","kouzui":"×","gake":"○","takashio":"×","jishin":"○","tsunami":"×","kaji":"×","naisui":"×","kazan":"×"}}
,{"type":"Feature","geometry":{"type":"Point","coordinates":[141.317,43.004]},"properties":{"Name":"北の沢小学校","Jusho":"北海道札幌市南区北ノ沢１７２７番地","kouzui":"×","gake":"○","takashio":"×","jishin":"○","tsunami":"×","kaji":"×","naisui":"×","kazan":"×"}}
,{"type":"Feature","geometry":{"type":"Point","coordinates":[141.332,42.967]},"properties":{"Name":"石山緑小学校","Jusho":"北海道札幌市南区石山１条４丁目１-１","kouzui":"×","gake":"×","takashio":"×","jishin":"○","tsunami":"×","kaji":"×","naisui":"×","kazan":"×"}}
,{"type":"Feature","geometry":{"type":"Point","coordinates":[141.318,42.959]},"properties":{"Name":"石山中学校","Jusho":"北海道札幌市南区石山２条８丁目７-１","kouzui":"○","gake":"○","takashio":"×","jishin":"○","tsunami":"×","kaji":"×","naisui":"×","kazan":"×"}}
,{"type":"Feature","geometry":{"type":"Point","coordinates":[141.313,42.958]},"properties":{"Name":"藤の沢小学校","Jusho":"北海道札幌市南区石山５２８番地","kouzui":"○","gake":"○","takashio":"×","jishin":"○","tsunami":"×","kaji":"×","naisui":"×","kazan":"×"}}
,{"type":"Feature","geometry":{"type":"Point","coordinates":[141.345,42.961]},"properties":{"Name":"石山東小学校","Jusho":"北海道札幌市南区石山東５丁目６-１","kouzui":"○","gake":"○","takashio":"×","jishin":"○","tsunami":"×","kaji":"×","naisui":"×","kazan":"×"}}
,{"type":"Feature","geometry":{"type":"Point","coordinates":[141.348,42.946]},"properties":{"Name":"常盤中学校","Jusho":"北海道札幌市南区常盤２条２丁目２１-１","kouzui":"×","gake":"○","takashio":"×","jishin":"○","tsunami":"×","kaji":"×","naisui":"×","kazan":"×"}}
,{"type":"Feature","geometry":{"type":"Point","coordinates":[141.342,42.935]},"properties":{"Name":"常盤小学校","Jusho":"北海道札幌市南区常盤６条２丁目１０７","kouzui":"×","gake":"○","takashio":"×","jishin":"○","tsunami":"×","kaji":"×","naisui":"×","kazan":"×"}}
,{"type":"Feature","geometry":{"type":"Point","coordinates":[141.265,42.964]},"properties":{"Name":"簾舞小学校","Jusho":"北海道札幌市南区簾舞１条４丁目２-１","kouzui":"○","gake":"○","takashio":"×","jishin":"○","tsunami":"×","kaji":"×","naisui":"×","kazan":"×"}}
,{"type":"Feature","geometry":{"type":"Point","coordinates":[141.267,42.961]},"properties":{"Name":"簾舞中学校","Jusho":"北海道札幌市南区簾舞３条３丁目３-３３","kouzui":"○","gake":"○","takashio":"×","jishin":"○","tsunami":"×","kaji":"×","naisui":"×","kazan":"×"}}
,{"type":"Feature","geometry":{"type":"Point","coordinates":[141.232,42.958]},"properties":{"Name":"豊滝小学校","Jusho":"北海道札幌市南区豊滝４９２番地","kouzui":"○","gake":"○","takashio":"×","jishin":"○","tsunami":"×","kaji":"×","naisui":"×","kazan":"×"}}
,{"type":"Feature","geometry":{"type":"Point","coordinates":[141.293,42.964]},"properties":{"Name":"藤野小学校","Jusho":"北海道札幌市南区藤野２条７丁目７-１","kouzui":"○","gake":"○","takashio":"×","jishin":"○","tsunami":"×","kaji":"×","naisui":"×","kazan":"×"}}
,{"type":"Feature","geometry":{"type":"Point","coordinates":[141.295,42.957]},"properties":{"Name":"藤野南小学校","Jusho":"北海道札幌市南区藤野４条６丁目２９５-１７","kouzui":"○","gake":"○","takashio":"×","jishin":"○","tsunami":"×","kaji":"×","naisui":"×","kazan":"×"}}
,{"type":"Feature","geometry":{"type":"Point","coordinates":[141.292,42.955]},"properties":{"Name":"藤野中学校","Jusho":"北海道札幌市南区藤野５条６丁目４５６-３","kouzui":"○","gake":"○","takashio":"×","jishin":"○","tsunami":"×","kaji":"×","naisui":"×","kazan":"×"}}
,{"type":"Feature","geometry":{"type":"Point","coordinates":[141.159,42.962]},"properties":{"Name":"定山渓小学校","Jusho":"北海道札幌市南区定山渓温泉東４丁目３０８","kouzui":"○","gake":"○","takashio":"×","jishin":"○","tsunami":"×","kaji":"×","naisui":"×","kazan":"×"}}
,{"type":"Feature","geometry":{"type":"Point","coordinates":[141.171,42.972]},"properties":{"Name":"定山渓中学校","Jusho":"北海道札幌市南区定山渓温泉西１丁目３１","kouzui":"○","gake":"○","takashio":"×","jishin":"○","tsunami":"×","kaji":"×","naisui":"×","kazan":"×"}}
,{"type":"Feature","geometry":{"type":"Point","coordinates":[141.296,43.063]},"properties":{"Name":"山の手南小学校","Jusho":"北海道札幌市西区山の手１条９丁目６-１","kouzui":"○","gake":"○","takashio":"×","jishin":"○","tsunami":"×","kaji":"×","naisui":"×","kazan":"×"}}
,{"type":"Feature","geometry":{"type":"Point","coordinates":[141.297,43.072]},"properties":{"Name":"琴似中学校","Jusho":"北海道札幌市西区山の手４条２丁目１-１","kouzui":"○","gake":"○","takashio":"×","jishin":"○","tsunami":"×","kaji":"×","naisui":"×","kazan":"×"}}
,{"type":"Feature","geometry":{"type":"Point","coordinates":[141.291,43.07]},"properties":{"Name":"山の手小学校","Jusho":"北海道札幌市西区山の手５条６丁目１-１","kouzui":"○","gake":"○","takashio":"×","jishin":"○","tsunami":"×","kaji":"×","naisui":"×","kazan":"×"}}
,{"type":"Feature","geometry":{"type":"Point","coordinates":[141.266,43.055]},"properties":{"Name":"福井野小学校","Jusho":"北海道札幌市西区福井６丁目１１-１","kouzui":"○","gake":"○","takashio":"×","jishin":"○","tsunami":"×","kaji":"×","naisui":"×","kazan":"×"}}
,{"type":"Feature","geometry":{"type":"Point","coordinates":[141.251,43.054]},"properties":{"Name":"平和小学校","Jusho":"北海道札幌市西区平和３条８丁目２-１","kouzui":"○","gake":"○","takashio":"×","jishin":"○","tsunami":"×","kaji":"×","naisui":"×","kazan":"×"}}
,{"type":"Feature","geometry":{"type":"Point","coordinates":[141.277,43.081]},"properties":{"Name":"西園小学校","Jusho":"北海道札幌市西区西野１条７丁目４-１","kouzui":"○","gake":"○","takashio":"×","jishin":"○","tsunami":"×","kaji":"×","naisui":"×","kazan":"×"}}
,{"type":"Feature","geometry":{"type":"Point","coordinates":[141.28,43.078]},"properties":{"Name":"手稲東中学校","Jusho":"北海道札幌市西区西野２条５丁目３-１","kouzui":"○","gake":"○","takashio":"×","jishin":"○","tsunami":"×","kaji":"×","naisui":"×","kazan":"×"}}
,{"type":"Feature","geometry":{"type":"Point","coordinates":[141.279,43.072]},"properties":{"Name":"手稲東小学校","Jusho":"北海道札幌市西区西野４条３丁目７-１","kouzui":"○","gake":"○","takashio":"×","jishin":"○","tsunami":"×","kaji":"×","naisui":"×","kazan":"×"}}
,{"type":"Feature","geometry":{"type":"Point","coordinates":[141.27,43.063]},"properties":{"Name":"西野小学校","Jusho":"北海道札幌市西区西野８条４丁目４-１","kouzui":"○","gake":"○","takashio":"×","jishin":"○","tsunami":"×","kaji":"×","naisui":"×","kazan":"×"}}
,{"type":"Feature","geometry":{"type":"Point","coordinates":[141.263,43.068]},"properties":{"Name":"西野第二小学校","Jusho":"北海道札幌市西区西野８条７丁目１-１","kouzui":"○","gake":"○","takashio":"×","jishin":"○","tsunami":"×","kaji":"×","naisui":"×","kazan":"×"}}
,{"type":"Feature","geometry":{"type":"Point","coordinates":[141.262,43.066]},"properties":{"Name":"西野中学校","Jusho":"北海道札幌市西区西野８条７丁目５-１","kouzui":"○","gake":"○","takashio":"×","jishin":"○","tsunami":"×","kaji":"×","naisui":"×","kazan":"×"}}
,{"type":"Feature","geometry":{"type":"Point","coordinates":[141.266,43.085]},"properties":{"Name":"手稲宮丘小学校","Jusho":"北海道札幌市西区宮の沢３条２丁目１-１","kouzui":"×","gake":"○","takashio":"×","jishin":"○","tsunami":"×","kaji":"×","naisui":"×","kazan":"×"}}
,{"type":"Feature","geometry":{"type":"Point","coordinates":[141.314,43.072]},"properties":{"Name":"陵北中学校","Jusho":"北海道札幌市西区二十四軒２条３丁目１-２３","kouzui":"○","gake":"×","takashio":"×","jishin":"○","tsunami":"×","kaji":"×","naisui":"×","kazan":"×"}}
,{"type":"Feature","geometry":{"type":"Point","coordinates":[141.313,43.073]},"properties":{"Name":"二十四軒小学校","Jusho":"北海道札幌市西区二十四軒２条３丁目１-３７","kouzui":"○","gake":"×","takashio":"×","jishin":"×","tsunami":"×","kaji":"×","naisui":"×","kazan":"×"}}
,{"type":"Feature","geometry":{"type":"Point","coordinates":[141.299,43.075]},"properties":{"Name":"琴似小学校","Jusho":"北海道札幌市西区琴似２条７丁目１-３０","kouzui":"○","gake":"○","takashio":"×","jishin":"○","tsunami":"×","kaji":"×","naisui":"×","kazan":"×"}}
,{"type":"Feature","geometry":{"type":"Point","coordinates":[141.293,43.082]},"properties":{"Name":"発寒南小学校","Jusho":"北海道札幌市西区発寒２条４丁目１-１","kouzui":"○","gake":"○","takashio":"×","jishin":"×","tsunami":"×","kaji":"×","naisui":"×","kazan":"×"}}
,{"type":"Feature","geometry":{"type":"Point","coordinates":[141.286,43.086]},"properties":{"Name":"発寒中学校","Jusho":"北海道札幌市西区発寒５条７丁目１-１","kouzui":"○","gake":"×","takashio":"×","jishin":"○","tsunami":"×","kaji":"×","naisui":"×","kazan":"×"}}
,{"type":"Feature","geometry":{"type":"Point","coordinates":[141.285,43.086]},"properties":{"Name":"発寒西小学校","Jusho":"北海道札幌市西区発寒５条７丁目１-２","kouzui":"○","gake":"○","takashio":"×","jishin":"○","tsunami":"×","kaji":"×","naisui":"×","kazan":"×"}}
,{"type":"Feature","geometry":{"type":"Point","coordinates":[141.282,43.088]},"properties":{"Name":"西区体育館","Jusho":"北海道札幌市西区発寒５条８丁目９-１","kouzui":"○","gake":"○","takashio":"×","jishin":"○","tsunami":"×","kaji":"×","naisui":"×","kazan":"×"}}
,{"type":"Feature","geometry":{"type":"Point","coordinates":[141.273,43.096]},"properties":{"Name":"西小学校","Jusho":"北海道札幌市西区発寒７条１３丁目２-１","kouzui":"○","gake":"○","takashio":"×","jishin":"○","tsunami":"×","kaji":"×","naisui":"×","kazan":"×"}}
,{"type":"Feature","geometry":{"type":"Point","coordinates":[141.293,43.091]},"properties":{"Name":"発寒小学校","Jusho":"北海道札幌市西区発寒１０条４丁目１-６２","kouzui":"○","gake":"×","takashio":"×","jishin":"○","tsunami":"×","kaji":"×","naisui":"×","kazan":"×"}}
,{"type":"Feature","geometry":{"type":"Point","coordinates":[141.297,43.102]},"properties":{"Name":"発寒東小学校","Jusho":"北海道札幌市西区発寒１５条２丁目２-１","kouzui":"○","gake":"×","takashio":"×","jishin":"○","tsunami":"×","kaji":"×","naisui":"×","kazan":"×"}}
,{"type":"Feature","geometry":{"type":"Point","coordinates":[141.297,43.103]},"properties":{"Name":"西陵中学校","Jusho":"北海道札幌市西区発寒１５条２丁目５-１","kouzui":"○","gake":"×","takashio":"×","jishin":"○","tsunami":"×","kaji":"×","naisui":"×","kazan":"×"}}
,{"type":"Feature","geometry":{"type":"Point","coordinates":[141.306,43.088]},"properties":{"Name":"八軒西小学校","Jusho":"北海道札幌市西区八軒３条西５丁目１-１","kouzui":"○","gake":"×","takashio":"×","jishin":"○","tsunami":"×","kaji":"×","naisui":"×","kazan":"×"}}
,{"type":"Feature","geometry":{"type":"Point","coordinates":[141.312,43.086]},"properties":{"Name":"八軒小学校","Jusho":"北海道札幌市西区八軒４条西１丁目","kouzui":"○","gake":"×","takashio":"×","jishin":"○","tsunami":"×","kaji":"×","naisui":"×","kazan":"×"}}
,{"type":"Feature","geometry":{"type":"Point","coordinates":[141.31,43.093]},"properties":{"Name":"八軒北小学校","Jusho":"北海道札幌市西区八軒８条西６丁目１-１","kouzui":"○","gake":"×","takashio":"×","jishin":"○","tsunami":"×","kaji":"×","naisui":"×","kazan":"×"}}
,{"type":"Feature","geometry":{"type":"Point","coordinates":[141.306,43.095]},"properties":{"Name":"八軒中学校","Jusho":"北海道札幌市西区八軒８条西８丁目１-１","kouzui":"○","gake":"×","takashio":"×","jishin":"○","tsunami":"×","kaji":"×","naisui":"×","kazan":"×"}}
,{"type":"Feature","geometry":{"type":"Point","coordinates":[141.316,43.08]},"properties":{"Name":"八軒東中学校","Jusho":"北海道札幌市西区八軒２条東３丁目１-２０","kouzui":"○","gake":"×","takashio":"×","jishin":"○","tsunami":"×","kaji":"×","naisui":"×","kazan":"×"}}
,{"type":"Feature","geometry":{"type":"Point","coordinates":[141.318,43.087]},"properties":{"Name":"琴似中央小学校","Jusho":"北海道札幌市西区八軒７条東１丁目１-１","kouzui":"○","gake":"×","takashio":"×","jishin":"○","tsunami":"×","kaji":"×","naisui":"×","kazan":"×"}}
,{"type":"Feature","geometry":{"type":"Point","coordinates":[141.26,43.106]},"properties":{"Name":"西宮の沢小学校","Jusho":"北海道札幌市手稲区西宮の沢２条４丁目１５-１","kouzui":"○","gake":"○","takashio":"×","jishin":"○","tsunami":"×","kaji":"×","naisui":"×","kazan":"×"}}
,{"type":"Feature","geometry":{"type":"Point","coordinates":[141.252,43.115]},"properties":{"Name":"富丘小学校","Jusho":"北海道札幌市手稲区富丘１条６丁目４-１","kouzui":"○","gake":"○","takashio":"×","jishin":"○","tsunami":"×","kaji":"×","naisui":"×","kazan":"×"}}
,{"type":"Feature","geometry":{"type":"Point","coordinates":[141.248,43.108]},"properties":{"Name":"手稲中学校","Jusho":"北海道札幌市手稲区富丘３条５丁目２-１","kouzui":"○","gake":"○","takashio":"×","jishin":"○","tsunami":"×","kaji":"×","naisui":"×","kazan":"×"}}
,{"type":"Feature","geometry":{"type":"Point","coordinates":[141.241,43.116]},"properties":{"Name":"手稲中央小学校","Jusho":"北海道札幌市手稲区手稲本町３条２丁目６-１","kouzui":"○","gake":"○","takashio":"×","jishin":"○","tsunami":"×","kaji":"×","naisui":"×","kazan":"×"}}
,{"type":"Feature","geometry":{"type":"Point","coordinates":[141.219,43.123]},"properties":{"Name":"稲穂小学校","Jusho":"北海道札幌市手稲区稲穂４条５丁目１８９-１","kouzui":"×","gake":"×","takashio":"×","jishin":"○","tsunami":"×","kaji":"×","naisui":"×","kazan":"×"}}
,{"type":"Feature","geometry":{"type":"Point","coordinates":[141.203,43.123]},"properties":{"Name":"手稲西小学校","Jusho":"北海道札幌市手稲区金山３条２丁目８-６０","kouzui":"○","gake":"○","takashio":"×","jishin":"○","tsunami":"×","kaji":"×","naisui":"×","kazan":"×"}}
,{"type":"Feature","geometry":{"type":"Point","coordinates":[141.204,43.124]},"properties":{"Name":"手稲西中学校","Jusho":"北海道札幌市手稲区金山３条２丁目８-７","kouzui":"○","gake":"○","takashio":"×","jishin":"○","tsunami":"×","kaji":"×","naisui":"×","kazan":"×"}}
,{"type":"Feature","geometry":{"type":"Point","coordinates":[141.271,43.107]},"properties":{"Name":"新発寒小学校","Jusho":"北海道札幌市手稲区新発寒２条２丁目１１１５-３０７","kouzui":"○","gake":"×","takashio":"×","jishin":"○","tsunami":"×","kaji":"×","naisui":"×","kazan":"×"}}
,{"type":"Feature","geometry":{"type":"Point","coordinates":[141.273,43.114]},"properties":{"Name":"新陵東小学校","Jusho":"北海道札幌市手稲区新発寒５条４丁目２-１","kouzui":"○","gake":"×","takashio":"×","jishin":"○","tsunami":"×","kaji":"×","naisui":"×","kazan":"×"}}
,{"type":"Feature","geometry":{"type":"Point","coordinates":[141.274,43.115]},"properties":{"Name":"新陵中学校","Jusho":"北海道札幌市手稲区新発寒５条４丁目４-１","kouzui":"○","gake":"×","takashio":"×","jishin":"○","tsunami":"×","kaji":"×","naisui":"×","kazan":"×"}}
,{"type":"Feature","geometry":{"type":"Point","coordinates":[141.273,43.12]},"properties":{"Name":"新陵小学校","Jusho":"北海道札幌市手稲区新発寒６条６丁目３-１","kouzui":"○","gake":"×","takashio":"×","jishin":"○","tsunami":"×","kaji":"×","naisui":"×","kazan":"×"}}
,{"type":"Feature","geometry":{"type":"Point","coordinates":[141.246,43.124]},"properties":{"Name":"手稲鉄北小学校","Jusho":"北海道札幌市手稲区前田２条１２丁目１-２","kouzui":"○","gake":"○","takashio":"×","jishin":"○","tsunami":"×","kaji":"×","naisui":"×","kazan":"×"}}
,{"type":"Feature","geometry":{"type":"Point","coordinates":[141.262,43.117]},"properties":{"Name":"稲積中学校","Jusho":"北海道札幌市手稲区前田４条５丁目２-１","kouzui":"○","gake":"○","takashio":"×","jishin":"○","tsunami":"×","kaji":"×","naisui":"×","kazan":"×"}}
,{"type":"Feature","geometry":{"type":"Point","coordinates":[141.259,43.121]},"properties":{"Name":"稲積小学校","Jusho":"北海道札幌市手稲区前田５条７丁目１-１","kouzui":"○","gake":"○","takashio":"×","jishin":"○","tsunami":"×","kaji":"×","naisui":"×","kazan":"×"}}
,{"type":"Feature","geometry":{"type":"Point","coordinates":[141.254,43.127]},"properties":{"Name":"前田小学校","Jusho":"北海道札幌市手稲区前田６条１１丁目","kouzui":"○","gake":"×","takashio":"×","jishin":"○","tsunami":"×","kaji":"×","naisui":"×","kazan":"×"}}
,{"type":"Feature","geometry":{"type":"Point","coordinates":[141.251,43.131]},"properties":{"Name":"前田中学校","Jusho":"北海道札幌市手稲区前田７条１３丁目１-１","kouzui":"○","gake":"×","takashio":"×","jishin":"○","tsunami":"×","kaji":"×","naisui":"×","kazan":"×"}}
,{"type":"Feature","geometry":{"type":"Point","coordinates":[141.256,43.131]},"properties":{"Name":"前田中央小学校","Jusho":"北海道札幌市手稲区前田８条１２丁目","kouzui":"○","gake":"×","takashio":"×","jishin":"○","tsunami":"×","kaji":"×","naisui":"×","kazan":"×"}}
,{"type":"Feature","geometry":{"type":"Point","coordinates":[141.252,43.139]},"properties":{"Name":"前田北中学校","Jusho":"北海道札幌市手稲区前田１０条１５丁目８-１","kouzui":"○","gake":"×","takashio":"×","jishin":"○","tsunami":"×","kaji":"×","naisui":"×","kazan":"×"}}
,{"type":"Feature","geometry":{"type":"Point","coordinates":[141.248,43.143]},"properties":{"Name":"前田北小学校","Jusho":"北海道札幌市手稲区前田１０条１８丁目４-１","kouzui":"×","gake":"×","takashio":"×","jishin":"○","tsunami":"×","kaji":"×","naisui":"×","kazan":"×"}}
,{"type":"Feature","geometry":{"type":"Point","coordinates":[141.239,43.127]},"properties":{"Name":"手稲区体育館","Jusho":"北海道札幌市手稲区曙２条１丁目２-４６","kouzui":"○","gake":"○","takashio":"×","jishin":"○","tsunami":"×","kaji":"×","naisui":"×","kazan":"×"}}
,{"type":"Feature","geometry":{"type":"Point","coordinates":[141.236,43.146]},"properties":{"Name":"手稲山口小学校","Jusho":"北海道札幌市手稲区曙１１条２丁目７-１","kouzui":"○","gake":"×","takashio":"×","jishin":"○","tsunami":"×","kaji":"×","naisui":"×","kazan":"×"}}
,{"type":"Feature","geometry":{"type":"Point","coordinates":[141.217,43.135]},"properties":{"Name":"星置東小学校","Jusho":"北海道札幌市手稲区星置２条１丁目６-１","kouzui":"○","gake":"○","takashio":"×","jishin":"○","tsunami":"×","kaji":"×","naisui":"×","kazan":"×"}}
,{"type":"Feature","geometry":{"type":"Point","coordinates":[141.204,43.14]},"properties":{"Name":"星置中学校","Jusho":"北海道札幌市手稲区星置３条５丁目１３-１","kouzui":"○","gake":"○","takashio":"×","jishin":"○","tsunami":"×","kaji":"×","naisui":"×","kazan":"×"}}
,{"type":"Feature","geometry":{"type":"Point","coordinates":[141.208,43.142]},"properties":{"Name":"手稲北小学校","Jusho":"北海道札幌市手稲区手稲山口６５３-２","kouzui":"○","gake":"○","takashio":"×","jishin":"○","tsunami":"×","kaji":"×","naisui":"×","kazan":"×"}}
,{"type":"Feature","geometry":{"type":"Point","coordinates":[141.248,43.134]},"properties":{"Name":"北海道科学大学","Jusho":"北海道札幌市手稲区前田７条１５丁目４-１","kouzui":"○","gake":"×","takashio":"×","jishin":"○","tsunami":"×","kaji":"×","naisui":"×","kazan":"×"}}
,{"type":"Feature","geometry":{"type":"Point","coordinates":[141.314,43.039]},"properties":{"Name":"旭山記念公園","Jusho":"北海道札幌市中央区界川4丁目","kouzui":"×","gake":"×","takashio":"×","jishin":"×","tsunami":"×","kaji":"○","naisui":"×","kazan":"×"}}
,{"type":"Feature","geometry":{"type":"Point","coordinates":[141.311,43.056]},"properties":{"Name":"円山公園","Jusho":"北海道札幌市中央区宮が丘，円山西町8丁目，宮の森1～2条14丁目他","kouzui":"×","gake":"×","takashio":"×","jishin":"×","tsunami":"×","kaji":"○","naisui":"×","kazan":"×"}}
,{"type":"Feature","geometry":{"type":"Point","coordinates":[141.355,43.044]},"properties":{"Name":"中島公園","Jusho":"北海道札幌市中央区中島公園，南14条西５丁目，南15条西４丁目","kouzui":"×","gake":"×","takashio":"×","jishin":"×","tsunami":"×","kaji":"○","naisui":"×","kazan":"×"}}
,{"type":"Feature","geometry":{"type":"Point","coordinates":[141.409,43.167]},"properties":{"Name":"あいの里公園","Jusho":"北海道札幌市北区あいの里4条8丁目","kouzui":"×","gake":"×","takashio":"×","jishin":"×","tsunami":"×","kaji":"○","naisui":"×","kazan":"×"}}
,{"type":"Feature","geometry":{"type":"Point","coordinates":[141.301,43.114]},"properties":{"Name":"札幌新川高校、新川中央公園、新川小学校","Jusho":"北海道札幌市北区新川4～5条14～15丁目","kouzui":"×","gake":"×","takashio":"×","jishin":"×","tsunami":"×","kaji":"○","naisui":"×","kazan":"×"}}
,{"type":"Feature","geometry":{"type":"Point","coordinates":[141.32,43.131]},"properties":{"Name":"屯田西公園","Jusho":"北海道札幌市北区屯田4条9～10丁目","kouzui":"×","gake":"×","takashio":"×","jishin":"×","tsunami":"×","kaji":"○","naisui":"×","kazan":"×"}}
,{"type":"Feature","geometry":{"type":"Point","coordinates":[141.366,43.128]},"properties":{"Name":"百合が原公園","Jusho":"北海道札幌市北区百合が原公園","kouzui":"×","gake":"×","takashio":"×","jishin":"×","tsunami":"×","kaji":"○","naisui":"×","kazan":"×"}}
,{"type":"Feature","geometry":{"type":"Point","coordinates":[141.334,43.076]},"properties":{"Name":"北大農場（北18条以南）","Jusho":"北海道札幌市北区北8～18条西10～13丁目","kouzui":"×","gake":"×","takashio":"×","jishin":"×","tsunami":"×","kaji":"○","naisui":"×","kazan":"×"}}
,{"type":"Feature","geometry":{"type":"Point","coordinates":[141.333,43.085]},"properties":{"Name":"北大農場（北19条以北）","Jusho":"北海道札幌市北区北19～23条西9～13丁目","kouzui":"×","gake":"×","takashio":"×","jishin":"×","tsunami":"×","kaji":"○","naisui":"×","kazan":"×"}}
,{"type":"Feature","geometry":{"type":"Point","coordinates":[141.342,43.114]},"properties":{"Name":"麻生球場","Jusho":"北海道札幌市北区麻生町7丁目","kouzui":"×","gake":"×","takashio":"×","jishin":"×","tsunami":"×","kaji":"○","naisui":"×","kazan":"×"}}
,{"type":"Feature","geometry":{"type":"Point","coordinates":[141.375,43.116]},"properties":{"Name":"札幌市スポーツ交流施設（つどーむ）","Jusho":"北海道札幌市東区栄町885番地","kouzui":"×","gake":"×","takashio":"×","jishin":"×","tsunami":"×","kaji":"○","naisui":"×","kazan":"×"}}
,{"type":"Feature","geometry":{"type":"Point","coordinates":[141.384,43.092]},"properties":{"Name":"札幌開成中等教育学校・札幌開成高校グラウンド","Jusho":"北海道札幌市東区北22条東21丁目1-1","kouzui":"×","gake":"×","takashio":"×","jishin":"×","tsunami":"×","kaji":"○","naisui":"×","kazan":"×"}}
,{"type":"Feature","geometry":{"type":"Point","coordinates":[141.36,43.111]},"properties":{"Name":"ひのまる公園","Jusho":"北海道札幌市東区北41条東10丁目","kouzui":"×","gake":"×","takashio":"×","jishin":"×","tsunami":"×","kaji":"○","naisui":"×","kazan":"×"}}
,{"type":"Feature","geometry":{"type":"Point","coordinates":[141.416,43.12]},"properties":{"Name":"札幌市農業体験交流施設（さとらんど）","Jusho":"北海道札幌市東区丘珠町584番地2ほか","kouzui":"×","gake":"×","takashio":"×","jishin":"×","tsunami":"×","kaji":"○","naisui":"×","kazan":"×"}}
,{"type":"Feature","geometry":{"type":"Point","coordinates":[141.387,43.083]},"properties":{"Name":"札幌小学校、伏古公園","Jusho":"北海道札幌市東区伏古１条２丁目","kouzui":"×","gake":"×","takashio":"×","jishin":"×","tsunami":"×","kaji":"○","naisui":"×","kazan":"×"}}
,{"type":"Feature","geometry":{"type":"Point","coordinates":[141.357,43.088]},"properties":{"Name":"美香保公園","Jusho":"北海道札幌市東区北20～22条東4～5丁目","kouzui":"×","gake":"×","takashio":"×","jishin":"×","tsunami":"×","kaji":"○","naisui":"×","kazan":"×"}}
,{"type":"Feature","geometry":{"type":"Point","coordinates":[141.445,43.063]},"properties":{"Name":"川下公園","Jusho":"北海道札幌市白石区川下2651番地","kouzui":"×","gake":"×","takashio":"×","jishin":"×","tsunami":"×","kaji":"○","naisui":"×","kazan":"×"}}
,{"type":"Feature","geometry":{"type":"Point","coordinates":[141.453,43.038]},"properties":{"Name":"アクセスサッポロ第３駐車場","Jusho":"北海道札幌市白石区流通センター7丁目","kouzui":"×","gake":"×","takashio":"×","jishin":"×","tsunami":"×","kaji":"○","naisui":"×","kazan":"×"}}
,{"type":"Feature","geometry":{"type":"Point","coordinates":[141.429,43.066]},"properties":{"Name":"北郷公園","Jusho":"北海道札幌市白石区北郷8条9丁目","kouzui":"×","gake":"×","takashio":"×","jishin":"×","tsunami":"×","kaji":"○","naisui":"×","kazan":"×"}}
,{"type":"Feature","geometry":{"type":"Point","coordinates":[141.491,43.029]},"properties":{"Name":"熊の沢公園","Jusho":"北海道札幌市厚別区もみじ台西6丁目","kouzui":"×","gake":"×","takashio":"×","jishin":"×","tsunami":"×","kaji":"○","naisui":"×","kazan":"×"}}
,{"type":"Feature","geometry":{"type":"Point","coordinates":[141.463,43.02]},"properties":{"Name":"厚別公園","Jusho":"北海道札幌市厚別区上野幌3条1丁目","kouzui":"×","gake":"×","takashio":"×","jishin":"×","tsunami":"×","kaji":"○","naisui":"×","kazan":"×"}}
,{"type":"Feature","geometry":{"type":"Point","coordinates":[141.474,43.029]},"properties":{"Name":"青葉中央公園","Jusho":"北海道札幌市厚別区青葉町5丁目","kouzui":"×","gake":"×","takashio":"×","jishin":"×","tsunami":"×","kaji":"○","naisui":"×","kazan":"×"}}
,{"type":"Feature","geometry":{"type":"Point","coordinates":[141.449,43.026]},"properties":{"Name":"北星学園大学","Jusho":"北海道札幌市厚別区大谷地西２丁目","kouzui":"×","gake":"×","takashio":"×","jishin":"×","tsunami":"×","kaji":"○","naisui":"×","kazan":"×"}}
,{"type":"Feature","geometry":{"type":"Point","coordinates":[141.497,43.055]},"properties":{"Name":"野幌森林公園","Jusho":"北海道札幌市厚別区厚別町小野幌53番地","kouzui":"×","gake":"×","takashio":"×","jishin":"×","tsunami":"×","kaji":"○","naisui":"×","kazan":"×"}}
,{"type":"Feature","geometry":{"type":"Point","coordinates":[141.41,43.015]},"properties":{"Name":"札幌ドーム","Jusho":"北海道札幌市豊平区羊が丘1番地","kouzui":"×","gake":"×","takashio":"×","jishin":"×","tsunami":"×","kaji":"○","naisui":"×","kazan":"×"}}
,{"type":"Feature","geometry":{"type":"Point","coordinates":[141.386,43.032]},"properties":{"Name":"月寒公園","Jusho":"北海道札幌市豊平区美園10～12条7～8丁目月寒西2～3条4丁目","kouzui":"×","gake":"×","takashio":"×","jishin":"×","tsunami":"×","kaji":"○","naisui":"×","kazan":"×"}}
,{"type":"Feature","geometry":{"type":"Point","coordinates":[141.378,42.983]},"properties":{"Name":"西岡公園","Jusho":"北海道札幌市豊平区西岡544番地","kouzui":"×","gake":"×","takashio":"×","jishin":"×","tsunami":"×","kaji":"○","naisui":"×","kazan":"×"}}
,{"type":"Feature","geometry":{"type":"Point","coordinates":[141.412,43.027]},"properties":{"Name":"道立産業共進会場","Jusho":"北海道札幌市豊平区月寒東3条11丁目","kouzui":"×","gake":"×","takashio":"×","jishin":"×","tsunami":"×","kaji":"○","naisui":"×","kazan":"×"}}
,{"type":"Feature","geometry":{"type":"Point","coordinates":[141.374,43.024]},"properties":{"Name":"平岸霊園","Jusho":"北海道札幌市豊平区平岸5条15丁目","kouzui":"×","gake":"×","takashio":"×","jishin":"×","tsunami":"×","kaji":"○","naisui":"×","kazan":"×"}}
,{"type":"Feature","geometry":{"type":"Point","coordinates":[141.378,43.043]},"properties":{"Name":"豊平公園","Jusho":"北海道札幌市豊平区豊平5～7条12～13丁目美園5～6条1丁目","kouzui":"×","gake":"×","takashio":"×","jishin":"×","tsunami":"×","kaji":"○","naisui":"×","kazan":"×"}}
,{"type":"Feature","geometry":{"type":"Point","coordinates":[141.412,43.008]},"properties":{"Name":"北海道農業研究センター","Jusho":"北海道札幌市豊平区羊が丘1番地","kouzui":"×","gake":"×","takashio":"×","jishin":"×","tsunami":"×","kaji":"○","naisui":"×","kazan":"×"}}
,{"type":"Feature","geometry":{"type":"Point","coordinates":[141.469,43.008]},"properties":{"Name":"平岡公園","Jusho":"北海道札幌市清田区平岡公園","kouzui":"×","gake":"×","takashio":"×","jishin":"×","tsunami":"×","kaji":"○","naisui":"×","kazan":"×"}}
,{"type":"Feature","geometry":{"type":"Point","coordinates":[141.422,42.985]},"properties":{"Name":"北海学園清田グラウンド","Jusho":"北海道札幌市清田区清田355番地","kouzui":"×","gake":"×","takashio":"×","jishin":"×","tsunami":"×","kaji":"○","naisui":"×","kazan":"×"}}
,{"type":"Feature","geometry":{"type":"Point","coordinates":[141.461,42.971]},"properties":{"Name":"里塚霊園","Jusho":"北海道札幌市清田区里塚468番地","kouzui":"×","gake":"×","takashio":"×","jishin":"×","tsunami":"×","kaji":"○","naisui":"×","kazan":"×"}}
,{"type":"Feature","geometry":{"type":"Point","coordinates":[141.34,42.974]},"properties":{"Name":"札幌啓北商業高校","Jusho":"北海道札幌市南区石山１条２丁目","kouzui":"×","gake":"×","takashio":"×","jishin":"×","tsunami":"×","kaji":"○","naisui":"×","kazan":"×"}}
,{"type":"Feature","geometry":{"type":"Point","coordinates":[141.335,42.997]},"properties":{"Name":"札幌藻岩高校","Jusho":"北海道札幌市南区川沿３条２丁目","kouzui":"×","gake":"×","takashio":"×","jishin":"×","tsunami":"×","kaji":"○","naisui":"×","kazan":"×"}}
,{"type":"Feature","geometry":{"type":"Point","coordinates":[141.348,42.997]},"properties":{"Name":"真駒内公園","Jusho":"北海道札幌市南区真駒内公園","kouzui":"×","gake":"×","takashio":"×","jishin":"×","tsunami":"×","kaji":"○","naisui":"×","kazan":"×"}}
,{"type":"Feature","geometry":{"type":"Point","coordinates":[141.173,42.972]},"properties":{"Name":"定山渓中学校","Jusho":"北海道札幌市南区定山渓温泉西１丁目","kouzui":"×","gake":"×","takashio":"×","jishin":"×","tsunami":"×","kaji":"○","naisui":"×","kazan":"×"}}
,{"type":"Feature","geometry":{"type":"Point","coordinates":[141.282,42.96]},"properties":{"Name":"藤野公園","Jusho":"北海道札幌市南区藤野3条10丁目","kouzui":"×","gake":"×","takashio":"×","jishin":"×","tsunami":"×","kaji":"○","naisui":"×","kazan":"×"}}
,{"type":"Feature","geometry":{"type":"Point","coordinates":[141.289,43.101]},"properties":{"Name":"札幌琴似工業高校、鉄興公園","Jusho":"北海道札幌市西区発寒11～13条11丁目","kouzui":"×","gake":"×","takashio":"×","jishin":"×","tsunami":"×","kaji":"○","naisui":"×","kazan":"×"}}
,{"type":"Feature","geometry":{"type":"Point","coordinates":[141.266,43.083]},"properties":{"Name":"宮丘公園","Jusho":"北海道札幌市西区西野290番地","kouzui":"×","gake":"×","takashio":"×","jishin":"×","tsunami":"×","kaji":"○","naisui":"×","kazan":"×"}}
,{"type":"Feature","geometry":{"type":"Point","coordinates":[141.305,43.091]},"properties":{"Name":"農試公園","Jusho":"北海道札幌市西区八軒4条西6丁目","kouzui":"×","gake":"×","takashio":"×","jishin":"×","tsunami":"×","kaji":"○","naisui":"×","kazan":"×"}}
,{"type":"Feature","geometry":{"type":"Point","coordinates":[141.229,43.135]},"properties":{"Name":"運転免許試験場","Jusho":"北海道札幌市手稲区曙5条4丁目","kouzui":"×","gake":"×","takashio":"×","jishin":"×","tsunami":"×","kaji":"○","naisui":"×","kazan":"×"}}
,{"type":"Feature","geometry":{"type":"Point","coordinates":[141.26,43.116]},"properties":{"Name":"手稲稲積公園","Jusho":"北海道札幌市手稲区前田1条5丁目","kouzui":"×","gake":"×","takashio":"×","jishin":"×","tsunami":"×","kaji":"○","naisui":"×","kazan":"×"}}
,{"type":"Feature","geometry":{"type":"Point","coordinates":[141.256,43.144]},"properties":{"Name":"前田森林公園","Jusho":"北海道札幌市手稲区前田591番地4","kouzui":"×","gake":"×","takashio":"×","jishin":"×","tsunami":"×","kaji":"○","naisui":"×","kazan":"×"}}
,{"type":"Feature","geometry":{"type":"Point","coordinates":[141.246,43.137]},"properties":{"Name":"北海道科学大学グラウンド","Jusho":"北海道札幌市手稲区前田7条15丁目","kouzui":"×","gake":"×","takashio":"×","jishin":"×","tsunami":"×","kaji":"○","naisui":"×","kazan":"×"}}
,{"type":"Feature","geometry":{"type":"Point","coordinates":[141.329,43.068]},"properties":{"Name":"桑園小学校グラウンド","Jusho":"北海道札幌市中央区北８条西１７丁目１","kouzui":"×","gake":"×","takashio":"×","jishin":"×","tsunami":"×","kaji":"○","naisui":"×","kazan":"×"}}
,{"type":"Feature","geometry":{"type":"Point","coordinates":[141.317,43.067]},"properties":{"Name":"日新小学校グラウンド","Jusho":"北海道札幌市中央区北８条西２５丁目２-１","kouzui":"×","gake":"×","takashio":"×","jishin":"×","tsunami":"×","kaji":"○","naisui":"×","kazan":"×"}}
,{"type":"Feature","geometry":{"type":"Point","coordinates":[141.36,43.067]},"properties":{"Name":"中央中学校グラウンド","Jusho":"北海道札幌市中央区北４条東３丁目","kouzui":"×","gake":"×","takashio":"×","jishin":"×","tsunami":"×","kaji":"○","naisui":"×","kazan":"×"}}
,{"type":"Feature","geometry":{"type":"Point","coordinates":[141.366,43.063]},"properties":{"Name":"中央小学校グラウンド","Jusho":"北海道札幌市中央区大通東６丁目１２-１","kouzui":"×","gake":"×","takashio":"×","jishin":"×","tsunami":"×","kaji":"○","naisui":"×","kazan":"×"}}
,{"type":"Feature","geometry":{"type":"Point","coordinates":[141.336,43.055]},"properties":{"Name":"二条小学校グラウンド","Jusho":"北海道札幌市中央区南２条西１５丁目２９１-９８","kouzui":"×","gake":"×","takashio":"×","jishin":"×","tsunami":"×","kaji":"○","naisui":"×","kazan":"×"}}
,{"type":"Feature","geometry":{"type":"Point","coordinates":[141.348,43.055]},"properties":{"Name":"資生館小学校グラウンド","Jusho":"北海道札幌市中央区南３条西７丁目１-１","kouzui":"×","gake":"×","takashio":"×","jishin":"×","tsunami":"×","kaji":"○","naisui":"×","kazan":"×"}}
,{"type":"Feature","geometry":{"type":"Point","coordinates":[141.322,43.045]},"properties":{"Name":"啓明中学校グラウンド","Jusho":"北海道札幌市中央区南９条西２２丁目２-１","kouzui":"×","gake":"×","takashio":"×","jishin":"×","tsunami":"×","kaji":"○","naisui":"×","kazan":"×"}}
,{"type":"Feature","geometry":{"type":"Point","coordinates":[141.332,43.046]},"properties":{"Name":"幌西小学校グラウンド","Jusho":"北海道札幌市中央区南１０条西１７丁目１-１","kouzui":"×","gake":"×","takashio":"×","jishin":"×","tsunami":"×","kaji":"○","naisui":"×","kazan":"×"}}
,{"type":"Feature","geometry":{"type":"Point","coordinates":[141.323,43.044]},"properties":{"Name":"緑丘小学校グラウンド","Jusho":"北海道札幌市中央区南１０条西２２丁目３-１","kouzui":"×","gake":"×","takashio":"×","jishin":"×","tsunami":"×","kaji":"○","naisui":"×","kazan":"×"}}
,{"type":"Feature","geometry":{"type":"Point","coordinates":[141.313,43.061]},"properties":{"Name":"向陵中学校グラウンド","Jusho":"北海道札幌市中央区北４条西２８丁目１-３０","kouzui":"×","gake":"×","takashio":"×","jishin":"×","tsunami":"×","kaji":"○","naisui":"×","kazan":"×"}}
,{"type":"Feature","geometry":{"type":"Point","coordinates":[141.344,43.041]},"properties":{"Name":"山鼻小学校グラウンド","Jusho":"北海道札幌市中央区南１４条西１０丁目１-１","kouzui":"×","gake":"×","takashio":"×","jishin":"×","tsunami":"×","kaji":"○","naisui":"×","kazan":"×"}}
,{"type":"Feature","geometry":{"type":"Point","coordinates":[141.333,43.038]},"properties":{"Name":"伏見中学校グラウンド","Jusho":"北海道札幌市中央区南１６条西１７丁目１-３５","kouzui":"×","gake":"×","takashio":"×","jishin":"×","tsunami":"×","kaji":"○","naisui":"×","kazan":"×"}}
,{"type":"Feature","geometry":{"type":"Point","coordinates":[141.336,43.035]},"properties":{"Name":"伏見小学校グラウンド","Jusho":"北海道札幌市中央区南１８条西１５丁目１-１","kouzui":"×","gake":"×","takashio":"×","jishin":"×","tsunami":"×","kaji":"○","naisui":"×","kazan":"×"}}
,{"type":"Feature","geometry":{"type":"Point","coordinates":[141.354,43.033]},"properties":{"Name":"幌南小学校グラウンド","Jusho":"北海道札幌市中央区南２１条西５丁目１-１","kouzui":"×","gake":"×","takashio":"×","jishin":"×","tsunami":"×","kaji":"○","naisui":"×","kazan":"×"}}
,{"type":"Feature","geometry":{"type":"Point","coordinates":[141.341,43.028]},"properties":{"Name":"山鼻中学校グラウンド","Jusho":"北海道札幌市中央区南２３条西１３丁目１-１","kouzui":"×","gake":"×","takashio":"×","jishin":"×","tsunami":"×","kaji":"○","naisui":"×","kazan":"×"}}
,{"type":"Feature","geometry":{"type":"Point","coordinates":[141.345,43.021]},"properties":{"Name":"山鼻南小学校グラウンド","Jusho":"北海道札幌市中央区南２９条西１２丁目１-１","kouzui":"×","gake":"×","takashio":"×","jishin":"×","tsunami":"×","kaji":"○","naisui":"×","kazan":"×"}}
,{"type":"Feature","geometry":{"type":"Point","coordinates":[141.279,43.032]},"properties":{"Name":"盤渓小学校グラウンド","Jusho":"北海道札幌市中央区盤渓２２６-４","kouzui":"×","gake":"×","takashio":"×","jishin":"×","tsunami":"×","kaji":"○","naisui":"×","kazan":"×"}}
,{"type":"Feature","geometry":{"type":"Point","coordinates":[141.296,43.048]},"properties":{"Name":"宮の森中学校グラウンド","Jusho":"北海道札幌市中央区宮の森１条１６丁目５-１","kouzui":"×","gake":"×","takashio":"×","jishin":"×","tsunami":"×","kaji":"○","naisui":"×","kazan":"×"}}
,{"type":"Feature","geometry":{"type":"Point","coordinates":[141.297,43.051]},"properties":{"Name":"大倉山小学校グラウンド","Jusho":"北海道札幌市中央区宮の森３条１３丁目６-２０","kouzui":"×","gake":"×","takashio":"×","jishin":"×","tsunami":"×","kaji":"○","naisui":"×","kazan":"×"}}
,{"type":"Feature","geometry":{"type":"Point","coordinates":[141.303,43.064]},"properties":{"Name":"宮の森小学校グラウンド","Jusho":"北海道札幌市中央区宮の森４条６丁目１-２","kouzui":"×","gake":"×","takashio":"×","jishin":"×","tsunami":"×","kaji":"○","naisui":"×","kazan":"×"}}
,{"type":"Feature","geometry":{"type":"Point","coordinates":[141.297,43.058]},"properties":{"Name":"三角山小学校グラウンド","Jusho":"北海道札幌市中央区宮の森４条１１丁目４-１","kouzui":"×","gake":"×","takashio":"×","jishin":"×","tsunami":"×","kaji":"○","naisui":"×","kazan":"×"}}
,{"type":"Feature","geometry":{"type":"Point","coordinates":[141.349,43.083]},"properties":{"Name":"北辰中学校グラウンド","Jusho":"北海道札幌市北区北１８条西２丁目２１-５０","kouzui":"×","gake":"×","takashio":"×","jishin":"×","tsunami":"×","kaji":"○","naisui":"×","kazan":"×"}}
,{"type":"Feature","geometry":{"type":"Point","coordinates":[141.349,43.084]},"properties":{"Name":"幌北小学校グラウンド","Jusho":"北海道札幌市北区北１９条西２丁目１-１","kouzui":"×","gake":"×","takashio":"×","jishin":"×","tsunami":"×","kaji":"○","naisui":"×","kazan":"×"}}
,{"type":"Feature","geometry":{"type":"Point","coordinates":[141.339,43.091]},"properties":{"Name":"白楊小学校グラウンド","Jusho":"北海道札幌市北区北２４条西７丁目１-１","kouzui":"×","gake":"×","takashio":"×","jishin":"×","tsunami":"×","kaji":"○","naisui":"×","kazan":"×"}}
,{"type":"Feature","geometry":{"type":"Point","coordinates":[141.327,43.095]},"properties":{"Name":"新陽小学校グラウンド","Jusho":"北海道札幌市北区北２７条西１４丁目１-１","kouzui":"×","gake":"×","takashio":"×","jishin":"×","tsunami":"×","kaji":"○","naisui":"×","kazan":"×"}}
,{"type":"Feature","geometry":{"type":"Point","coordinates":[141.334,43.098]},"properties":{"Name":"北陽小学校グラウンド","Jusho":"北海道札幌市北区北３１条西９丁目２-１","kouzui":"×","gake":"×","takashio":"×","jishin":"×","tsunami":"×","kaji":"○","naisui":"×","kazan":"×"}}
,{"type":"Feature","geometry":{"type":"Point","coordinates":[141.336,43.101]},"properties":{"Name":"北陽中学校グラウンド","Jusho":"北海道札幌市北区北３４条西７丁目３-１","kouzui":"×","gake":"×","takashio":"×","jishin":"×","tsunami":"×","kaji":"○","naisui":"×","kazan":"×"}}
,{"type":"Feature","geometry":{"type":"Point","coordinates":[141.337,43.102]},"properties":{"Name":"和光小学校グラウンド","Jusho":"北海道札幌市北区北３４条西７丁目３-２","kouzui":"×","gake":"×","takashio":"×","jishin":"×","tsunami":"×","kaji":"○","naisui":"×","kazan":"×"}}
,{"type":"Feature","geometry":{"type":"Point","coordinates":[141.307,43.11]},"properties":{"Name":"新光小学校グラウンド","Jusho":"北海道札幌市北区新琴似１条１２丁目１-１","kouzui":"×","gake":"×","takashio":"×","jishin":"×","tsunami":"×","kaji":"○","naisui":"×","kazan":"×"}}
,{"type":"Feature","geometry":{"type":"Point","coordinates":[141.322,43.104]},"properties":{"Name":"新琴似南小学校グラウンド","Jusho":"北海道札幌市北区新琴似１条３丁目１-１","kouzui":"×","gake":"×","takashio":"×","jishin":"×","tsunami":"×","kaji":"○","naisui":"×","kazan":"×"}}
,{"type":"Feature","geometry":{"type":"Point","coordinates":[141.313,43.115]},"properties":{"Name":"光陽中学校グラウンド","Jusho":"北海道札幌市北区新琴似４条１１丁目７-１","kouzui":"×","gake":"×","takashio":"×","jishin":"×","tsunami":"×","kaji":"○","naisui":"×","kazan":"×"}}
,{"type":"Feature","geometry":{"type":"Point","coordinates":[141.315,43.116]},"properties":{"Name":"光陽小学校グラウンド","Jusho":"北海道札幌市北区新琴似５条１１丁目４-１","kouzui":"×","gake":"×","takashio":"×","jishin":"×","tsunami":"×","kaji":"○","naisui":"×","kazan":"×"}}
,{"type":"Feature","geometry":{"type":"Point","coordinates":[141.33,43.112]},"properties":{"Name":"新琴似小学校グラウンド","Jusho":"北海道札幌市北区新琴似７条３丁目２-１","kouzui":"×","gake":"×","takashio":"×","jishin":"×","tsunami":"×","kaji":"○","naisui":"×","kazan":"×"}}
,{"type":"Feature","geometry":{"type":"Point","coordinates":[141.329,43.113]},"properties":{"Name":"新琴似中学校グラウンド","Jusho":"北海道札幌市北区新琴似７条４丁目１-１","kouzui":"×","gake":"×","takashio":"×","jishin":"×","tsunami":"×","kaji":"○","naisui":"×","kazan":"×"}}
,{"type":"Feature","geometry":{"type":"Point","coordinates":[141.324,43.122]},"properties":{"Name":"新琴似北中学校グラウンド","Jusho":"北海道札幌市北区新琴似１０条１０丁目２-４６","kouzui":"×","gake":"×","takashio":"×","jishin":"×","tsunami":"×","kaji":"○","naisui":"×","kazan":"×"}}
,{"type":"Feature","geometry":{"type":"Point","coordinates":[141.322,43.123]},"properties":{"Name":"新琴似緑小学校グラウンド","Jusho":"北海道札幌市北区新琴似１０条１１丁目５-１","kouzui":"×","gake":"×","takashio":"×","jishin":"×","tsunami":"×","kaji":"○","naisui":"×","kazan":"×"}}
,{"type":"Feature","geometry":{"type":"Point","coordinates":[141.332,43.12]},"properties":{"Name":"新琴似北小学校グラウンド","Jusho":"北海道札幌市北区新琴似１１条６丁目１-１","kouzui":"×","gake":"×","takashio":"×","jishin":"×","tsunami":"×","kaji":"○","naisui":"×","kazan":"×"}}
,{"type":"Feature","geometry":{"type":"Point","coordinates":[141.316,43.129]},"properties":{"Name":"新琴似西小学校グラウンド","Jusho":"北海道札幌市北区新琴似１１条１５丁目１-５","kouzui":"×","gake":"×","takashio":"×","jishin":"×","tsunami":"×","kaji":"○","naisui":"×","kazan":"×"}}
,{"type":"Feature","geometry":{"type":"Point","coordinates":[141.321,43.099]},"properties":{"Name":"新川中央小学校グラウンド","Jusho":"北海道札幌市北区新川３条３丁目２-１","kouzui":"×","gake":"×","takashio":"×","jishin":"×","tsunami":"×","kaji":"○","naisui":"×","kazan":"×"}}
,{"type":"Feature","geometry":{"type":"Point","coordinates":[141.322,43.099]},"properties":{"Name":"新川中学校グラウンド","Jusho":"北海道札幌市北区新川４条３丁目１-１","kouzui":"×","gake":"×","takashio":"×","jishin":"×","tsunami":"×","kaji":"○","naisui":"×","kazan":"×"}}
,{"type":"Feature","geometry":{"type":"Point","coordinates":[141.299,43.112]},"properties":{"Name":"新川西中学校グラウンド","Jusho":"北海道札幌市北区新川４条１５丁目１-１","kouzui":"×","gake":"×","takashio":"×","jishin":"×","tsunami":"×","kaji":"○","naisui":"×","kazan":"×"}}
,{"type":"Feature","geometry":{"type":"Point","coordinates":[141.336,43.132]},"properties":{"Name":"屯田南小学校グラウンド","Jusho":"北海道札幌市北区屯田５条４丁目６-１","kouzui":"×","gake":"×","takashio":"×","jishin":"×","tsunami":"×","kaji":"○","naisui":"×","kazan":"×"}}
,{"type":"Feature","geometry":{"type":"Point","coordinates":[141.32,43.136]},"properties":{"Name":"屯田西小学校グラウンド","Jusho":"北海道札幌市北区屯田６条１０丁目３-１","kouzui":"×","gake":"×","takashio":"×","jishin":"×","tsunami":"×","kaji":"○","naisui":"×","kazan":"×"}}
,{"type":"Feature","geometry":{"type":"Point","coordinates":[141.327,43.135]},"properties":{"Name":"屯田中央中学校グラウンド","Jusho":"北海道札幌市北区屯田６条８丁目１-１","kouzui":"×","gake":"×","takashio":"×","jishin":"×","tsunami":"×","kaji":"○","naisui":"×","kazan":"×"}}
,{"type":"Feature","geometry":{"type":"Point","coordinates":[141.332,43.137]},"properties":{"Name":"屯田小学校グラウンド","Jusho":"北海道札幌市北区屯田７条６丁目２-２","kouzui":"×","gake":"×","takashio":"×","jishin":"×","tsunami":"×","kaji":"○","naisui":"×","kazan":"×"}}
,{"type":"Feature","geometry":{"type":"Point","coordinates":[141.343,43.143]},"properties":{"Name":"屯田北小学校グラウンド","Jusho":"北海道札幌市北区屯田９条３丁目４-１","kouzui":"×","gake":"×","takashio":"×","jishin":"×","tsunami":"×","kaji":"○","naisui":"×","kazan":"×"}}
,{"type":"Feature","geometry":{"type":"Point","coordinates":[141.34,43.143]},"properties":{"Name":"屯田北中学校グラウンド","Jusho":"北海道札幌市北区屯田９条４丁目","kouzui":"×","gake":"×","takashio":"×","jishin":"×","tsunami":"×","kaji":"○","naisui":"×","kazan":"×"}}
,{"type":"Feature","geometry":{"type":"Point","coordinates":[141.347,43.124]},"properties":{"Name":"太平南小学校グラウンド","Jusho":"北海道札幌市北区太平１条１丁目２-１","kouzui":"×","gake":"×","takashio":"×","jishin":"×","tsunami":"×","kaji":"○","naisui":"×","kazan":"×"}}
,{"type":"Feature","geometry":{"type":"Point","coordinates":[141.35,43.134]},"properties":{"Name":"太平中学校グラウンド","Jusho":"北海道札幌市北区太平８条２丁目１-１","kouzui":"×","gake":"×","takashio":"×","jishin":"×","tsunami":"×","kaji":"○","naisui":"×","kazan":"×"}}
,{"type":"Feature","geometry":{"type":"Point","coordinates":[141.352,43.142]},"properties":{"Name":"太平小学校グラウンド","Jusho":"北海道札幌市北区篠路１条２丁目６-２０","kouzui":"×","gake":"×","takashio":"×","jishin":"×","tsunami":"×","kaji":"○","naisui":"×","kazan":"×"}}
,{"type":"Feature","geometry":{"type":"Point","coordinates":[141.371,43.147]},"properties":{"Name":"篠路小学校グラウンド","Jusho":"北海道札幌市北区篠路４条９丁目３-１","kouzui":"×","gake":"×","takashio":"×","jishin":"×","tsunami":"×","kaji":"○","naisui":"×","kazan":"×"}}
,{"type":"Feature","geometry":{"type":"Point","coordinates":[141.354,43.15]},"properties":{"Name":"篠路西小学校グラウンド","Jusho":"北海道札幌市北区篠路５条２丁目２-１","kouzui":"×","gake":"×","takashio":"×","jishin":"×","tsunami":"×","kaji":"○","naisui":"×","kazan":"×"}}
,{"type":"Feature","geometry":{"type":"Point","coordinates":[141.354,43.151]},"properties":{"Name":"篠路西中学校グラウンド","Jusho":"北海道札幌市北区篠路６条２丁目１-５０","kouzui":"×","gake":"×","takashio":"×","jishin":"×","tsunami":"×","kaji":"○","naisui":"×","kazan":"×"}}
,{"type":"Feature","geometry":{"type":"Point","coordinates":[141.357,43.16]},"properties":{"Name":"茨戸小学校グラウンド","Jusho":"北海道札幌市北区東茨戸１条２丁目３１４-１５","kouzui":"×","gake":"×","takashio":"×","jishin":"×","tsunami":"×","kaji":"○","naisui":"×","kazan":"×"}}
,{"type":"Feature","geometry":{"type":"Point","coordinates":[141.371,43.135]},"properties":{"Name":"上篠路中学校グラウンド","Jusho":"北海道札幌市北区篠路町上篠路１１６番地１４","kouzui":"×","gake":"×","takashio":"×","jishin":"×","tsunami":"×","kaji":"○","naisui":"×","kazan":"×"}}
,{"type":"Feature","geometry":{"type":"Point","coordinates":[141.372,43.157]},"properties":{"Name":"篠路中学校グラウンド","Jusho":"北海道札幌市北区篠路町篠路３６８番地","kouzui":"×","gake":"×","takashio":"×","jishin":"×","tsunami":"×","kaji":"○","naisui":"×","kazan":"×"}}
,{"type":"Feature","geometry":{"type":"Point","coordinates":[141.383,43.16]},"properties":{"Name":"拓北小学校グラウンド","Jusho":"北海道札幌市北区あいの里２条１丁目２４-１","kouzui":"×","gake":"×","takashio":"×","jishin":"×","tsunami":"×","kaji":"○","naisui":"×","kazan":"×"}}
,{"type":"Feature","geometry":{"type":"Point","coordinates":[141.392,43.161]},"properties":{"Name":"あいの里西小学校グラウンド","Jusho":"北海道札幌市北区あいの里２条３丁目９-１","kouzui":"×","gake":"×","takashio":"×","jishin":"×","tsunami":"×","kaji":"○","naisui":"×","kazan":"×"}}
,{"type":"Feature","geometry":{"type":"Point","coordinates":[141.41,43.159]},"properties":{"Name":"あいの里東中学校グラウンド","Jusho":"北海道札幌市北区あいの里２条７丁目１４-１","kouzui":"×","gake":"×","takashio":"×","jishin":"×","tsunami":"×","kaji":"○","naisui":"×","kazan":"×"}}
,{"type":"Feature","geometry":{"type":"Point","coordinates":[141.403,43.163]},"properties":{"Name":"鴻城小学校グラウンド","Jusho":"北海道札幌市北区あいの里３条６丁目２-１","kouzui":"×","gake":"×","takashio":"×","jishin":"×","tsunami":"×","kaji":"○","naisui":"×","kazan":"×"}}
,{"type":"Feature","geometry":{"type":"Point","coordinates":[141.409,43.163]},"properties":{"Name":"あいの里東小学校グラウンド","Jusho":"北海道札幌市北区あいの里３条７丁目１１-１","kouzui":"×","gake":"×","takashio":"×","jishin":"×","tsunami":"×","kaji":"○","naisui":"×","kazan":"×"}}
,{"type":"Feature","geometry":{"type":"Point","coordinates":[141.366,43.134]},"properties":{"Name":"百合が原小学校グラウンド","Jusho":"北海道札幌市北区百合が原６丁目５-１","kouzui":"×","gake":"×","takashio":"×","jishin":"×","tsunami":"×","kaji":"○","naisui":"×","kazan":"×"}}
,{"type":"Feature","geometry":{"type":"Point","coordinates":[141.353,43.072]},"properties":{"Name":"北九条小学校グラウンド","Jusho":"北海道札幌市北区北９条西１丁目１-１","kouzui":"×","gake":"×","takashio":"×","jishin":"×","tsunami":"×","kaji":"○","naisui":"×","kazan":"×"}}
,{"type":"Feature","geometry":{"type":"Point","coordinates":[141.406,43.09]},"properties":{"Name":"東苗穂小学校グラウンド","Jusho":"北海道札幌市東区東苗穂５条２丁目３-１","kouzui":"×","gake":"×","takashio":"×","jishin":"×","tsunami":"×","kaji":"○","naisui":"×","kazan":"×"}}
,{"type":"Feature","geometry":{"type":"Point","coordinates":[141.406,43.097]},"properties":{"Name":"札苗中学校グラウンド","Jusho":"北海道札幌市東区東苗穂７条１丁目１-１","kouzui":"×","gake":"×","takashio":"×","jishin":"×","tsunami":"×","kaji":"○","naisui":"×","kazan":"×"}}
,{"type":"Feature","geometry":{"type":"Point","coordinates":[141.411,43.094]},"properties":{"Name":"札苗小学校グラウンド","Jusho":"北海道札幌市東区東苗穂７条２丁目３-１","kouzui":"×","gake":"×","takashio":"×","jishin":"×","tsunami":"×","kaji":"○","naisui":"×","kazan":"×"}}
,{"type":"Feature","geometry":{"type":"Point","coordinates":[141.417,43.099]},"properties":{"Name":"札苗北小学校グラウンド","Jusho":"北海道札幌市東区東苗穂９条３丁目２-３","kouzui":"×","gake":"×","takashio":"×","jishin":"×","tsunami":"×","kaji":"○","naisui":"×","kazan":"×"}}
,{"type":"Feature","geometry":{"type":"Point","coordinates":[141.421,43.1]},"properties":{"Name":"札苗北中学校グラウンド","Jusho":"北海道札幌市東区東苗穂１０条３丁目６４５","kouzui":"×","gake":"×","takashio":"×","jishin":"×","tsunami":"×","kaji":"○","naisui":"×","kazan":"×"}}
,{"type":"Feature","geometry":{"type":"Point","coordinates":[141.429,43.106]},"properties":{"Name":"札苗緑小学校グラウンド","Jusho":"北海道札幌市東区東苗穂１３条４丁目９-３０","kouzui":"×","gake":"×","takashio":"×","jishin":"×","tsunami":"×","kaji":"○","naisui":"×","kazan":"×"}}
,{"type":"Feature","geometry":{"type":"Point","coordinates":[141.364,43.107]},"properties":{"Name":"栄町小学校グラウンド","Jusho":"北海道札幌市東区北３６条東１３丁目３-１","kouzui":"×","gake":"×","takashio":"×","jishin":"×","tsunami":"×","kaji":"○","naisui":"×","kazan":"×"}}
,{"type":"Feature","geometry":{"type":"Point","coordinates":[141.366,43.106]},"properties":{"Name":"栄町中学校グラウンド","Jusho":"北海道札幌市東区北３６条東１４丁目１-１","kouzui":"×","gake":"×","takashio":"×","jishin":"×","tsunami":"×","kaji":"○","naisui":"×","kazan":"×"}}
,{"type":"Feature","geometry":{"type":"Point","coordinates":[141.377,43.109]},"properties":{"Name":"栄南小学校グラウンド","Jusho":"北海道札幌市東区北３７条東２０丁目３-１","kouzui":"×","gake":"×","takashio":"×","jishin":"×","tsunami":"×","kaji":"○","naisui":"×","kazan":"×"}}
,{"type":"Feature","geometry":{"type":"Point","coordinates":[141.351,43.108]},