var hokkaido={"type":"FeatureCollection","name":"hokkaido","features":[
{"type":"Feature","geometry":{"type":"Point","coordinates":[140.729,41.766]},"properties":{"Name":"市営旭町団地","Jusho":"北海道函館市旭町1-14","kouzui":"×","gake":"×","takashio":"×","jishin":"×","tsunami":"○","kaji":"×","naisui":"×","kazan":"×"}}
,{"type":"Feature","geometry":{"type":"Point","coordinates":[140.727,41.768]},"properties":{"Name":"道営住宅旭森団地１号棟","Jusho":"北海道函館市旭町8-1","kouzui":"×","gake":"×","takashio":"×","jishin":"×","tsunami":"○","kaji":"×","naisui":"×","kazan":"×"}}
,{"type":"Feature","geometry":{"type":"Point","coordinates":[140.959,41.915]},"properties":{"Name":"安浦稲荷神社境内","Jusho":"北海道函館市安浦町302","kouzui":"×","gake":"×","takashio":"×","jishin":"×","tsunami":"○","kaji":"×","naisui":"×","kazan":"×"}}
,{"type":"Feature","geometry":{"type":"Point","coordinates":[140.941,41.931]},"properties":{"Name":"もと臼尻小学校グラウンド","Jusho":"北海道函館市臼尻町595","kouzui":"×","gake":"×","takashio":"×","jishin":"×","tsunami":"○","kaji":"×","naisui":"×","kazan":"×"}}
,{"type":"Feature","geometry":{"type":"Point","coordinates":[140.949,41.927]},"properties":{"Name":"臼尻町６０番地裏　高台（尾札部バイパス）","Jusho":"北海道函館市臼尻町60","kouzui":"×","gake":"×","takashio":"×","jishin":"×","tsunami":"○","kaji":"×","naisui":"×","kazan":"×"}}
,{"type":"Feature","geometry":{"type":"Point","coordinates":[140.94,41.932]},"properties":{"Name":"南茅部スポーツセンター","Jusho":"北海道函館市臼尻町604-1","kouzui":"×","gake":"○","takashio":"×","jishin":"○","tsunami":"○","kaji":"×","naisui":"×","kazan":"×"}}
,{"type":"Feature","geometry":{"type":"Point","coordinates":[140.724,41.783]},"properties":{"Name":"函館港湾合同庁舎","Jusho":"北海道函館市海岸町24-4","kouzui":"×","gake":"×","takashio":"×","jishin":"×","tsunami":"○","kaji":"×","naisui":"×","kazan":"×"}}
,{"type":"Feature","geometry":{"type":"Point","coordinates":[140.932,41.739]},"properties":{"Name":"戸井学園","Jusho":"北海道函館市釜谷町227","kouzui":"×","gake":"○","takashio":"×","jishin":"○","tsunami":"○","kaji":"×","naisui":"×","kazan":"×"}}
,{"type":"Feature","geometry":{"type":"Point","coordinates":[140.767,41.842]},"properties":{"Name":"公立はこだて未来大学","Jusho":"北海道函館市亀田中野町116-2","kouzui":"×","gake":"○","takashio":"×","jishin":"○","tsunami":"×","kaji":"×","naisui":"×","kazan":"×"}}
,{"type":"Feature","geometry":{"type":"Point","coordinates":[140.781,41.862]},"properties":{"Name":"キッズ・サポート＆プロテクト体育館","Jusho":"北海道函館市亀田中野町335-1","kouzui":"×","gake":"○","takashio":"×","jishin":"○","tsunami":"×","kaji":"×","naisui":"×","kazan":"×"}}
,{"type":"Feature","geometry":{"type":"Point","coordinates":[140.733,41.794]},"properties":{"Name":"ボヌール・ピエス","Jusho":"北海道函館市亀田町6-39","kouzui":"×","gake":"×","takashio":"×","jishin":"×","tsunami":"○","kaji":"×","naisui":"×","kazan":"×"}}
,{"type":"Feature","geometry":{"type":"Point","coordinates":[140.858,41.794]},"properties":{"Name":"興禅寺","Jusho":"北海道函館市亀尾町39","kouzui":"×","gake":"○","takashio":"×","jishin":"○","tsunami":"×","kaji":"×","naisui":"×","kazan":"×"}}
,{"type":"Feature","geometry":{"type":"Point","coordinates":[140.731,41.796]},"properties":{"Name":"万年橋小学校","Jusho":"北海道函館市吉川町6-22","kouzui":"×","gake":"×","takashio":"×","jishin":"○","tsunami":"○","kaji":"×","naisui":"×","kazan":"×"}}
,{"type":"Feature","geometry":{"type":"Point","coordinates":[140.729,41.795]},"properties":{"Name":"シャトーム吉川町","Jusho":"北海道函館市吉川町7-6","kouzui":"×","gake":"×","takashio":"×","jishin":"×","tsunami":"○","kaji":"×","naisui":"×","kazan":"×"}}
,{"type":"Feature","geometry":{"type":"Point","coordinates":[140.728,41.831]},"properties":{"Name":"桔梗小学校","Jusho":"北海道函館市桔梗1-13-2","kouzui":"○","gake":"○","takashio":"×","jishin":"○","tsunami":"×","kaji":"×","naisui":"×","kazan":"×"}}
,{"type":"Feature","geometry":{"type":"Point","coordinates":[140.734,41.85]},"properties":{"Name":"中の沢小学校","Jusho":"北海道函館市桔梗5-25-5","kouzui":"○","gake":"○","takashio":"×","jishin":"○","tsunami":"×","kaji":"×","naisui":"×","kazan":"×"}}
,{"type":"Feature","geometry":{"type":"Point","coordinates":[140.735,41.841]},"properties":{"Name":"桔梗中学校","Jusho":"北海道函館市桔梗町429-4","kouzui":"○","gake":"×","takashio":"×","jishin":"○","tsunami":"×","kaji":"×","naisui":"×","kazan":"×"}}
,{"type":"Feature","geometry":{"type":"Point","coordinates":[140.719,41.848]},"properties":{"Name":"桔梗西部町会館","Jusho":"北海道函館市桔梗町63-2","kouzui":"○","gake":"×","takashio":"×","jishin":"○","tsunami":"×","kaji":"×","naisui":"×","kazan":"×"}}
,{"type":"Feature","geometry":{"type":"Point","coordinates":[140.764,41.779]},"properties":{"Name":"函館競輪場駐車場","Jusho":"北海道函館市金堀町10-8","kouzui":"○","gake":"×","takashio":"×","jishin":"○","tsunami":"×","kaji":"×","naisui":"×","kazan":"×"}}
,{"type":"Feature","geometry":{"type":"Point","coordinates":[140.763,41.777]},"properties":{"Name":"函館競輪場","Jusho":"北海道函館市金堀町10-8","kouzui":"×","gake":"×","takashio":"×","jishin":"×","tsunami":"○","kaji":"×","naisui":"×","kazan":"×"}}
,{"type":"Feature","geometry":{"type":"Point","coordinates":[140.756,41.777]},"properties":{"Name":"大森浜小学校","Jusho":"北海道函館市金堀町3-1","kouzui":"×","gake":"×","takashio":"×","jishin":"○","tsunami":"○","kaji":"×","naisui":"×","kazan":"×"}}
,{"type":"Feature","geometry":{"type":"Point","coordinates":[140.768,41.783]},"properties":{"Name":"駒場小学校","Jusho":"北海道函館市駒場町1-6","kouzui":"○","gake":"×","takashio":"×","jishin":"○","tsunami":"○","kaji":"×","naisui":"×","kazan":"×"}}
,{"type":"Feature","geometry":{"type":"Point","coordinates":[141.147,41.787]},"properties":{"Name":"豊国寺","Jusho":"北海道函館市恵山町375","kouzui":"×","gake":"×","takashio":"×","jishin":"×","tsunami":"○","kaji":"×","naisui":"×","kazan":"×"}}
,{"type":"Feature","geometry":{"type":"Point","coordinates":[141.149,41.788]},"properties":{"Name":"禅龍寺","Jusho":"北海道函館市恵山町451-2","kouzui":"×","gake":"×","takashio":"×","jishin":"○","tsunami":"○","kaji":"×","naisui":"×","kazan":"×"}}
,{"type":"Feature","geometry":{"type":"Point","coordinates":[141.162,41.791]},"properties":{"Name":"恵山町６３５番地裏　高台（市道中野桑原２号線）","Jusho":"北海道函館市恵山町635","kouzui":"×","gake":"×","takashio":"×","jishin":"×","tsunami":"○","kaji":"×","naisui":"×","kazan":"×"}}
,{"type":"Feature","geometry":{"type":"Point","coordinates":[141.164,41.793]},"properties":{"Name":"御崎会館","Jusho":"北海道函館市恵山町663-2","kouzui":"×","gake":"×","takashio":"×","jishin":"○","tsunami":"×","kaji":"×","naisui":"×","kazan":"×"}}
,{"type":"Feature","geometry":{"type":"Point","coordinates":[141.181,41.814]},"properties":{"Name":"ホテル恵風","Jusho":"北海道函館市恵山岬町61-2","kouzui":"×","gake":"○","takashio":"×","jishin":"○","tsunami":"○","kaji":"×","naisui":"×","kazan":"×"}}
,{"type":"Feature","geometry":{"type":"Point","coordinates":[140.803,41.792]},"properties":{"Name":"緑のセンター（見晴公園内）","Jusho":"北海道函館市見晴町56","kouzui":"○","gake":"○","takashio":"×","jishin":"○","tsunami":"×","kaji":"×","naisui":"×","kazan":"×"}}
,{"type":"Feature","geometry":{"type":"Point","coordinates":[140.804,41.793]},"properties":{"Name":"見晴公園　※広域","Jusho":"北海道函館市見晴町56","kouzui":"×","gake":"×","takashio":"×","jishin":"○","tsunami":"×","kaji":"×","naisui":"×","kazan":"×"}}
,{"type":"Feature","geometry":{"type":"Point","coordinates":[141.163,41.821]},"properties":{"Name":"元村町３２番地裏　高台","Jusho":"北海道函館市元村町32","kouzui":"×","gake":"×","takashio":"×","jishin":"×","tsunami":"○","kaji":"×","naisui":"×","kazan":"×"}}
,{"type":"Feature","geometry":{"type":"Point","coordinates":[140.711,41.763]},"properties":{"Name":"函館西高等学校","Jusho":"北海道函館市元町7-17","kouzui":"×","gake":"○","takashio":"×","jishin":"○","tsunami":"○","kaji":"×","naisui":"×","kazan":"×"}}
,{"type":"Feature","geometry":{"type":"Point","coordinates":[141.038,41.728]},"properties":{"Name":"原木町２００番地裏　高台　（退避スペース）","Jusho":"北海道函館市原木町200","kouzui":"×","gake":"×","takashio":"×","jishin":"×","tsunami":"○","kaji":"×","naisui":"×","kazan":"×"}}
,{"type":"Feature","geometry":{"type":"Point","coordinates":[141.032,41.73]},"properties":{"Name":"温泉保養センター","Jusho":"北海道函館市原木町218","kouzui":"×","gake":"×","takashio":"×","jishin":"○","tsunami":"×","kaji":"×","naisui":"×","kazan":"×"}}
,{"type":"Feature","geometry":{"type":"Point","coordinates":[141.032,41.731]},"properties":{"Name":"原木町８番地裏　高台（戸井オートキャンプ場）","Jusho":"北海道函館市原木町8","kouzui":"×","gake":"×","takashio":"×","jishin":"×","tsunami":"○","kaji":"×","naisui":"×","kazan":"×"}}
,{"type":"Feature","geometry":{"type":"Point","coordinates":[140.866,41.759]},"properties":{"Name":"古川町会館","Jusho":"北海道函館市古川町350-4","kouzui":"×","gake":"×","takashio":"×","jishin":"○","tsunami":"×","kaji":"×","naisui":"×","kazan":"×"}}
,{"type":"Feature","geometry":{"type":"Point","coordinates":[140.869,41.759]},"properties":{"Name":"希望ヶ丘学園","Jusho":"北海道函館市古川町441-3","kouzui":"×","gake":"○","takashio":"×","jishin":"○","tsunami":"○","kaji":"×","naisui":"×","kazan":"×"}}
,{"type":"Feature","geometry":{"type":"Point","coordinates":[141.112,41.788]},"properties":{"Name":"高聖寺","Jusho":"北海道函館市古武井町222","kouzui":"×","gake":"○","takashio":"×","jishin":"×","tsunami":"○","kaji":"×","naisui":"×","kazan":"×"}}
,{"type":"Feature","geometry":{"type":"Point","coordinates":[141.116,41.864]},"properties":{"Name":"古部町４２３番地裏　高台","Jusho":"北海道函館市古部町270-2","kouzui":"×","gake":"×","takashio":"×","jishin":"×","tsunami":"○","kaji":"×","naisui":"×","kazan":"×"}}
,{"type":"Feature","geometry":{"type":"Point","coordinates":[141.119,41.864]},"properties":{"Name":"古部会館","Jusho":"北海道函館市古部町422","kouzui":"×","gake":"×","takashio":"×","jishin":"○","tsunami":"×","kaji":"×","naisui":"×","kazan":"○"}}
,{"type":"Feature","geometry":{"type":"Point","coordinates":[140.803,41.784]},"properties":{"Name":"函館工業高等専門学校","Jusho":"北海道函館市戸倉町14-1","kouzui":"○","gake":"×","takashio":"×","jishin":"○","tsunami":"○","kaji":"×","naisui":"×","kazan":"×"}}
,{"type":"Feature","geometry":{"type":"Point","coordinates":[140.806,41.786]},"properties":{"Name":"戸倉中学校","Jusho":"北海道函館市戸倉町26-1","kouzui":"○","gake":"○","takashio":"×","jishin":"○","tsunami":"○","kaji":"×","naisui":"×","kazan":"×"}}
,{"type":"Feature","geometry":{"type":"Point","coordinates":[140.752,41.8]},"properties":{"Name":"総合保健センター","Jusho":"北海道函館市五稜郭町23-1","kouzui":"○","gake":"×","takashio":"×","jishin":"○","tsunami":"×","kaji":"×","naisui":"×","kazan":"×"}}
,{"type":"Feature","geometry":{"type":"Point","coordinates":[141.175,41.798]},"properties":{"Name":"御崎町１３０番地高台","Jusho":"北海道函館市御崎町130","kouzui":"×","gake":"×","takashio":"×","jishin":"×","tsunami":"○","kaji":"×","naisui":"×","kazan":"×"}}
,{"type":"Feature","geometry":{"type":"Point","coordinates":[140.732,41.802]},"properties":{"Name":"ポールスターショッピングセンター（屋上駐車場）","Jusho":"北海道函館市港町1","kouzui":"×","gake":"×","takashio":"×","jishin":"×","tsunami":"○","kaji":"×","naisui":"×","kazan":"×"}}
,{"type":"Feature","geometry":{"type":"Point","coordinates":[140.732,41.802]},"properties":{"Name":"スーパーアークス港町店（屋上駐車場）","Jusho":"北海道函館市港町1","kouzui":"×","gake":"×","takashio":"×","jishin":"×","tsunami":"○","kaji":"×","naisui":"×","kazan":"×"}}
,{"type":"Feature","geometry":{"type":"Point","coordinates":[140.731,41.801]},"properties":{"Name":"ネクストⅢ","Jusho":"北海道函館市港町1-14-3","kouzui":"×","gake":"×","takashio":"×","jishin":"×","tsunami":"○","kaji":"×","naisui":"×","kazan":"×"}}
,{"type":"Feature","geometry":{"type":"Point","coordinates":[140.728,41.802]},"properties":{"Name":"ペイサージュ港町","Jusho":"北海道函館市港町1-15-23","kouzui":"×","gake":"×","takashio":"×","jishin":"×","tsunami":"○","kaji":"×","naisui":"×","kazan":"×"}}
,{"type":"Feature","geometry":{"type":"Point","coordinates":[140.729,41.801]},"properties":{"Name":"パルティール港町","Jusho":"北海道函館市港町1-15-30","kouzui":"×","gake":"×","takashio":"×","jishin":"×","tsunami":"○","kaji":"×","naisui":"×","kazan":"×"}}
,{"type":"Feature","geometry":{"type":"Point","coordinates":[140.729,41.802]},"properties":{"Name":"クレール港町","Jusho":"北海道函館市港町1-15-32","kouzui":"×","gake":"×","takashio":"×","jishin":"×","tsunami":"○","kaji":"×","naisui":"×","kazan":"×"}}
,{"type":"Feature","geometry":{"type":"Point","coordinates":[140.725,41.802]},"properties":{"Name":"ファーストレジデンス","Jusho":"北海道函館市港町1-17-16","kouzui":"×","gake":"×","takashio":"×","jishin":"×","tsunami":"○","kaji":"×","naisui":"×","kazan":"×"}}
,{"type":"Feature","geometry":{"type":"Point","coordinates":[140.726,41.802]},"properties":{"Name":"パークサイドブライトネス","Jusho":"北海道函館市港町1-17-32","kouzui":"×","gake":"×","takashio":"×","jishin":"×","tsunami":"○","kaji":"×","naisui":"×","kazan":"×"}}
,{"type":"Feature","geometry":{"type":"Point","coordinates":[140.724,41.804]},"properties":{"Name":"港小学校","Jusho":"北海道函館市港町1-22-1","kouzui":"○","gake":"×","takashio":"×","jishin":"○","tsunami":"○","kaji":"×","naisui":"×","kazan":"×"}}
,{"type":"Feature","geometry":{"type":"Point","coordinates":[140.725,41.806]},"properties":{"Name":"エスセーナ港町","Jusho":"北海道函館市港町1-26-1","kouzui":"×","gake":"×","takashio":"×","jishin":"×","tsunami":"○","kaji":"×","naisui":"×","kazan":"×"}}
,{"type":"Feature","geometry":{"type":"Point","coordinates":[140.719,41.808]},"properties":{"Name":"港中学校","Jusho":"北海道函館市港町2-10-1","kouzui":"○","gake":"×","takashio":"×","jishin":"○","tsunami":"○","kaji":"×","naisui":"×","kazan":"×"}}
,{"type":"Feature","geometry":{"type":"Point","coordinates":[140.722,41.808]},"properties":{"Name":"市営港２丁目団地１号棟","Jusho":"北海道函館市港町2-7-1","kouzui":"×","gake":"×","takashio":"×","jishin":"×","tsunami":"○","kaji":"×","naisui":"×","kazan":"×"}}
,{"type":"Feature","geometry":{"type":"Point","coordinates":[140.722,41.807]},"properties":{"Name":"市営港２丁目団地２号棟","Jusho":"北海道函館市港町2-7-2","kouzui":"×","gake":"×","takashio":"×","jishin":"×","tsunami":"○","kaji":"×","naisui":"×","kazan":"×"}}
,{"type":"Feature","geometry":{"type":"Point","coordinates":[140.718,41.809]},"properties":{"Name":"北海道大学水産学部　管理研究棟","Jusho":"北海道函館市港町3-1-1","kouzui":"×","gake":"×","takashio":"×","jishin":"×","tsunami":"○","kaji":"×","naisui":"×","kazan":"×"}}
,{"type":"Feature","geometry":{"type":"Point","coordinates":[140.718,41.81]},"properties":{"Name":"北海道大学水産学部　実験研究棟","Jusho":"北海道函館市港町3-1-1","kouzui":"×","gake":"×","takashio":"×","jishin":"×","tsunami":"○","kaji":"×","naisui":"×","kazan":"×"}}
,{"type":"Feature","geometry":{"type":"Point","coordinates":[140.715,41.811]},"properties":{"Name":"市営港３丁目Ｂ団地","Jusho":"北海道函館市港町3-2-20","kouzui":"×","gake":"×","takashio":"×","jishin":"×","tsunami":"○","kaji":"×","naisui":"×","kazan":"×"}}
,{"type":"Feature","geometry":{"type":"Point","coordinates":[140.717,41.813]},"properties":{"Name":"市営港３丁目改良団地","Jusho":"北海道函館市港町3-7-1","kouzui":"×","gake":"×","takashio":"×","jishin":"×","tsunami":"○","kaji":"×","naisui":"×","kazan":"×"}}
,{"type":"Feature","geometry":{"type":"Point","coordinates":[140.803,41.788]},"properties":{"Name":"高丘小学校","Jusho":"北海道函館市高丘町3-2","kouzui":"○","gake":"○","takashio":"×","jishin":"○","tsunami":"×","kaji":"×","naisui":"×","kazan":"×"}}
,{"type":"Feature","geometry":{"type":"Point","coordinates":[140.802,41.776]},"properties":{"Name":"空港緑地高松ふれあい広場","Jusho":"北海道函館市高松町105","kouzui":"×","gake":"○","takashio":"×","jishin":"○","tsunami":"×","kaji":"×","naisui":"×","kazan":"×"}}
,{"type":"Feature","geometry":{"type":"Point","coordinates":[140.81,41.777]},"properties":{"Name":"高松町会館","Jusho":"北海道函館市高松町505-1","kouzui":"○","gake":"○","takashio":"×","jishin":"○","tsunami":"×","kaji":"×","naisui":"×","kazan":"×"}}
,{"type":"Feature","geometry":{"type":"Point","coordinates":[141.11,41.809]},"properties":{"Name":"恵山クリーンセンター","Jusho":"北海道函館市高岱町428-1","kouzui":"×","gake":"○","takashio":"×","jishin":"○","tsunami":"○","kaji":"×","naisui":"×","kazan":"×"}}
,{"type":"Feature","geometry":{"type":"Point","coordinates":[140.776,41.803]},"properties":{"Name":"函館白百合学園中学高等学校","Jusho":"北海道函館市山の手2-6-3","kouzui":"○","gake":"○","takashio":"×","jishin":"○","tsunami":"×","kaji":"×","naisui":"×","kazan":"×"}}
,{"type":"Feature","geometry":{"type":"Point","coordinates":[140.786,41.805]},"properties":{"Name":"北中学校","Jusho":"北海道函館市山の手3-58-1","kouzui":"○","gake":"○","takashio":"×","jishin":"○","tsunami":"×","kaji":"×","naisui":"×","kazan":"×"}}
,{"type":"Feature","geometry":{"type":"Point","coordinates":[140.819,41.766]},"properties":{"Name":"志海苔町会館","Jusho":"北海道函館市志海苔町239","kouzui":"×","gake":"○","takashio":"×","jishin":"○","tsunami":"○","kaji":"×","naisui":"×","kazan":"×"}}
,{"type":"Feature","geometry":{"type":"Point","coordinates":[140.823,41.767]},"properties":{"Name":"空港緑地志海苔ふれあい広場","Jusho":"北海道函館市志海苔町294-1","kouzui":"×","gake":"○","takashio":"×","jishin":"○","tsunami":"×","kaji":"×","naisui":"×","kazan":"×"}}
,{"type":"Feature","geometry":{"type":"Point","coordinates":[140.752,41.783]},"properties":{"Name":"函館中部高等学校","Jusho":"北海道函館市時任町11-3","kouzui":"×","gake":"×","takashio":"×","jishin":"○","tsunami":"○","kaji":"×","naisui":"×","kazan":"×"}}
,{"type":"Feature","geometry":{"type":"Point","coordinates":[140.952,41.716]},"properties":{"Name":"もと汐首西会館前高台","Jusho":"北海道函館市汐首町331-1","kouzui":"×","gake":"×","takashio":"×","jishin":"×","tsunami":"○","kaji":"×","naisui":"×","kazan":"×"}}
,{"type":"Feature","geometry":{"type":"Point","coordinates":[140.953,41.716]},"properties":{"Name":"汐首神社境内","Jusho":"北海道函館市汐首町362","kouzui":"×","gake":"×","takashio":"×","jishin":"○","tsunami":"×","kaji":"×","naisui":"×","kazan":"×"}}
,{"type":"Feature","geometry":{"type":"Point","coordinates":[140.726,41.774]},"properties":{"Name":"ＪＲイン函館","Jusho":"北海道函館市若松町12-14","kouzui":"×","gake":"×","takashio":"×","jishin":"×","tsunami":"○","kaji":"×","naisui":"×","kazan":"×"}}
,{"type":"Feature","geometry":{"type":"Point","coordinates":[140.727,41.774]},"properties":{"Name":"ラ・ジェント・ステイ函館駅前","Jusho":"北海道函館市若松町12-8","kouzui":"×","gake":"×","takashio":"×","jishin":"×","tsunami":"○","kaji":"×","naisui":"×","kazan":"×"}}
,{"type":"Feature","geometry":{"type":"Point","coordinates":[140.727,41.773]},"properties":{"Name":"プレミアホテル－キャビン　プレジデント－函館","Jusho":"北海道函館市若松町14-10","kouzui":"×","gake":"×","takashio":"×","jishin":"×","tsunami":"○","kaji":"×","naisui":"×","kazan":"×"}}
,{"type":"Feature","geometry":{"type":"Point","coordinates":[140.728,41.772]},"properties":{"Name":"コンフォートホテル函館","Jusho":"北海道函館市若松町16-3","kouzui":"×","gake":"×","takashio":"×","jishin":"×","tsunami":"○","kaji":"×","naisui":"×","kazan":"×"}}
,{"type":"Feature","geometry":{"type":"Point","coordinates":[140.728,41.774]},"properties":{"Name":"ホテルルートイングランティア函館駅前","Jusho":"北海道函館市若松町21-3","kouzui":"×","gake":"×","takashio":"×","jishin":"×","tsunami":"○","kaji":"×","naisui":"×","kazan":"×"}}
,{"type":"Feature","geometry":{"type":"Point","coordinates":[140.731,41.777]},"properties":{"Name":"総合福祉センター","Jusho":"北海道函館市若松町33-6","kouzui":"×","gake":"×","takashio":"×","jishin":"○","tsunami":"○","kaji":"×","naisui":"×","kazan":"×"}}
,{"type":"Feature","geometry":{"type":"Point","coordinates":[141.081,41.762]},"properties":{"Name":"女那川町５２番地裏　高台　（退避スペース）","Jusho":"北海道函館市女那川町52","kouzui":"×","gake":"×","takashio":"×","jishin":"×","tsunami":"○","kaji":"×","naisui":"×","kazan":"×"}}
,{"type":"Feature","geometry":{"type":"Point","coordinates":[141.086,41.761]},"properties":{"Name":"女那川町８５番地裏　高台　（退避スペース）","Jusho":"北海道函館市女那川町85","kouzui":"×","gake":"×","takashio":"×","jishin":"×","tsunami":"○","kaji":"×","naisui":"×","kazan":"×"}}
,{"type":"Feature","geometry":{"type":"Point","coordinates":[141.087,41.762]},"properties":{"Name":"女那川町９１番地裏　高台　（退避スペース）","Jusho":"北海道函館市女那川町91","kouzui":"×","gake":"×","takashio":"×","jishin":"×","tsunami":"○","kaji":"×","naisui":"×","kazan":"×"}}
,{"type":"Feature","geometry":{"type":"Point","coordinates":[140.93,41.74]},"properties":{"Name":"戸井幼稚園","Jusho":"北海道函館市小安町523-7","kouzui":"×","gake":"○","takashio":"×","jishin":"○","tsunami":"○","kaji":"×","naisui":"×","kazan":"×"}}
,{"type":"Feature","geometry":{"type":"Point","coordinates":[140.931,41.74]},"properties":{"Name":"戸井西部総合センター","Jusho":"北海道函館市小安町525-1","kouzui":"×","gake":"○","takashio":"×","jishin":"○","tsunami":"○","kaji":"×","naisui":"×","kazan":"×"}}
,{"type":"Feature","geometry":{"type":"Point","coordinates":[140.926,41.741]},"properties":{"Name":"もと戸井西小学校グラウンド","Jusho":"北海道函館市小安町548-1","kouzui":"×","gake":"×","takashio":"×","jishin":"×","tsunami":"○","kaji":"×","naisui":"×","kazan":"×"}}
,{"type":"Feature","geometry":{"type":"Point","coordinates":[140.742,41.814]},"properties":{"Name":"函館商業高等学校","Jusho":"北海道函館市昭和1-17-1","kouzui":"×","gake":"×","takashio":"×","jishin":"○","tsunami":"○","kaji":"×","naisui":"×","kazan":"×"}}
,{"type":"Feature","geometry":{"type":"Point","coordinates":[140.744,41.813]},"properties":{"Name":"昭和小学校","Jusho":"北海道函館市昭和1-5-5","kouzui":"○","gake":"×","takashio":"×","jishin":"○","tsunami":"○","kaji":"×","naisui":"×","kazan":"×"}}
,{"type":"Feature","geometry":{"type":"Point","coordinates":[140.731,41.821]},"properties":{"Name":"北昭和小学校","Jusho":"北海道函館市昭和4-38-1","kouzui":"○","gake":"○","takashio":"×","jishin":"○","tsunami":"○","kaji":"×","naisui":"×","kazan":"×"}}
,{"type":"Feature","geometry":{"type":"Point","coordinates":[140.759,41.791]},"properties":{"Name":"柏野小学校","Jusho":"北海道函館市松陰町5-10","kouzui":"○","gake":"×","takashio":"×","jishin":"○","tsunami":"×","kaji":"×","naisui":"×","kazan":"×"}}
,{"type":"Feature","geometry":{"type":"Point","coordinates":[140.737,41.786]},"properties":{"Name":"市営松川団地１","Jusho":"北海道函館市松川町30-1","kouzui":"×","gake":"×","takashio":"×","jishin":"×","tsunami":"○","kaji":"×","naisui":"×","kazan":"×"}}
,{"type":"Feature","geometry":{"type":"Point","coordinates":[140.737,41.786]},"properties":{"Name":"市営松川団地２","Jusho":"北海道函館市松川町30-2","kouzui":"×","gake":"×","takashio":"×","jishin":"×","tsunami":"○","kaji":"×","naisui":"×","kazan":"×"}}
,{"type":"Feature","geometry":{"type":"Point","coordinates":[140.737,41.786]},"properties":{"Name":"市営松川団地３","Jusho":"北海道函館市松川町30-3","kouzui":"×","gake":"×","takashio":"×","jishin":"×","tsunami":"○","kaji":"×","naisui":"×","kazan":"×"}}
,{"type":"Feature","geometry":{"type":"Point","coordinates":[140.737,41.787]},"properties":{"Name":"市営松川改良団地","Jusho":"北海道函館市松川町41-8","kouzui":"×","gake":"×","takashio":"×","jishin":"×","tsunami":"○","kaji":"×","naisui":"×","kazan":"×"}}
,{"type":"Feature","geometry":{"type":"Point","coordinates":[140.735,41.784]},"properties":{"Name":"ビジネスホテルよしずみ","Jusho":"北海道函館市松川町6-12","kouzui":"×","gake":"×","takashio":"×","jishin":"×","tsunami":"○","kaji":"×","naisui":"×","kazan":"×"}}
,{"type":"Feature","geometry":{"type":"Point","coordinates":[140.73,41.771]},"properties":{"Name":"東横ＩＮＮ函館駅前大門","Jusho":"北海道函館市松風町5-1","kouzui":"×","gake":"×","takashio":"×","jishin":"×","tsunami":"○","kaji":"×","naisui":"×","kazan":"×"}}
,{"type":"Feature","geometry":{"type":"Point","coordinates":[140.739,41.778]},"properties":{"Name":"函館地方裁判所","Jusho":"北海道函館市上新川町1-8","kouzui":"×","gake":"×","takashio":"×","jishin":"×","tsunami":"○","kaji":"×","naisui":"×","kazan":"×"}}
,{"type":"Feature","geometry":{"type":"Point","coordinates":[140.816,41.784]},"properties":{"Name":"上湯川小学校","Jusho":"北海道函館市上湯川町295","kouzui":"○","gake":"○","takashio":"×","jishin":"○","tsunami":"○","kaji":"×","naisui":"×","kazan":"×"}}
,{"type":"Feature","geometry":{"type":"Point","coordinates":[140.82,41.787]},"properties":{"Name":"市民の森　※広域","Jusho":"北海道函館市上湯川町327-1","kouzui":"×","gake":"○","takashio":"×","jishin":"○","tsunami":"×","kaji":"×","naisui":"×","kazan":"×"}}
,{"type":"Feature","geometry":{"type":"Point","coordinates":[140.734,41.774]},"properties":{"Name":"函館中央郵便局","Jusho":"北海道函館市新川町1-6","kouzui":"×","gake":"×","takashio":"×","jishin":"×","tsunami":"○","kaji":"×","naisui":"×","kazan":"×"}}
,{"type":"Feature","geometry":{"type":"Point","coordinates":[140.738,41.778]},"properties":{"Name":"函館パークホテル","Jusho":"北海道函館市新川町29-15","kouzui":"×","gake":"×","takashio":"×","jishin":"×","tsunami":"○","kaji":"×","naisui":"×","kazan":"×"}}
,{"type":"Feature","geometry":{"type":"Point","coordinates":[140.737,41.778]},"properties":{"Name":"中部小学校","Jusho":"北海道函館市新川町30-26","kouzui":"×","gake":"×","takashio":"×","jishin":"○","tsunami":"○","kaji":"×","naisui":"×","kazan":"×"}}
,{"type":"Feature","geometry":{"type":"Point","coordinates":[141.027,41.72]},"properties":{"Name":"新二見町１２番地裏　高台（憩いの丘公園）","Jusho":"北海道函館市新二見町15","kouzui":"×","gake":"×","takashio":"×","jishin":"×","tsunami":"○","kaji":"×","naisui":"×","kazan":"×"}}
,{"type":"Feature","geometry":{"type":"Point","coordinates":[141.144,41.83]},"properties":{"Name":"椴法華小学校","Jusho":"北海道函館市新八幡町86-1","kouzui":"×","gake":"○","takashio":"×","jishin":"○","tsunami":"○","kaji":"×","naisui":"×","kazan":"○"}}
,{"type":"Feature","geometry":{"type":"Point","coordinates":[141.141,41.835]},"properties":{"Name":"椴法華中学校","Jusho":"北海道函館市新浜町151-1","kouzui":"×","gake":"○","takashio":"×","jishin":"○","tsunami":"×","kaji":"×","naisui":"×","kazan":"×"}}
,{"type":"Feature","geometry":{"type":"Point","coordinates":[141.141,41.833]},"properties":{"Name":"椴法華総合センター","Jusho":"北海道函館市新浜町156-1","kouzui":"×","gake":"○","takashio":"×","jishin":"×","tsunami":"○","kaji":"×","naisui":"×","kazan":"○"}}
,{"type":"Feature","geometry":{"type":"Point","coordinates":[140.846,41.761]},"properties":{"Name":"函館共働宿泊所救護部","Jusho":"北海道函館市新湊町261","kouzui":"×","gake":"○","takashio":"×","jishin":"○","tsunami":"○","kaji":"×","naisui":"×","kazan":"×"}}
,{"type":"Feature","geometry":{"type":"Point","coordinates":[140.779,41.789]},"properties":{"Name":"深堀小学校","Jusho":"北海道函館市深堀町14-2","kouzui":"○","gake":"×","takashio":"×","jishin":"○","tsunami":"○","kaji":"×","naisui":"×","kazan":"×"}}
,{"type":"Feature","geometry":{"type":"Point","coordinates":[140.781,41.786]},"properties":{"Name":"深堀中学校","Jusho":"北海道函館市深堀町28-1","kouzui":"○","gake":"○","takashio":"×","jishin":"○","tsunami":"○","kaji":"×","naisui":"×","kazan":"×"}}
,{"type":"Feature","geometry":{"type":"Point","coordinates":[140.777,41.786]},"properties":{"Name":"函館競馬場駐車場","Jusho":"北海道函館市深堀町90-2","kouzui":"○","gake":"×","takashio":"×","jishin":"○","tsunami":"○","kaji":"×","naisui":"×","kazan":"×"}}
,{"type":"Feature","geometry":{"type":"Point","coordinates":[140.764,41.82]},"properties":{"Name":"神山小学校","Jusho":"北海道函館市神山町233-1","kouzui":"×","gake":"○","takashio":"×","jishin":"○","tsunami":"×","kaji":"×","naisui":"×","kazan":"×"}}
,{"type":"Feature","geometry":{"type":"Point","coordinates":[140.771,41.826]},"properties":{"Name":"史跡四稜郭","Jusho":"北海道函館市陣川町59","kouzui":"×","gake":"×","takashio":"×","jishin":"○","tsunami":"×","kaji":"×","naisui":"×","kazan":"×"}}
,{"type":"Feature","geometry":{"type":"Point","coordinates":[140.79,41.835]},"properties":{"Name":"陣川あさひ町会館","Jusho":"北海道函館市陣川町79-55","kouzui":"○","gake":"○","takashio":"×","jishin":"○","tsunami":"×","kaji":"×","naisui":"×","kazan":"×"}}
,{"type":"Feature","geometry":{"type":"Point","coordinates":[140.757,41.787]},"properties":{"Name":"遺愛アリーナ","Jusho":"北海道函館市杉並町23-11","kouzui":"○","gake":"×","takashio":"×","jishin":"○","tsunami":"○","kaji":"×","naisui":"×","kazan":"×"}}
,{"type":"Feature","geometry":{"type":"Point","coordinates":[140.974,41.713]},"properties":{"Name":"瀬田来町２６番地裏　高台　（退避スペース）","Jusho":"北海道函館市瀬田来町26","kouzui":"×","gake":"×","takashio":"×","jishin":"×","tsunami":"○","kaji":"×","naisui":"×","kazan":"×"}}
,{"type":"Feature","geometry":{"type":"Point","coordinates":[140.98,41.714]},"properties":{"Name":"瀬田来会館","Jusho":"北海道函館市瀬田来町325","kouzui":"×","gake":"×","takashio":"×","jishin":"×","tsunami":"○","kaji":"×","naisui":"×","kazan":"×"}}
,{"type":"Feature","geometry":{"type":"Point","coordinates":[140.981,41.715]},"properties":{"Name":"瀬田来神社境内","Jusho":"北海道函館市瀬田来町370-1","kouzui":"×","gake":"×","takashio":"×","jishin":"○","tsunami":"○","kaji":"×","naisui":"×","kazan":"×"}}
,{"type":"Feature","geometry":{"type":"Point","coordinates":[140.824,41.797]},"properties":{"Name":"旭岡小学校","Jusho":"北海道函館市西旭岡町1-33-1","kouzui":"○","gake":"○","takashio":"×","jishin":"○","tsunami":"×","kaji":"×","naisui":"×","kazan":"×"}}
,{"type":"Feature","geometry":{"type":"Point","coordinates":[140.828,41.8]},"properties":{"Name":"旭岡公園","Jusho":"北海道函館市西旭岡町2-38","kouzui":"×","gake":"×","takashio":"×","jishin":"○","tsunami":"×","kaji":"×","naisui":"×","kazan":"×"}}
,{"type":"Feature","geometry":{"type":"Point","coordinates":[140.832,41.804]},"properties":{"Name":"旭岡中学校","Jusho":"北海道函館市西旭岡町3-5","kouzui":"○","gake":"○","takashio":"×","jishin":"○","tsunami":"×","kaji":"×","naisui":"×","kazan":"×"}}
,{"type":"Feature","geometry":{"type":"Point","coordinates":[140.724,41.828]},"properties":{"Name":"西桔梗中央緑地","Jusho":"北海道函館市西桔梗町589-53","kouzui":"×","gake":"×","takashio":"×","jishin":"○","tsunami":"×","kaji":"×","naisui":"×","kazan":"×"}}
,{"type":"Feature","geometry":{"type":"Point","coordinates":[140.72,41.828]},"properties":{"Name":"西桔梗西緑地","Jusho":"北海道函館市西桔梗町589-65","kouzui":"×","gake":"×","takashio":"×","jishin":"○","tsunami":"×","kaji":"×","naisui":"×","kazan":"×"}}
,{"type":"Feature","geometry":{"type":"Point","coordinates":[140.715,41.758]},"properties":{"Name":"青柳中学校","Jusho":"北海道函館市青柳町10-7","kouzui":"×","gake":"×","takashio":"×","jishin":"○","tsunami":"○","kaji":"×","naisui":"×","kazan":"×"}}
,{"type":"Feature","geometry":{"type":"Point","coordinates":[140.718,41.758]},"properties":{"Name":"青柳小学校","Jusho":"北海道函館市青柳町22-13","kouzui":"×","gake":"○","takashio":"×","jishin":"○","tsunami":"○","kaji":"×","naisui":"×","kazan":"×"}}
,{"type":"Feature","geometry":{"type":"Point","coordinates":[140.719,41.755]},"properties":{"Name":"住吉公園","Jusho":"北海道函館市青柳町35","kouzui":"×","gake":"○","takashio":"×","jishin":"○","tsunami":"×","kaji":"×","naisui":"×","kazan":"×"}}
,{"type":"Feature","geometry":{"type":"Point","coordinates":[140.876,41.756]},"properties":{"Name":"もと石崎小学校グラウンド","Jusho":"北海道函館市石崎町438","kouzui":"×","gake":"○","takashio":"×","jishin":"×","tsunami":"○","kaji":"×","naisui":"×","kazan":"×"}}
,{"type":"Feature","geometry":{"type":"Point","coordinates":[140.745,41.833]},"properties":{"Name":"石川町会館","Jusho":"北海道函館市石川町150-2","kouzui":"○","gake":"×","takashio":"×","jishin":"○","tsunami":"×","kaji":"×","naisui":"×","kazan":"×"}}
,{"type":"Feature","geometry":{"type":"Point","coordinates":[140.742,41.839]},"properties":{"Name":"函館高等支援学校","Jusho":"北海道函館市石川町181-8","kouzui":"○","gake":"×","takashio":"×","jishin":"○","tsunami":"×","kaji":"×","naisui":"×","kazan":"×"}}
,{"type":"Feature","geometry":{"type":"Point","coordinates":[140.739,41.824]},"properties":{"Name":"石川公園","Jusho":"北海道函館市石川町5-65","kouzui":"×","gake":"×","takashio":"×","jishin":"○","tsunami":"×","kaji":"×","naisui":"×","kazan":"×"}}
,{"type":"Feature","geometry":{"type":"Point","coordinates":[140.762,41.83]},"properties":{"Name":"赤川中学校","Jusho":"北海道函館市赤川町125","kouzui":"×","gake":"○","takashio":"×","jishin":"○","tsunami":"×","kaji":"×","naisui":"×","kazan":"×"}}
,{"type":"Feature","geometry":{"type":"Point","coordinates":[140.769,41.837]},"properties":{"Name":"赤川町会館","Jusho":"北海道函館市赤川町396-2","kouzui":"×","gake":"○","takashio":"×","jishin":"○","tsunami":"×","kaji":"×","naisui":"×","kazan":"×"}}
,{"type":"Feature","geometry":{"type":"Point","coordinates":[140.739,41.775]},"properties":{"Name":"アートビュー千歳","Jusho":"北海道函館市千歳町20-7","kouzui":"×","gake":"×","takashio":"×","jishin":"×","tsunami":"○","kaji":"×","naisui":"×","kazan":"×"}}
,{"type":"Feature","geometry":{"type":"Point","coordinates":[140.747,41.786]},"properties":{"Name":"千代台公園　※広域","Jusho":"北海道函館市千代台町22","kouzui":"○","gake":"×","takashio":"×","jishin":"○","tsunami":"○","kaji":"×","naisui":"×","kazan":"×"}}
,{"type":"Feature","geometry":{"type":"Point","coordinates":[140.971,41.906]},"properties":{"Name":"旧町民の庭","Jusho":"北海道函館市川汲町1520","kouzui":"×","gake":"×","takashio":"×","jishin":"○","tsunami":"○","kaji":"×","naisui":"×","kazan":"×"}}
,{"type":"Feature","geometry":{"type":"Point","coordinates":[140.971,41.906]},"properties":{"Name":"南茅部総合センター（旧南茅部公民館）","Jusho":"北海道函館市川汲町1520-4","kouzui":"×","gake":"○","takashio":"×","jishin":"○","tsunami":"○","kaji":"×","naisui":"×","kazan":"×"}}
,{"type":"Feature","geometry":{"type":"Point","coordinates":[140.969,41.905]},"properties":{"Name":"南茅部高等学校","Jusho":"北海道函館市川汲町1560","kouzui":"×","gake":"○","takashio":"×","jishin":"○","tsunami":"○","kaji":"×","naisui":"×","kazan":"×"}}
,{"type":"Feature","geometry":{"type":"Point","coordinates":[140.963,41.908]},"properties":{"Name":"南茅部運動広場","Jusho":"北海道函館市川汲町1657","kouzui":"×","gake":"×","takashio":"×","jishin":"○","tsunami":"○","kaji":"×","naisui":"×","kazan":"×"}}
,{"type":"Feature","geometry":{"type":"Point","coordinates":[140.979,41.906]},"properties":{"Name":"川汲会館","Jusho":"北海道函館市川汲町272-1","kouzui":"×","gake":"○","takashio":"×","jishin":"×","tsunami":"×","kaji":"×","naisui":"×","kazan":"×"}}
,{"type":"Feature","geometry":{"type":"Point","coordinates":[140.768,41.792]},"properties":{"Name":"函館工業高等学校","Jusho":"北海道函館市川原町5-13","kouzui":"○","gake":"×","takashio":"×","jishin":"○","tsunami":"×","kaji":"×","naisui":"×","kazan":"×"}}
,{"type":"Feature","geometry":{"type":"Point","coordinates":[141.075,41.764]},"properties":{"Name":"恵山総合体育館","Jusho":"北海道函館市川上町506","kouzui":"×","gake":"○","takashio":"×","jishin":"×","tsunami":"×","kaji":"×","naisui":"×","kazan":"○"}}
,{"type":"Feature","geometry":{"type":"Point","coordinates":[140.836,41.761]},"properties":{"Name":"銭亀沢小学校","Jusho":"北海道函館市銭亀町339","kouzui":"×","gake":"○","takashio":"×","jishin":"○","tsunami":"○","kaji":"×","naisui":"×","kazan":"×"}}
,{"type":"Feature","geometry":{"type":"Point","coordinates":[141.074,41.747]},"properties":{"Name":"尻岸内会館","Jusho":"北海道函館市大澗町146-2","kouzui":"×","gake":"○","takashio":"×","jishin":"○","tsunami":"○","kaji":"×","naisui":"×","kazan":"×"}}
,{"type":"Feature","geometry":{"type":"Point","coordinates":[141.074,41.746]},"properties":{"Name":"尻岸内八幡神社","Jusho":"北海道函館市大澗町194","kouzui":"×","gake":"○","takashio":"×","jishin":"×","tsunami":"○","kaji":"×","naisui":"×","kazan":"×"}}
,{"type":"Feature","geometry":{"type":"Point","coordinates":[140.725,41.771]},"properties":{"Name":"東横ＩＮＮ函館駅前朝市","Jusho":"北海道函館市大手町22-7","kouzui":"×","gake":"×","takashio":"×","jishin":"×","tsunami":"○","kaji":"×","naisui":"×","kazan":"×"}}
,{"type":"Feature","geometry":{"type":"Point","coordinates":[140.723,41.77]},"properties":{"Name":"函館国際ホテル","Jusho":"北海道函館市大手町5-10","kouzui":"×","gake":"×","takashio":"×","jishin":"×","tsunami":"○","kaji":"×","naisui":"×","kazan":"×"}}
,{"type":"Feature","geometry":{"type":"Point","coordinates":[140.733,41.769]},"properties":{"Name":"ホテル函館ロイヤルシーサイド","Jusho":"北海道函館市大森町16-9","kouzui":"×","gake":"×","takashio":"×","jishin":"×","tsunami":"○","kaji":"×","naisui":"×","kazan":"×"}}
,{"type":"Feature","geometry":{"type":"Point","coordinates":[140.736,41.77]},"properties":{"Name":"ホテルグローバルビュー函館","Jusho":"北海道函館市大森町25-3","kouzui":"×","gake":"×","takashio":"×","jishin":"×","tsunami":"○","kaji":"×","naisui":"×","kazan":"×"}}
,{"type":"Feature","geometry":{"type":"Point","coordinates":[140.733,41.767]},"properties":{"Name":"あさひ小学校","Jusho":"北海道函館市大森町6-11","kouzui":"×","gake":"×","takashio":"×","jishin":"○","tsunami":"○","kaji":"×","naisui":"×","kazan":"×"}}
,{"type":"Feature","geometry":{"type":"Point","coordinates":[140.739,41.797]},"properties":{"Name":"函館開発建設部","Jusho":"北海道函館市大川町1-27","kouzui":"×","gake":"×","takashio":"×","jishin":"×","tsunami":"○","kaji":"×","naisui":"×","kazan":"×"}}
,{"type":"Feature","geometry":{"type":"Point","coordinates":[140.741,41.798]},"properties":{"Name":"大川公園","Jusho":"北海道函館市大川町11","kouzui":"×","gake":"×","takashio":"×","jishin":"○","tsunami":"×","kaji":"×","naisui":"×","kazan":"×"}}
,{"type":"Feature","geometry":{"type":"Point","coordinates":[140.918,41.965]},"properties":{"Name":"大船町２３９番地裏　高台（市道大船高台１号線）","Jusho":"北海道函館市大船町239","kouzui":"×","gake":"×","takashio":"×","jishin":"×","tsunami":"○","kaji":"×","naisui":"×","kazan":"×"}}
,{"type":"Feature","geometry":{"type":"Point","coordinates":[140.908,41.971]},"properties":{"Name":"大船町３８１番地裏　高台（緑地広場）","Jusho":"北海道函館市大船町388","kouzui":"×","gake":"×","takashio":"×","jishin":"×","tsunami":"○","kaji":"×","naisui":"×","kazan":"×"}}
,{"type":"Feature","geometry":{"type":"Point","coordinates":[140.909,41.969]},"properties":{"Name":"緑地広場","Jusho":"北海道函館市大船町388-76","kouzui":"×","gake":"×","takashio":"×","jishin":"○","tsunami":"○","kaji":"×","naisui":"×","kazan":"×"}}
,{"type":"Feature","geometry":{"type":"Point","coordinates":[140.913,41.937]},"properties":{"Name":"南かやべ保養センター","Jusho":"北海道函館市大船町832-1","kouzui":"×","gake":"×","takashio":"×","jishin":"○","tsunami":"○","kaji":"×","naisui":"×","kazan":"×"}}
,{"type":"Feature","geometry":{"type":"Point","coordinates":[140.734,41.783]},"properties":{"Name":"北星小学校","Jusho":"北海道函館市大縄町24-26","kouzui":"×","gake":"×","takashio":"×","jishin":"○","tsunami":"○","kaji":"×","naisui":"×","kazan":"×"}}
,{"type":"Feature","geometry":{"type":"Point","coordinates":[140.711,41.751]},"properties":{"Name":"青少年研修センター","Jusho":"北海道函館市谷地頭町5-14","kouzui":"×","gake":"×","takashio":"×","jishin":"○","tsunami":"○","kaji":"×","naisui":"×","kazan":"×"}}
,{"type":"Feature","geometry":{"type":"Point","coordinates":[140.766,41.812]},"properties":{"Name":"鍛神小学校","Jusho":"北海道函館市鍛治2-46-4","kouzui":"○","gake":"○","takashio":"×","jishin":"○","tsunami":"×","kaji":"×","naisui":"×","kazan":"×"}}
,{"type":"Feature","geometry":{"type":"Point","coordinates":[140.743,41.785]},"properties":{"Name":"中島小学校","Jusho":"北海道函館市中島町30-5","kouzui":"×","gake":"×","takashio":"×","jishin":"○","tsunami":"○","kaji":"×","naisui":"×","kazan":"×"}}
,{"type":"Feature","geometry":{"type":"Point","coordinates":[141.076,41.754]},"properties":{"Name":"中浜会館","Jusho":"北海道函館市中浜町101-5","kouzui":"×","gake":"○","takashio":"×","jishin":"○","tsunami":"×","kaji":"×","naisui":"×","kazan":"×"}}
,{"type":"Feature","geometry":{"type":"Point","coordinates":[141.074,41.756]},"properties":{"Name":"中浜町１１３番地裏高台","Jusho":"北海道函館市中浜町113","kouzui":"×","gake":"×","takashio":"×","jishin":"×","tsunami":"○","kaji":"×","naisui":"×","kazan":"×"}}
,{"type":"Feature","geometry":{"type":"Point","coordinates":[141.077,41.758]},"properties":{"Name":"えさん小学校","Jusho":"北海道函館市中浜町79","kouzui":"×","gake":"○","takashio":"×","jishin":"○","tsunami":"×","kaji":"×","naisui":"×","kazan":"○"}}
,{"type":"Feature","geometry":{"type":"Point","coordinates":[141.139,41.842]},"properties":{"Name":"銚子町９４番地裏　高台","Jusho":"北海道函館市銚子町94","kouzui":"×","gake":"×","takashio":"×","jishin":"×","tsunami":"○","kaji":"×","naisui":"×","kazan":"×"}}
,{"type":"Feature","geometry":{"type":"Point","coordinates":[140.885,41.767]},"properties":{"Name":"鶴野町会館","Jusho":"北海道函館市鶴野町319-2","kouzui":"×","gake":"×","takashio":"×","jishin":"○","tsunami":"×","kaji":"×","naisui":"×","kazan":"×"}}
,{"type":"Feature","geometry":{"type":"Point","coordinates":[140.752,41.78]},"properties":{"Name":"巴中学校","Jusho":"北海道函館市的場町12-7","kouzui":"×","gake":"×","takashio":"×","jishin":"○","tsunami":"○","kaji":"×","naisui":"×","kazan":"×"}}
,{"type":"Feature","geometry":{"type":"Point","coordinates":[140.729,41.769]},"properties":{"Name":"函館市役所","Jusho":"北海道函館市東雲町4-13","kouzui":"×","gake":"×","takashio":"×","jishin":"○","tsunami":"○","kaji":"×","naisui":"×","kazan":"×"}}
,{"type":"Feature","geometry":{"type":"Point","coordinates":[140.773,41.806]},"properties":{"Name":"東山小学校","Jusho":"北海道函館市東山2-3-1","kouzui":"○","gake":"○","takashio":"×","jishin":"○","tsunami":"×","kaji":"×","naisui":"×","kazan":"×"}}
,{"type":"Feature","geometry":{"type":"Point","coordinates":[140.775,41.814]},"properties":{"Name":"東山墓園","Jusho":"北海道函館市東山町114","kouzui":"×","gake":"○","takashio":"×","jishin":"○","tsunami":"×","kaji":"×","naisui":"×","kazan":"×"}}
,{"type":"Feature","geometry":{"type":"Point","coordinates":[140.722,41.763]},"properties":{"Name":"道営住宅高田屋通団地１号棟","Jusho":"北海道函館市東川町11-14","kouzui":"×","gake":"×","takashio":"×","jishin":"×","tsunami":"○","kaji":"×","naisui":"×","kazan":"×"}}
,{"type":"Feature","geometry":{"type":"Point","coordinates":[140.726,41.762]},"properties":{"Name":"道営住宅であえーる大森浜団地Ａ棟","Jusho":"北海道函館市東川町18-1","kouzui":"×","gake":"×","takashio":"×","jishin":"×","tsunami":"○","kaji":"×","naisui":"×","kazan":"×"}}
,{"type":"Feature","geometry":{"type":"Point","coordinates":[140.727,41.762]},"properties":{"Name":"道営住宅であえーる大森浜団地Ｂ棟","Jusho":"北海道函館市東川町18-2","kouzui":"×","gake":"×","takashio":"×","jishin":"×","tsunami":"○","kaji":"×","naisui":"×","kazan":"×"}}
,{"type":"Feature","geometry":{"type":"Point","coordinates":[140.784,41.779]},"properties":{"Name":"望楼ＮＯＧＵＣＨＩ函館","Jusho":"北海道函館市湯川町1-17-22","kouzui":"×","gake":"×","takashio":"×","jishin":"×","tsunami":"○","kaji":"×","naisui":"×","kazan":"×"}}
,{"type":"Feature","geometry":{"type":"Point","coordinates":[140.783,41.779]},"properties":{"Name":"函館湯の川温泉　湯元啄木亭","Jusho":"北海道函館市湯川町1-18-15","kouzui":"×","gake":"×","takashio":"×","jishin":"×","tsunami":"○","kaji":"×","naisui":"×","kazan":"×"}}
,{"type":"Feature","geometry":{"type":"Point","coordinates":[140.786,41.775]},"properties":{"Name":"函館湯の川　平成館海羊亭","Jusho":"北海道函館市湯川町1-3-8","kouzui":"×","gake":"×","takashio":"×","jishin":"×","tsunami":"○","kaji":"×","naisui":"×","kazan":"×"}}
,{"type":"Feature","geometry":{"type":"Point","coordinates":[140.784,41.783]},"properties":{"Name":"函館市民会館","Jusho":"北海道函館市湯川町1-32-1","kouzui":"○","gake":"○","takashio":"×","jishin":"○","tsunami":"○","kaji":"×","naisui":"×","kazan":"×"}}
,{"type":"Feature","geometry":{"type":"Point","coordinates":[140.783,41.782]},"properties":{"Name":"函館アリーナ","Jusho":"北海道函館市湯川町1-32-2","kouzui":"○","gake":"○","takashio":"×","jishin":"○","tsunami":"○","kaji":"×","naisui":"×","kazan":"×"}}
,{"type":"Feature","geometry":{"type":"Point","coordinates":[140.786,41.783]},"properties":{"Name":"坂の上公園","Jusho":"北海道函館市湯川町2-33","kouzui":"○","gake":"×","takashio":"×","jishin":"○","tsunami":"○","kaji":"×","naisui":"×","kazan":"×"}}
,{"type":"Feature","geometry":{"type":"Point","coordinates":[140.788,41.784]},"properties":{"Name":"湯川中学校","Jusho":"北海道函館市湯川町2-41-1","kouzui":"○","gake":"○","takashio":"×","jishin":"○","tsunami":"○","kaji":"×","naisui":"×","kazan":"×"}}
,{"type":"Feature","geometry":{"type":"Point","coordinates":[140.786,41.786]},"properties":{"Name":"函館大学付属有斗高等学校","Jusho":"北海道函館市湯川町2-43-1","kouzui":"○","gake":"○","takashio":"×","jishin":"○","tsunami":"○","kaji":"×","naisui":"×","kazan":"×"}}
,{"type":"Feature","geometry":{"type":"Point","coordinates":[140.791,41.774]},"properties":{"Name":"イマジンホテル＆リゾート函館","Jusho":"北海道函館市湯川町3-1-17","kouzui":"×","gake":"×","takashio":"×","jishin":"×","tsunami":"○","kaji":"×","naisui":"×","kazan":"×"}}
,{"type":"Feature","geometry":{"type":"Point","coordinates":[140.797,41.78]},"properties":{"Name":"湯川小学校","Jusho":"北海道函館市湯川町3-42-1","kouzui":"○","gake":"○","takashio":"×","jishin":"○","tsunami":"○","kaji":"×","naisui":"×","kazan":"×"}}
,{"type":"Feature","geometry":{"type":"Point","coordinates":[140.79,41.775]},"properties":{"Name":"函館湯の川温泉海と灯","Jusho":"北海道函館市湯川町3-9-20","kouzui":"×","gake":"×","takashio":"×","jishin":"×","tsunami":"○","kaji":"×","naisui":"×","kazan":"×"}}
,{"type":"Feature","geometry":{"type":"Point","coordinates":[141.106,41.785]},"properties":{"Name":"恵山コミュニティセンター","Jusho":"北海道函館市日ノ浜町154","kouzui":"×","gake":"○","takashio":"×","jishin":"○","tsunami":"×","kaji":"×","naisui":"×","kazan":"○"}}
,{"type":"Feature","geometry":{"type":"Point","coordinates":[141.051,41.734]},"properties":{"Name":"日浦会館","Jusho":"北海道函館市日浦町82","kouzui":"×","gake":"×","takashio":"×","jishin":"○","tsunami":"×","kaji":"×","naisui":"×","kazan":"×"}}
,{"type":"Feature","geometry":{"type":"Point","coordinates":[141.05,41.734]},"properties":{"Name":"日浦町９０番地裏　高台　（退避スペース）","Jusho":"北海道函館市日浦町90","kouzui":"×","gake":"×","takashio":"×","jishin":"×","tsunami":"○","kaji":"×","naisui":"×","kazan":"×"}}
,{"type":"Feature","geometry":{"type":"Point","coordinates":[140.787,41.794]},"properties":{"Name":"日吉が丘小学校","Jusho":"北海道函館市日吉町2-34-1","kouzui":"○","gake":"○","takashio":"×","jishin":"○","tsunami":"×","kaji":"×","naisui":"×","kazan":"×"}}
,{"type":"Feature","geometry":{"type":"Point","coordinates":[140.793,41.8]},"properties":{"Name":"北日吉小学校","Jusho":"北海道函館市日吉町4-5-5","kouzui":"○","gake":"○","takashio":"×","jishin":"○","tsunami":"×","kaji":"×","naisui":"×","kazan":"×"}}
,{"type":"Feature","geometry":{"type":"Point","coordinates":[140.794,41.805]},"properties":{"Name":"日吉公園","Jusho":"北海道函館市日吉町4-8","kouzui":"×","gake":"○","takashio":"×","jishin":"○","tsunami":"×","kaji":"×","naisui":"×","kazan":"×"}}
,{"type":"Feature","geometry":{"type":"Point","coordinates":[140.754,41.775]},"properties":{"Name":"日之出改良団地","Jusho":"北海道函館市日乃出町22-1","kouzui":"×","gake":"×","takashio":"×","jishin":"×","tsunami":"○","kaji":"×","naisui":"×","kazan":"×"}}
,{"type":"Feature","geometry":{"type":"Point","coordinates":[140.764,41.786]},"properties":{"Name":"函館大学付属柏稜高等学校","Jusho":"北海道函館市柏木町1-34","kouzui":"×","gake":"×","takashio":"×","jishin":"○","tsunami":"○","kaji":"×","naisui":"×","kazan":"×"}}
,{"type":"Feature","geometry":{"type":"Point","coordinates":[141.154,41.79]},"properties":{"Name":"恵山市民センター","Jusho":"北海道函館市柏野町117-209","kouzui":"×","gake":"×","takashio":"×","jishin":"×","tsunami":"○","kaji":"×","naisui":"×","kazan":"×"}}
,{"type":"Feature","geometry":{"type":"Point","coordinates":[141.141,41.787]},"properties":{"Name":"恵山中学校","Jusho":"北海道函館市柏野町9","kouzui":"×","gake":"○","takashio":"×","jishin":"○","tsunami":"○","kaji":"×","naisui":"×","kazan":"○"}}
,{"type":"Feature","geometry":{"type":"Point","coordinates":[141.004,41.716]},"properties":{"Name":"もと日新中学校グラウンド","Jusho":"北海道函館市泊町126","kouzui":"×","gake":"×","takashio":"×","jishin":"×","tsunami":"○","kaji":"×","naisui":"×","kazan":"×"}}
,{"type":"Feature","geometry":{"type":"Point","coordinates":[141.001,41.715]},"properties":{"Name":"泊町１６番地裏　高台　（市道泊・館町線）","Jusho":"北海道函館市泊町16","kouzui":"×","gake":"×","takashio":"×","jishin":"×","tsunami":"○","kaji":"×","naisui":"×","kazan":"×"}}
,{"type":"Feature","geometry":{"type":"Point","coordinates":[140.901,41.757]},"properties":{"Name":"白石公園","Jusho":"北海道函館市白石町208","kouzui":"×","gake":"×","takashio":"×","jishin":"○","tsunami":"○","kaji":"×","naisui":"×","kazan":"×"}}
,{"type":"Feature","geometry":{"type":"Point","coordinates":[140.741,41.793]},"properties":{"Name":"北海道教育大学函館校","Jusho":"北海道函館市八幡町1-2","kouzui":"×","gake":"×","takashio":"×","jishin":"×","tsunami":"○","kaji":"×","naisui":"×","kazan":"×"}}
,{"type":"Feature","geometry":{"type":"Point","coordinates":[140.737,41.794]},"properties":{"Name":"八幡小学校","Jusho":"北海道函館市八幡町15-30","kouzui":"×","gake":"×","takashio":"×","jishin":"○","tsunami":"○","kaji":"×","naisui":"×","kazan":"×"}}
,{"type":"Feature","geometry":{"type":"Point","coordinates":[141.032,41.894]},"properties":{"Name":"尾札部町１１９番地裏　高台　（見日林道）","Jusho":"北海道函館市尾札部町119","kouzui":"×","gake":"×","takashio":"×","jishin":"×","tsunami":"○","kaji":"×","naisui":"×","kazan":"×"}}
,{"type":"Feature","geometry":{"type":"Point","coordinates":[140.994,41.897]},"properties":{"Name":"南茅部プール","Jusho":"北海道函館市尾札部町1608-1","kouzui":"×","gake":"○","takashio":"×","jishin":"○","tsunami":"○","kaji":"×","naisui":"×","kazan":"×"}}
,{"type":"Feature","geometry":{"type":"Point","coordinates":[140.995,41.896]},"properties":{"Name":"南茅部小学校","Jusho":"北海道函館市尾札部町1609-1","kouzui":"×","gake":"○","takashio":"×","jishin":"○","tsunami":"○","kaji":"×","naisui":"×","kazan":"○"}}
,{"type":"Feature","geometry":{"type":"Point","coordinates":[141.022,41.888]},"properties":{"Name":"尾札部中学校（体育館）","Jusho":"北海道函館市尾札部町2023","kouzui":"×","gake":"○","takashio":"×","jishin":"○","tsunami":"×","kaji":"×","naisui":"×","kazan":"○"}}
,{"type":"Feature","geometry":{"type":"Point","coordinates":[141.04,41.893]},"properties":{"Name":"尾札部町２８番地裏　高台　（見日林道）","Jusho":"北海道函館市尾札部町28","kouzui":"×","gake":"×","takashio":"×","jishin":"×","tsunami":"○","kaji":"×","naisui":"×","kazan":"×"}}
,{"type":"Feature","geometry":{"type":"Point","coordinates":[140.752,41.815]},"properties":{"Name":"函館市亀田交流プラザ","Jusho":"北海道函館市美原1-26-12","kouzui":"×","gake":"×","takashio":"×","jishin":"○","tsunami":"×","kaji":"×","naisui":"×","kazan":"×"}}
,{"type":"Feature","geometry":{"type":"Point","coordinates":[140.76,41.816]},"properties":{"Name":"中央小学校","Jusho":"北海道函館市美原2-28-1","kouzui":"×","gake":"×","takashio":"×","jishin":"○","tsunami":"×","kaji":"×","naisui":"×","kazan":"×"}}
,{"type":"Feature","geometry":{"type":"Point","coordinates":[140.747,41.819]},"properties":{"Name":"亀田中学校","Jusho":"北海道函館市美原3-30-3","kouzui":"×","gake":"×","takashio":"×","jishin":"○","tsunami":"×","kaji":"×","naisui":"×","kazan":"×"}}
,{"type":"Feature","geometry":{"type":"Point","coordinates":[141.013,41.723]},"properties":{"Name":"戸井生涯学習センター","Jusho":"北海道函館市浜町366-1","kouzui":"×","gake":"○","takashio":"×","jishin":"○","tsunami":"×","kaji":"×","naisui":"×","kazan":"×"}}
,{"type":"Feature","geometry":{"type":"Point","coordinates":[141.008,41.721]},"properties":{"Name":"宮川神社境内","Jusho":"北海道函館市浜町630","kouzui":"×","gake":"×","takashio":"×","jishin":"○","tsunami":"○","kaji":"×","naisui":"×","kazan":"×"}}
,{"type":"Feature","geometry":{"type":"Point","coordinates":[141.152,41.827]},"properties":{"Name":"富浦町１２６番地裏　高台　（退避スペース）","Jusho":"北海道函館市富浦町126","kouzui":"×","gake":"×","takashio":"×","jishin":"×","tsunami":"○","kaji":"×","naisui":"×","kazan":"×"}}
,{"type":"Feature","geometry":{"type":"Point","coordinates":[140.743,41.801]},"properties":{"Name":"亀田小学校","Jusho":"北海道函館市富岡町1-18-1","kouzui":"×","gake":"○","takashio":"×","jishin":"○","tsunami":"○","kaji":"×","naisui":"×","kazan":"×"}}
,{"type":"Feature","geometry":{"type":"Point","coordinates":[140.742,41.803]},"properties":{"Name":"五稜郭中学校","Jusho":"北海道函館市富岡町1-18-2","kouzui":"×","gake":"○","takashio":"×","jishin":"○","tsunami":"○","kaji":"×","naisui":"×","kazan":"×"}}
,{"type":"Feature","geometry":{"type":"Point","coordinates":[140.746,41.811]},"properties":{"Name":"富岡中央公園","Jusho":"北海道函館市富岡町1-64","kouzui":"×","gake":"×","takashio":"×","jishin":"○","tsunami":"×","kaji":"×","naisui":"×","kazan":"×"}}
,{"type":"Feature","geometry":{"type":"Point","coordinates":[140.749,41.811]},"properties":{"Name":"東富岡会館","Jusho":"北海道函館市富岡町2-46-7","kouzui":"○","gake":"×","takashio":"×","jishin":"○","tsunami":"×","kaji":"×","naisui":"×","kazan":"×"}}
,{"type":"Feature","geometry":{"type":"Point","coordinates":[140.99,41.719]},"properties":{"Name":"弁才町３番地裏高台","Jusho":"北海道函館市弁才町3","kouzui":"×","gake":"×","takashio":"×","jishin":"×","tsunami":"○","kaji":"×","naisui":"×","kazan":"×"}}
,{"type":"Feature","geometry":{"type":"Point","coordinates":[141.071,41.742]},"properties":{"Name":"豊浦町１８番地裏　高台　（市道豊浦線）","Jusho":"北海道函館市豊浦町18","kouzui":"×","gake":"×","takashio":"×","jishin":"×","tsunami":"○","kaji":"×","naisui":"×","kazan":"×"}}
,{"type":"Feature","geometry":{"type":"Point","coordinates":[141.071,41.744]},"properties":{"Name":"高岸寺","Jusho":"北海道函館市豊浦町208","kouzui":"×","gake":"×","takashio":"×","jishin":"×","tsunami":"○","kaji":"×","naisui":"×","kazan":"×"}}
,{"type":"Feature","geometry":{"type":"Point","coordinates":[140.863,41.767]},"properties":{"Name":"銭亀沢中学校","Jusho":"北海道函館市豊原町140-30","kouzui":"×","gake":"○","takashio":"×","jishin":"○","tsunami":"○","kaji":"×","naisui":"×","kazan":"×"}}
,{"type":"Feature","geometry":{"type":"Point","coordinates":[140.926,41.954]},"properties":{"Name":"臼尻中学校（校舎）","Jusho":"北海道函館市豊崎町205","kouzui":"×","gake":"×","takashio":"×","jishin":"○","tsunami":"○","kaji":"×","naisui":"×","kazan":"×"}}
,{"type":"Feature","geometry":{"type":"Point","coordinates":[140.934,41.94]},"properties":{"Name":"豊崎町７９番地裏　高台　（退避スペース）","Jusho":"北海道函館市豊崎町258","kouzui":"×","gake":"×","takashio":"×","jishin":"×","tsunami":"○","kaji":"×","naisui":"×","kazan":"×"}}
,{"type":"Feature","geometry":{"type":"Point","coordinates":[140.719,41.768]},"properties":{"Name":"ラビスタ函館ベイ","Jusho":"北海道函館市豊川町12-6","kouzui":"×","gake":"×","takashio":"×","jishin":"×","tsunami":"○","kaji":"×","naisui":"×","kazan":"×"}}
,{"type":"Feature","geometry":{"type":"Point","coordinates":[140.722,41.766]},"properties":{"Name":"メゾン・プレジデント","Jusho":"北海道函館市豊川町16-5","kouzui":"×","gake":"×","takashio":"×","jishin":"×","tsunami":"○","kaji":"×","naisui":"×","kazan":"×"}}
,{"type":"Feature","geometry":{"type":"Point","coordinates":[140.721,41.764]},"properties":{"Name":"市営豊川改良団地","Jusho":"北海道函館市豊川町3-1","kouzui":"×","gake":"×","takashio":"×","jishin":"×","tsunami":"○","kaji":"×","naisui":"×","kazan":"×"}}
,{"type":"Feature","geometry":{"type":"Point","coordinates":[140.721,41.764]},"properties":{"Name":"市営豊川特定公共賃貸住宅","Jusho":"北海道函館市豊川町3-8","kouzui":"×","gake":"×","takashio":"×","jishin":"×","tsunami":"○","kaji":"×","naisui":"×","kazan":"×"}}
,{"type":"Feature","geometry":{"type":"Point","coordinates":[140.72,41.765]},"properties":{"Name":"豊川コモンズ","Jusho":"北海道函館市豊川町7-24","kouzui":"×","gake":"×","takashio":"×","jishin":"×","tsunami":"○","kaji":"×","naisui":"×","kazan":"×"}}
,{"type":"Feature","geometry":{"type":"Point","coordinates":[140.749,41.826]},"properties":{"Name":"北美原小学校","Jusho":"北海道函館市北美原1-9-16","kouzui":"○","gake":"×","takashio":"×","jishin":"○","tsunami":"×","kaji":"×","naisui":"×","kazan":"×"}}
,{"type":"Feature","geometry":{"type":"Point","coordinates":[140.727,41.798]},"properties":{"Name":"下宿喜多家","Jusho":"北海道函館市北浜町7-17","kouzui":"×","gake":"×","takashio":"×","jishin":"×","tsunami":"○","kaji":"×","naisui":"×","kazan":"×"}}
,{"type":"Feature","geometry":{"type":"Point","coordinates":[140.765,41.799]},"properties":{"Name":"本通小学校","Jusho":"北海道函館市本通1-47-2","kouzui":"○","gake":"×","takashio":"×","jishin":"○","tsunami":"×","kaji":"×","naisui":"×","kazan":"×"}}
,{"type":"Feature","geometry":{"type":"Point","coordinates":[140.768,41.804]},"properties":{"Name":"本通中学校","Jusho":"北海道函館市本通2-56-7","kouzui":"○","gake":"×","takashio":"×","jishin":"○","tsunami":"×","kaji":"×","naisui":"×","kazan":"×"}}
,{"type":"Feature","geometry":{"type":"Point","coordinates":[140.773,41.795]},"properties":{"Name":"南本通小学校","Jusho":"北海道函館市本通3-10-1","kouzui":"○","gake":"×","takashio":"×","jishin":"○","tsunami":"×","kaji":"×","naisui":"×","kazan":"×"}}
,{"type":"Feature","geometry":{"type":"Point","coordinates":[140.85,41.825]},"properties":{"Name":"鱒川小・中学校","Jusho":"北海道函館市鱒川町91","kouzui":"○","gake":"○","takashio":"×","jishin":"○","tsunami":"×","kaji":"×","naisui":"×","kazan":"×"}}
,{"type":"Feature","geometry":{"type":"Point","coordinates":[140.717,41.763]},"properties":{"Name":"ヴィラコンコルディア","Jusho":"北海道函館市末広町3-5","kouzui":"×","gake":"×","takashio":"×","jishin":"×","tsunami":"○","kaji":"×","naisui":"×","kazan":"×"}}
,{"type":"Feature","geometry":{"type":"Point","coordinates":[140.718,41.764]},"properties":{"Name":"アクロス十字街","Jusho":"北海道函館市末広町5-14","kouzui":"×","gake":"×","takashio":"×","jishin":"○","tsunami":"○","kaji":"×","naisui":"×","kazan":"×"}}
,{"type":"Feature","geometry":{"type":"Point","coordinates":[140.732,41.785]},"properties":{"Name":"シャトーム万代町","Jusho":"北海道函館市万代町1-1","kouzui":"×","gake":"×","takashio":"×","jishin":"×","tsunami":"○","kaji":"×","naisui":"×","kazan":"×"}}
,{"type":"Feature","geometry":{"type":"Point","coordinates":[140.731,41.789]},"properties":{"Name":"ハイツチャフル","Jusho":"北海道函館市万代町11-1","kouzui":"×","gake":"×","takashio":"×","jishin":"×","tsunami":"○","kaji":"×","naisui":"×","kazan":"×"}}
,{"type":"Feature","geometry":{"type":"Point","coordinates":[140.733,41.789]},"properties":{"Name":"真宗大谷派萬年寺","Jusho":"北海道函館市万代町7-22","kouzui":"×","gake":"×","takashio":"×","jishin":"×","tsunami":"○","kaji":"×","naisui":"×","kazan":"×"}}
,{"type":"Feature","geometry":{"type":"Point","coordinates":[140.732,41.79]},"properties":{"Name":"北海道ガス株式会社函館支店","Jusho":"北海道函館市万代町8-1","kouzui":"×","gake":"×","takashio":"×","jishin":"×","tsunami":"○","kaji":"×","naisui":"×","kazan":"×"}}
,{"type":"Feature","geometry":{"type":"Point","coordinates":[141.067,41.879]},"properties":{"Name":"もと木直小学校グラウンド","Jusho":"北海道函館市木直町991","kouzui":"×","gake":"×","takashio":"×","jishin":"×","tsunami":"○","kaji":"×","naisui":"×","kazan":"×"}}
,{"type":"Feature","geometry":{"type":"Point","coordinates":[140.708,41.769]},"properties":{"Name":"弥生小学校","Jusho":"北海道函館市弥生町4-16","kouzui":"×","gake":"○","takashio":"×","jishin":"○","tsunami":"○","kaji":"×","naisui":"×","kazan":"×"}}
,{"type":"Feature","geometry":{"type":"Point","coordinates":[140.762,41.795]},"properties":{"Name":"函館高等学校","Jusho":"北海道函館市柳町11-5","kouzui":"○","gake":"×","takashio":"×","jishin":"○","tsunami":"×","kaji":"×","naisui":"×","kazan":"×"}}
,{"type":"Feature","geometry":{"type":"Point","coordinates":[140.748,41.792]},"properties":{"Name":"千代田小学校","Jusho":"北海道函館市梁川町23-4","kouzui":"×","gake":"×","takashio":"×","jishin":"○","tsunami":"○","kaji":"×","naisui":"×","kazan":"×"}}
,{"type":"Feature","geometry":{"type":"Point","coordinates":[140.748,41.793]},"properties":{"Name":"梁川公園","Jusho":"北海道函館市梁川町24","kouzui":"○","gake":"×","takashio":"×","jishin":"○","tsunami":"○","kaji":"×","naisui":"×","kazan":"×"}}
,{"type":"Feature","geometry":{"type":"Point","coordinates":[140.994,43.203]},"properties":{"Name":"いなきたコミュニティセンター駐車場","Jusho":"北海道小樽市稲穂5-10-1","kouzui":"×","gake":"○","takashio":"×","jishin":"○","tsunami":"○","kaji":"×","naisui":"×","kazan":"×"}}
,{"type":"Feature","geometry":{"type":"Point","coordinates":[140.929,43.207]},"properties":{"Name":"塩谷小学校グラウンド","Jusho":"北海道小樽市塩谷2-18-1","kouzui":"○","gake":"○","takashio":"×","jishin":"○","tsunami":"○","kaji":"×","naisui":"×","kazan":"×"}}
,{"type":"Feature","geometry":{"type":"Point","coordinates":[141.001,43.178]},"properties":{"Name":"奥沢小学校グラウンド","Jusho":"北海道小樽市奥沢2-5-1","kouzui":"○","gake":"×","takashio":"×","jishin":"○","tsunami":"×","kaji":"×","naisui":"×","kazan":"×"}}
,{"type":"Feature","geometry":{"type":"Point","coordinates":[140.989,43.185]},"properties":{"Name":"山の手小学校グラウンド","Jusho":"北海道小樽市花園5-2-20","kouzui":"×","gake":"○","takashio":"×","jishin":"○","tsunami":"×","kaji":"×","naisui":"×","kazan":"×"}}
,{"type":"Feature","geometry":{"type":"Point","coordinates":[140.991,43.187]},"properties":{"Name":"小樽公園花園グラウンド","Jusho":"北海道小樽市花園5-3","kouzui":"×","gake":"×","takashio":"×","jishin":"×","tsunami":"×","kaji":"○","naisui":"×","kazan":"×"}}
,{"type":"Feature","geometry":{"type":"Point","coordinates":[140.995,43.188]},"properties":{"Name":"花園小学校グラウンド","Jusho":"北海道小樽市花園5-4-1","kouzui":"○","gake":"○","takashio":"×","jishin":"○","tsunami":"×","kaji":"×","naisui":"×","kazan":"×"}}
,{"type":"Feature","geometry":{"type":"Point","coordinates":[140.996,43.187]},"properties":{"Name":"菁園中学校グラウンド","Jusho":"北海道小樽市花園5-4-2","kouzui":"○","gake":"○","takashio":"×","jishin":"○","tsunami":"×","kaji":"×","naisui":"×","kazan":"×"}}
,{"type":"Feature","geometry":{"type":"Point","coordinates":[141.141,43.137]},"properties":{"Name":"桂岡小学校グラウンド","Jusho":"北海道小樽市桂岡町23-1","kouzui":"×","gake":"○","takashio":"×","jishin":"○","tsunami":"×","kaji":"×","naisui":"×","kazan":"×"}}
,{"type":"Feature","geometry":{"type":"Point","coordinates":[141.155,43.14]},"properties":{"Name":"銭函中学校グラウンド","Jusho":"北海道小樽市見晴町2-12","kouzui":"○","gake":"○","takashio":"×","jishin":"○","tsunami":"○","kaji":"×","naisui":"×","kazan":"×"}}
,{"type":"Feature","geometry":{"type":"Point","coordinates":[141.159,43.139]},"properties":{"Name":"銭函小学校グラウンド","Jusho":"北海道小樽市見晴町5-2","kouzui":"○","gake":"○","takashio":"×","jishin":"○","tsunami":"○","kaji":"×","naisui":"×","kazan":"×"}}
,{"type":"Feature","geometry":{"type":"Point","coordinates":[140.965,43.22]},"properties":{"Name":"幸小学校グラウンド","Jusho":"北海道小樽市幸4-21-1","kouzui":"×","gake":"○","takashio":"×","jishin":"○","tsunami":"×","kaji":"×","naisui":"×","kazan":"×"}}
,{"type":"Feature","geometry":{"type":"Point","coordinates":[140.999,43.225]},"properties":{"Name":"高島小学校グラウンド","Jusho":"北海道小樽市高島5-6-1","kouzui":"×","gake":"○","takashio":"×","jishin":"○","tsunami":"○","kaji":"×","naisui":"×","kazan":"×"}}
,{"type":"Feature","geometry":{"type":"Point","coordinates":[140.981,43.18]},"properties":{"Name":"小樽未来創造高等学校グラウンド","Jusho":"北海道小樽市最上1-29-1","kouzui":"×","gake":"○","takashio":"×","jishin":"○","tsunami":"×","kaji":"×","naisui":"×","kazan":"×"}}
,{"type":"Feature","geometry":{"type":"Point","coordinates":[140.979,43.181]},"properties":{"Name":"松ヶ枝中学校グラウンド","Jusho":"北海道小樽市最上1-31-1","kouzui":"×","gake":"○","takashio":"×","jishin":"○","tsunami":"×","kaji":"×","naisui":"×","kazan":"×"}}
,{"type":"Feature","geometry":{"type":"Point","coordinates":[141.033,43.174]},"properties":{"Name":"桜小学校グラウンド","Jusho":"北海道小樽市桜1-16-1","kouzui":"×","gake":"○","takashio":"×","jishin":"○","tsunami":"○","kaji":"×","naisui":"×","kazan":"×"}}
,{"type":"Feature","geometry":{"type":"Point","coordinates":[141.027,43.174]},"properties":{"Name":"桜町中学校グラウンド","Jusho":"北海道小樽市桜1-29-1","kouzui":"×","gake":"○","takashio":"×","jishin":"○","tsunami":"×","kaji":"×","naisui":"×","kazan":"×"}}
,{"type":"Feature","geometry":{"type":"Point","coordinates":[141.024,43.179]},"properties":{"Name":"小樽水産高等学校グラウンド","Jusho":"北海道小樽市若竹町9-1","kouzui":"○","gake":"○","takashio":"×","jishin":"○","tsunami":"○","kaji":"×","naisui":"×","kazan":"×"}}
,{"type":"Feature","geometry":{"type":"Point","coordinates":[141.003,43.215]},"properties":{"Name":"手宮公園陸上競技場","Jusho":"北海道小樽市手宮2-5","kouzui":"×","gake":"×","takashio":"×","jishin":"×","tsunami":"×","kaji":"○","naisui":"×","kazan":"×"}}
,{"type":"Feature","geometry":{"type":"Point","coordinates":[141.006,43.187]},"properties":{"Name":"双葉中学校グラウンド","Jusho":"北海道小樽市住ノ江1-3-3","kouzui":"×","gake":"○","takashio":"×","jishin":"○","tsunami":"○","kaji":"×","naisui":"×","kazan":"×"}}
,{"type":"Feature","geometry":{"type":"Point","coordinates":[141.008,43.232]},"properties":{"Name":"旧祝津小学校グラウンド","Jusho":"北海道小樽市祝津3-64","kouzui":"×","gake":"○","takashio":"×","jishin":"○","tsunami":"○","kaji":"×","naisui":"×","kazan":"×"}}
,{"type":"Feature","geometry":{"type":"Point","coordinates":[141.119,43.152]},"properties":{"Name":"張碓小学校グラウンド","Jusho":"北海道小樽市春香町215","kouzui":"×","gake":"×","takashio":"×","jishin":"○","tsunami":"×","kaji":"×","naisui":"×","kazan":"×"}}
,{"type":"Feature","geometry":{"type":"Point","coordinates":[141.057,43.174]},"properties":{"Name":"朝里小学校グラウンド","Jusho":"北海道小樽市新光2-6-1","kouzui":"○","gake":"○","takashio":"×","jishin":"○","tsunami":"○","kaji":"×","naisui":"×","kazan":"×"}}
,{"type":"Feature","geometry":{"type":"Point","coordinates":[141.06,43.172]},"properties":{"Name":"朝里中学校グラウンド","Jusho":"北海道小樽市新光3-7-1","kouzui":"○","gake":"○","takashio":"×","jishin":"○","tsunami":"○","kaji":"×","naisui":"×","kazan":"×"}}
,{"type":"Feature","geometry":{"type":"Point","coordinates":[141.014,43.182]},"properties":{"Name":"潮見台小学校グラウンド","Jusho":"北海道小樽市新富町9-13","kouzui":"○","gake":"○","takashio":"×","jishin":"○","tsunami":"○","kaji":"×","naisui":"×","kazan":"×"}}
,{"type":"Feature","geometry":{"type":"Point","coordinates":[140.99,43.213]},"properties":{"Name":"北陵中学校グラウンド","Jusho":"北海道小樽市清水町5-1","kouzui":"×","gake":"×","takashio":"×","jishin":"○","tsunami":"×","kaji":"×","naisui":"×","kazan":"×"}}
,{"type":"Feature","geometry":{"type":"Point","coordinates":[141.146,43.148]},"properties":{"Name":"北海道高等聾学校グラウンド","Jusho":"北海道小樽市銭函1-5-1","kouzui":"×","gake":"○","takashio":"×","jishin":"○","tsunami":"×","kaji":"×","naisui":"×","kazan":"×"}}
,{"type":"Feature","geometry":{"type":"Point","coordinates":[141.161,43.14]},"properties":{"Name":"銭函公園","Jusho":"北海道小樽市銭函2-24","kouzui":"○","gake":"○","takashio":"×","jishin":"○","tsunami":"○","kaji":"×","naisui":"×","kazan":"×"}}
,{"type":"Feature","geometry":{"type":"Point","coordinates":[141.166,43.139]},"properties":{"Name":"しらゆり公園","Jusho":"北海道小樽市銭函2-28","kouzui":"○","gake":"○","takashio":"×","jishin":"○","tsunami":"○","kaji":"×","naisui":"×","kazan":"×"}}
,{"type":"Feature","geometry":{"type":"Point","coordinates":[141.04,43.155]},"properties":{"Name":"障がい者支援施設　朝里ファミリア","Jusho":"北海道小樽市朝里川温泉1-227","kouzui":"○","gake":"○","takashio":"×","jishin":"○","tsunami":"×","kaji":"×","naisui":"×","kazan":"×"}}
,{"type":"Feature","geometry":{"type":"Point","coordinates":[141.019,43.18]},"properties":{"Name":"潮見台中学校グラウンド","Jusho":"北海道小樽市潮見台1-17-1","kouzui":"○","gake":"○","takashio":"×","jishin":"○","tsunami":"×","kaji":"×","naisui":"×","kazan":"×"}}
,{"type":"Feature","geometry":{"type":"Point","coordinates":[141.01,43.179]},"properties":{"Name":"小樽潮陵高等学校グラウンド","Jusho":"北海道小樽市潮見台2-1-1","kouzui":"○","gake":"○","takashio":"×","jishin":"○","tsunami":"×","kaji":"×","naisui":"×","kazan":"×"}}
,{"type":"Feature","geometry":{"type":"Point","coordinates":[140.984,43.213]},"properties":{"Name":"小樽桜陽高等学校グラウンド","Jusho":"北海道小樽市長橋3-19-1","kouzui":"×","gake":"○","takashio":"×","jishin":"○","tsunami":"×","kaji":"×","naisui":"×","kazan":"×"}}
,{"type":"Feature","geometry":{"type":"Point","coordinates":[140.965,43.211]},"properties":{"Name":"長橋中学校グラウンド","Jusho":"北海道小樽市長橋4-16-1","kouzui":"×","gake":"○","takashio":"×","jishin":"○","tsunami":"×","kaji":"×","naisui":"×","kazan":"×"}}
,{"type":"Feature","geometry":{"type":"Point","coordinates":[140.974,43.209]},"properties":{"Name":"長橋小学校駐車場","Jusho":"北海道小樽市長橋4-5-1","kouzui":"×","gake":"○","takashio":"×","jishin":"○","tsunami":"×","kaji":"×","naisui":"×","kazan":"×"}}
,{"type":"Feature","geometry":{"type":"Point","coordinates":[140.989,43.169]},"properties":{"Name":"向陽中学校グラウンド","Jusho":"北海道小樽市天神1-7-11","kouzui":"○","gake":"○","takashio":"×","jishin":"○","tsunami":"×","kaji":"×","naisui":"×","kazan":"×"}}
,{"type":"Feature","geometry":{"type":"Point","coordinates":[140.986,43.16]},"properties":{"Name":"市民消防防災研修センターグラウンド","Jusho":"北海道小樽市天神2-18-17","kouzui":"×","gake":"×","takashio":"×","jishin":"○","tsunami":"×","kaji":"×","naisui":"×","kazan":"×"}}
,{"type":"Feature","geometry":{"type":"Point","coordinates":[141.003,43.193]},"properties":{"Name":"旧堺小学校グラウンド","Jusho":"北海道小樽市東雲町9-12","kouzui":"×","gake":"○","takashio":"×","jishin":"○","tsunami":"○","kaji":"×","naisui":"×","kazan":"×"}}
,{"type":"Feature","geometry":{"type":"Point","coordinates":[140.867,43.201]},"properties":{"Name":"忍路中央小学校・忍路中学校グラウンド","Jusho":"北海道小樽市忍路1-171","kouzui":"○","gake":"○","takashio":"×","jishin":"○","tsunami":"○","kaji":"×","naisui":"×","kazan":"×"}}
,{"type":"Feature","geometry":{"type":"Point","coordinates":[140.994,43.194]},"properties":{"Name":"稲穂小学校グラウンド","Jusho":"北海道小樽市富岡1-5-1","kouzui":"×","gake":"○","takashio":"×","jishin":"○","tsunami":"○","kaji":"×","naisui":"×","kazan":"×"}}
,{"type":"Feature","geometry":{"type":"Point","coordinates":[141.041,43.166]},"properties":{"Name":"望洋台小学校グラウンド","Jusho":"北海道小樽市望洋台1-8-25","kouzui":"○","gake":"○","takashio":"×","jishin":"○","tsunami":"×","kaji":"×","naisui":"×","kazan":"×"}}
,{"type":"Feature","geometry":{"type":"Point","coordinates":[141.03,43.161]},"properties":{"Name":"望洋台中学校グラウンド","Jusho":"北海道小樽市望洋台3-6-1","kouzui":"○","gake":"○","takashio":"×","jishin":"○","tsunami":"×","kaji":"×","naisui":"×","kazan":"×"}}
,{"type":"Feature","geometry":{"type":"Point","coordinates":[140.998,43.213]},"properties":{"Name":"手宮中央小学校グラウンド","Jusho":"北海道小樽市末広町13-5","kouzui":"×","gake":"○","takashio":"×","jishin":"○","tsunami":"○","kaji":"×","naisui":"×","kazan":"×"}}
,{"type":"Feature","geometry":{"type":"Point","coordinates":[140.863,43.199]},"properties":{"Name":"忍路中学校旧校舎グラウンド","Jusho":"北海道小樽市蘭島1-28-1","kouzui":"○","gake":"○","takashio":"×","jishin":"○","tsunami":"○","kaji":"×","naisui":"×","kazan":"×"}}
,{"type":"Feature","geometry":{"type":"Point","coordinates":[140.977,43.19]},"properties":{"Name":"小樽商科大学屋外運動場","Jusho":"北海道小樽市緑3-5","kouzui":"×","gake":"×","takashio":"×","jishin":"○","tsunami":"×","kaji":"×","naisui":"×","kazan":"×"}}
,{"type":"Feature","geometry":{"type":"Point","coordinates":[142.372,43.769]},"properties":{"Name":"メガセンタートライアル旭川店（屋上駐車場）","Jusho":"北海道旭川市６条通14","kouzui":"○","gake":"×","takashio":"×","jishin":"×","tsunami":"×","kaji":"×","naisui":"×","kazan":"×"}}
,{"type":"Feature","geometry":{"type":"Point","coordinates":[142.322,43.799]},"properties":{"Name":"旭岡公園","Jusho":"北海道旭川市旭岡5","kouzui":"○","gake":"○","takashio":"×","jishin":"○","tsunami":"×","kaji":"○","naisui":"○","kazan":"×"}}
,{"type":"Feature","geometry":{"type":"Point","coordinates":[142.39,43.738]},"properties":{"Name":"旭神中央公園","Jusho":"北海道旭川市旭神一条4-5","kouzui":"×","gake":"○","takashio":"×","jishin":"○","tsunami":"×","kaji":"○","naisui":"×","kazan":"×"}}
,{"type":"Feature","geometry":{"type":"Point","coordinates":[142.356,43.766]},"properties":{"Name":"ホテルルートイン旭川駅前一条通（１階ロビー，レストラン）","Jusho":"北海道旭川市一条通6-39-1","kouzui":"○","gake":"○","takashio":"×","jishin":"○","tsunami":"×","kaji":"○","naisui":"○","kazan":"×"}}
,{"type":"Feature","geometry":{"type":"Point","coordinates":[142.403,43.78]},"properties":{"Name":"永山しらかば公園","Jusho":"北海道旭川市永山九条1-1-14","kouzui":"×","gake":"○","takashio":"×","jishin":"○","tsunami":"×","kaji":"○","naisui":"×","kazan":"×"}}
,{"type":"Feature","geometry":{"type":"Point","coordinates":[142.42,43.79]},"properties":{"Name":"永山公園","Jusho":"北海道旭川市永山九条8-5","kouzui":"×","gake":"○","takashio":"×","jishin":"○","tsunami":"×","kaji":"○","naisui":"○","kazan":"×"}}
,{"type":"Feature","geometry":{"type":"Point","coordinates":[142.41,43.81]},"properties":{"Name":"永楽公園","Jusho":"北海道旭川市永山北四条6-3","kouzui":"×","gake":"○","takashio":"×","jishin":"○","tsunami":"×","kaji":"○","naisui":"○","kazan":"×"}}
,{"type":"Feature","geometry":{"type":"Point","coordinates":[142.436,43.806]},"properties":{"Name":"永山中央公園","Jusho":"北海道旭川市永山六条17","kouzui":"○","gake":"○","takashio":"×","jishin":"○","tsunami":"×","kaji":"○","naisui":"○","kazan":"×"}}
,{"type":"Feature","geometry":{"type":"Point","coordinates":[142.374,43.793]},"properties":{"Name":"花咲スポーツ公園","Jusho":"北海道旭川市花咲町1","kouzui":"×","gake":"○","takashio":"×","jishin":"○","tsunami":"×","kaji":"○","naisui":"○","kazan":"×"}}
,{"type":"Feature","geometry":{"type":"Point","coordinates":[142.36,43.764]},"properties":{"Name":"ホテルルートイングランド旭川駅前（３階ロビー，レストラン，会議室）","Jusho":"北海道旭川市宮下通8-1962-1","kouzui":"○","gake":"○","takashio":"×","jishin":"○","tsunami":"×","kaji":"○","naisui":"○","kazan":"×"}}
,{"type":"Feature","geometry":{"type":"Point","coordinates":[142.366,43.756]},"properties":{"Name":"宮前公園","Jusho":"北海道旭川市宮前二条1","kouzui":"×","gake":"○","takashio":"×","jishin":"○","tsunami":"×","kaji":"○","naisui":"○","kazan":"×"}}
,{"type":"Feature","geometry":{"type":"Point","coordinates":[142.336,43.789]},"properties":{"Name":"旭川市立北門中学校（２階以上の階）","Jusho":"北海道旭川市錦町15","kouzui":"○","gake":"×","takashio":"×","jishin":"×","tsunami":"×","kaji":"×","naisui":"○","kazan":"×"}}
,{"type":"Feature","geometry":{"type":"Point","coordinates":[142.386,43.769]},"properties":{"Name":"きほく公園","Jusho":"北海道旭川市九条通22","kouzui":"×","gake":"○","takashio":"×","jishin":"○","tsunami":"×","kaji":"○","naisui":"×","kazan":"×"}}
,{"type":"Feature","geometry":{"type":"Point","coordinates":[142.344,43.775]},"properties":{"Name":"旭川高等支援学校","Jusho":"北海道旭川市五条西5-1","kouzui":"○","gake":"×","takashio":"×","jishin":"×","tsunami":"×","kaji":"×","naisui":"○","kazan":"×"}}
,{"type":"Feature","geometry":{"type":"Point","coordinates":[142.461,43.78]},"properties":{"Name":"日の出北公園","Jusho":"北海道旭川市工業団地五条2-1","kouzui":"×","gake":"○","takashio":"×","jishin":"○","tsunami":"×","kaji":"○","naisui":"×","kazan":"×"}}
,{"type":"Feature","geometry":{"type":"Point","coordinates":[142.461,43.775]},"properties":{"Name":"日の出公園","Jusho":"北海道旭川市工業団地三条2-1","kouzui":"×","gake":"○","takashio":"×","jishin":"○","tsunami":"×","kaji":"○","naisui":"×","kazan":"×"}}
,{"type":"Feature","geometry":{"type":"Point","coordinates":[142.348,43.773]},"properties":{"Name":"旭川市立新町小学校","Jusho":"北海道旭川市四条西3-2-1","kouzui":"○","gake":"×","takashio":"×","jishin":"×","tsunami":"×","kaji":"×","naisui":"○","kazan":"×"}}
,{"type":"Feature","geometry":{"type":"Point","coordinates":[142.355,43.807]},"properties":{"Name":"春光台公園","Jusho":"北海道旭川市字近文５線5","kouzui":"○","gake":"×","takashio":"×","jishin":"○","tsunami":"×","kaji":"○","naisui":"○","kazan":"×"}}
,{"type":"Feature","geometry":{"type":"Point","coordinates":[142.365,43.805]},"properties":{"Name":"春光園","Jusho":"北海道旭川市春光五条7-4","kouzui":"×","gake":"○","takashio":"×","jishin":"○","tsunami":"×","kaji":"○","naisui":"○","kazan":"×"}}
,{"type":"Feature","geometry":{"type":"Point","coordinates":[142.345,43.818]},"properties":{"Name":"春の台公園","Jusho":"北海道旭川市春光台五条1-15","kouzui":"○","gake":"○","takashio":"×","jishin":"○","tsunami":"×","kaji":"○","naisui":"○","kazan":"×"}}
,{"type":"Feature","geometry":{"type":"Point","coordinates":[142.356,43.818]},"properties":{"Name":"千代の山公園","Jusho":"北海道旭川市春光台三条3-6","kouzui":"○","gake":"○","takashio":"×","jishin":"○","tsunami":"×","kaji":"○","naisui":"○","kazan":"×"}}
,{"type":"Feature","geometry":{"type":"Point","coordinates":[142.368,43.826]},"properties":{"Name":"鷹の巣公園","Jusho":"北海道旭川市春光台三条8","kouzui":"○","gake":"○","takashio":"×","jishin":"○","tsunami":"×","kaji":"○","naisui":"○","kazan":"×"}}
,{"type":"Feature","geometry":{"type":"Point","coordinates":[142.357,43.775]},"properties":{"Name":"常磐公園","Jusho":"北海道旭川市常磐公園","kouzui":"×","gake":"○","takashio":"×","jishin":"○","tsunami":"×","kaji":"○","naisui":"×","kazan":"×"}}
,{"type":"Feature","geometry":{"type":"Point","coordinates":[142.389,43.787]},"properties":{"Name":"新富公園","Jusho":"北海道旭川市新富三条2-1","kouzui":"×","gake":"○","takashio":"×","jishin":"○","tsunami":"×","kaji":"○","naisui":"○","kazan":"×"}}
,{"type":"Feature","geometry":{"type":"Point","coordinates":[142.35,43.763]},"properties":{"Name":"忠別公園","Jusho":"北海道旭川市神楽一条6","kouzui":"×","gake":"○","takashio":"×","jishin":"○","tsunami":"×","kaji":"○","naisui":"×","kazan":"×"}}
,{"type":"Feature","geometry":{"type":"Point","coordinates":[142.357,43.759]},"properties":{"Name":"クィーンズＫ（２階）","Jusho":"北海道旭川市神楽一条9-1-12","kouzui":"○","gake":"×","takashio":"×","jishin":"×","tsunami":"×","kaji":"×","naisui":"○","kazan":"×"}}
,{"type":"Feature","geometry":{"type":"Point","coordinates":[142.367,43.75]},"properties":{"Name":"神楽岡公園","Jusho":"北海道旭川市神楽岡公園","kouzui":"○","gake":"○","takashio":"×","jishin":"○","tsunami":"×","kaji":"○","naisui":"○","kazan":"×"}}
,{"type":"Feature","geometry":{"type":"Point","coordinates":[142.363,43.751]},"properties":{"Name":"緑のセンター","Jusho":"北海道旭川市神楽岡公園1","kouzui":"○","gake":"×","takashio":"×","jishin":"×","tsunami":"×","kaji":"×","naisui":"○","kazan":"×"}}
,{"type":"Feature","geometry":{"type":"Point","coordinates":[142.358,43.743]},"properties":{"Name":"旭川市立神楽岡小学校（２階以上の階）","Jusho":"北海道旭川市神楽岡十四条3-4-1","kouzui":"○","gake":"×","takashio":"×","jishin":"×","tsunami":"×","kaji":"×","naisui":"○","kazan":"×"}}
,{"type":"Feature","geometry":{"type":"Point","coordinates":[142.35,43.756]},"properties":{"Name":"旭川市立神楽小学校","Jusho":"北海道旭川市神楽五条8-1-6","kouzui":"○","gake":"×","takashio":"×","jishin":"×","tsunami":"×","kaji":"×","naisui":"○","kazan":"×"}}
,{"type":"Feature","geometry":{"type":"Point","coordinates":[142.353,43.754]},"properties":{"Name":"パーラートーエー神楽店立体駐車場（２階以上の階）","Jusho":"北海道旭川市神楽五条9-2-7","kouzui":"○","gake":"×","takashio":"×","jishin":"×","tsunami":"×","kaji":"×","naisui":"○","kazan":"×"}}
,{"type":"Feature","geometry":{"type":"Point","coordinates":[142.36,43.753]},"properties":{"Name":"杜のＳＰＡ神楽","Jusho":"北海道旭川市神楽三条12-1-5","kouzui":"○","gake":"×","takashio":"×","jishin":"×","tsunami":"×","kaji":"×","naisui":"○","kazan":"×"}}
,{"type":"Feature","geometry":{"type":"Point","coordinates":[142.349,43.761]},"properties":{"Name":"神楽市民交流センター（２階）","Jusho":"北海道旭川市神楽三条6-1-12","kouzui":"○","gake":"×","takashio":"×","jishin":"×","tsunami":"×","kaji":"×","naisui":"○","kazan":"×"}}
,{"type":"Feature","geometry":{"type":"Point","coordinates":[142.352,43.759]},"properties":{"Name":"クリスタルパーク","Jusho":"北海道旭川市神楽三条7","kouzui":"×","gake":"○","takashio":"×","jishin":"○","tsunami":"×","kaji":"○","naisui":"×","kazan":"×"}}
,{"type":"Feature","geometry":{"type":"Point","coordinates":[142.349,43.76]},"properties":{"Name":"道北地域旭川地場産業振興センター（２階）","Jusho":"北海道旭川市神楽四条6-1-12","kouzui":"×","gake":"×","takashio":"×","jishin":"×","tsunami":"×","kaji":"×","naisui":"○","kazan":"×"}}
,{"type":"Feature","geometry":{"type":"Point","coordinates":[142.349,43.759]},"properties":{"Name":"大雪アリーナ（２階）","Jusho":"北海道旭川市神楽四条7-1-52","kouzui":"○","gake":"×","takashio":"×","jishin":"×","tsunami":"×","kaji":"×","naisui":"○","kazan":"×"}}
,{"type":"Feature","geometry":{"type":"Point","coordinates":[142.358,43.756]},"properties":{"Name":"旭川ベルコ会館","Jusho":"北海道旭川市神楽二条10-3-17","kouzui":"○","gake":"×","takashio":"×","jishin":"×","tsunami":"×","kaji":"×","naisui":"○","kazan":"×"}}
,{"type":"Feature","geometry":{"type":"Point","coordinates":[142.361,43.755]},"properties":{"Name":"旭川宮前保育園","Jusho":"北海道旭川市神楽二条12-1-25","kouzui":"○","gake":"×","takashio":"×","jishin":"×","tsunami":"×","kaji":"×","naisui":"○","kazan":"×"}}
,{"type":"Feature","geometry":{"type":"Point","coordinates":[142.355,43.749]},"properties":{"Name":"旭川市立神楽中学校","Jusho":"北海道旭川市神楽六条12-2-1","kouzui":"○","gake":"×","takashio":"×","jishin":"×","tsunami":"×","kaji":"×","naisui":"○","kazan":"×"}}
,{"type":"Feature","geometry":{"type":"Point","coordinates":[142.324,43.761]},"properties":{"Name":"はす池公園","Jusho":"北海道旭川市神居九条6-1","kouzui":"○","gake":"○","takashio":"×","jishin":"○","tsunami":"×","kaji":"○","naisui":"○","kazan":"×"}}
,{"type":"Feature","geometry":{"type":"Point","coordinates":[142.34,43.746]},"properties":{"Name":"神居東公園","Jusho":"北海道旭川市神居四条20","kouzui":"×","gake":"○","takashio":"×","jishin":"○","tsunami":"×","kaji":"○","naisui":"○","kazan":"×"}}
,{"type":"Feature","geometry":{"type":"Point","coordinates":[142.317,43.784]},"properties":{"Name":"忠和公園","Jusho":"北海道旭川市神居町忠和","kouzui":"×","gake":"○","takashio":"×","jishin":"○","tsunami":"×","kaji":"○","naisui":"×","kazan":"×"}}
,{"type":"Feature","geometry":{"type":"Point","coordinates":[142.189,43.667]},"properties":{"Name":"旭川市消防団第１９分団詰所","Jusho":"北海道旭川市神居町豊里","kouzui":"○","gake":"○","takashio":"×","jishin":"×","tsunami":"×","kaji":"×","naisui":"○","kazan":"×"}}
,{"type":"Feature","geometry":{"type":"Point","coordinates":[142.178,43.683]},"properties":{"Name":"豊西会館","Jusho":"北海道旭川市神居町豊里3","kouzui":"○","gake":"×","takashio":"×","jishin":"×","tsunami":"×","kaji":"×","naisui":"○","kazan":"×"}}
,{"type":"Feature","geometry":{"type":"Point","coordinates":[142.334,43.763]},"properties":{"Name":"かむい中央公園","Jusho":"北海道旭川市神居二条7-1","kouzui":"×","gake":"○","takashio":"×","jishin":"○","tsunami":"×","kaji":"○","naisui":"×","kazan":"×"}}
,{"type":"Feature","geometry":{"type":"Point","coordinates":[142.374,43.723]},"properties":{"Name":"ごりょう公園","Jusho":"北海道旭川市西御料二条2-3","kouzui":"○","gake":"○","takashio":"×","jishin":"○","tsunami":"×","kaji":"○","naisui":"○","kazan":"×"}}
,{"type":"Feature","geometry":{"type":"Point","coordinates":[142.395,43.683]},"properties":{"Name":"西神楽公園","Jusho":"北海道旭川市西神楽南一条1","kouzui":"○","gake":"○","takashio":"×","jishin":"○","tsunami":"×","kaji":"○","naisui":"○","kazan":"×"}}
,{"type":"Feature","geometry":{"type":"Point","coordinates":[142.343,43.783]},"properties":{"Name":"北海道旭川西高等学校","Jusho":"北海道旭川市川端町五条9-1-8","kouzui":"○","gake":"×","takashio":"×","jishin":"×","tsunami":"×","kaji":"×","naisui":"○","kazan":"×"}}
,{"type":"Feature","geometry":{"type":"Point","coordinates":[142.364,43.782]},"properties":{"Name":"旭川市立大町小学校（２階以上の階）","Jusho":"北海道旭川市大町一条1","kouzui":"○","gake":"×","takashio":"×","jishin":"×","tsunami":"×","kaji":"×","naisui":"○","kazan":"×"}}
,{"type":"Feature","geometry":{"type":"Point","coordinates":[142.319,43.782]},"properties":{"Name":"旭川市立忠和中学校（２階以上の階）","Jusho":"北海道旭川市忠和一条4","kouzui":"×","gake":"×","takashio":"×","jishin":"×","tsunami":"×","kaji":"×","naisui":"○","kazan":"×"}}
,{"type":"Feature","geometry":{"type":"Point","coordinates":[142.316,43.778]},"properties":{"Name":"旭川市立忠和小学校（２階以上の階）","Jusho":"北海道旭川市忠和四条4-2-7","kouzui":"×","gake":"×","takashio":"×","jishin":"×","tsunami":"×","kaji":"×","naisui":"○","kazan":"×"}}
,{"type":"Feature","geometry":{"type":"Point","coordinates":[142.658,43.721]},"properties":{"Name":"旭川２１世紀の森ログハウス","Jusho":"北海道旭川市東旭川町瑞穂888","kouzui":"○","gake":"○","takashio":"×","jishin":"○","tsunami":"×","kaji":"×","naisui":"○","kazan":"×"}}
,{"type":"Feature","geometry":{"type":"Point","coordinates":[142.475,43.769]},"properties":{"Name":"旭山公園","Jusho":"北海道旭川市東旭川町倉沼","kouzui":"○","gake":"○","takashio":"×","jishin":"○","tsunami":"×","kaji":"○","naisui":"○","kazan":"×"}}
,{"type":"Feature","geometry":{"type":"Point","coordinates":[142.442,43.77]},"properties":{"Name":"東旭川屯田公園","Jusho":"北海道旭川市東旭川南一条6","kouzui":"×","gake":"○","takashio":"×","jishin":"○","tsunami":"×","kaji":"○","naisui":"×","kazan":"×"}}
,{"type":"Feature","geometry":{"type":"Point","coordinates":[142.374,43.775]},"properties":{"Name":"旭川市立明星中学校","Jusho":"北海道旭川市東五条1-1-10","kouzui":"○","gake":"×","takashio":"×","jishin":"×","tsunami":"×","kaji":"×","naisui":"○","kazan":"×"}}
,{"type":"Feature","geometry":{"type":"Point","coordinates":[142.417,43.754]},"properties":{"Name":"東光公園","Jusho":"北海道旭川市東光一条8","kouzui":"○","gake":"○","takashio":"×","jishin":"○","tsunami":"×","kaji":"○","naisui":"○","kazan":"×"}}
,{"type":"Feature","geometry":{"type":"Point","coordinates":[142.418,43.742]},"properties":{"Name":"千代田公園","Jusho":"北海道旭川市東光十三条8-2","kouzui":"○","gake":"○","takashio":"×","jishin":"○","tsunami":"×","kaji":"○","naisui":"○","kazan":"×"}}
,{"type":"Feature","geometry":{"type":"Point","coordinates":[142.402,43.736]},"properties":{"Name":"東部中央公園","Jusho":"北海道旭川市東光十八条4","kouzui":"○","gake":"○","takashio":"×","jishin":"○","tsunami":"×","kaji":"○","naisui":"○","kazan":"×"}}
,{"type":"Feature","geometry":{"type":"Point","coordinates":[142.415,43.73]},"properties":{"Name":"東光スポーツ公園","Jusho":"北海道旭川市東光二十五条8","kouzui":"○","gake":"○","takashio":"×","jishin":"○","tsunami":"×","kaji":"○","naisui":"○","kazan":"×"}}
,{"type":"Feature","geometry":{"type":"Point","coordinates":[142.421,43.748]},"properties":{"Name":"共栄公園","Jusho":"北海道旭川市東光六条10-2","kouzui":"○","gake":"○","takashio":"×","jishin":"○","tsunami":"×","kaji":"○","naisui":"○","kazan":"×"}}
,{"type":"Feature","geometry":{"type":"Point","coordinates":[142.401,43.749]},"properties":{"Name":"東光ふれあい公園","Jusho":"北海道旭川市東光六条4-3","kouzui":"○","gake":"○","takashio":"×","jishin":"○","tsunami":"×","kaji":"○","naisui":"○","kazan":"×"}}
,{"type":"Feature","geometry":{"type":"Point","coordinates":[142.375,43.783]},"properties":{"Name":"金星公園","Jusho":"北海道旭川市東三条6-2","kouzui":"×","gake":"○","takashio":"×","jishin":"○","tsunami":"×","kaji":"○","naisui":"×","kazan":"×"}}
,{"type":"Feature","geometry":{"type":"Point","coordinates":[142.373,43.77]},"properties":{"Name":"大成公園","Jusho":"北海道旭川市八条通14","kouzui":"×","gake":"○","takashio":"×","jishin":"○","tsunami":"×","kaji":"○","naisui":"○","kazan":"×"}}
,{"type":"Feature","geometry":{"type":"Point","coordinates":[142.392,43.825]},"properties":{"Name":"東鷹栖いなほ公園","Jusho":"北海道旭川市物流団地１条1","kouzui":"○","gake":"○","takashio":"×","jishin":"○","tsunami":"×","kaji":"○","naisui":"○","kazan":"×"}}
,{"type":"Feature","geometry":{"type":"Point","coordinates":[142.421,43.767]},"properties":{"Name":"豊岡東公園","Jusho":"北海道旭川市豊岡十条9-1","kouzui":"○","gake":"○","takashio":"×","jishin":"○","tsunami":"×","kaji":"○","naisui":"○","kazan":"×"}}
,{"type":"Feature","geometry":{"type":"Point","coordinates":[142.428,43.768]},"properties":{"Name":"東豊公園","Jusho":"北海道旭川市豊岡十二条11-149-6","kouzui":"×","gake":"○","takashio":"×","jishin":"○","tsunami":"×","kaji":"○","naisui":"×","kazan":"×"}}
,{"type":"Feature","geometry":{"type":"Point","coordinates":[142.397,43.764]},"properties":{"Name":"豊岡公園","Jusho":"北海道旭川市豊岡六条3-1","kouzui":"○","gake":"○","takashio":"×","jishin":"○","tsunami":"×","kaji":"○","naisui":"○","kazan":"×"}}
,{"type":"Feature","geometry":{"type":"Point","coordinates":[142.355,43.78]},"properties":{"Name":"ベルクラシック旭川（２階以上の階）","Jusho":"北海道旭川市本町2-437-250","kouzui":"○","gake":"×","takashio":"×","jishin":"×","tsunami":"×","kaji":"×","naisui":"○","kazan":"×"}}
,{"type":"Feature","geometry":{"type":"Point","coordinates":[142.39,43.823]},"properties":{"Name":"末広北公園","Jusho":"北海道旭川市末広五条12-4","kouzui":"×","gake":"○","takashio":"×","jishin":"○","tsunami":"×","kaji":"○","naisui":"○","kazan":"×"}}
,{"type":"Feature","geometry":{"type":"Point","coordinates":[142.393,43.818]},"properties":{"Name":"末広中央公園","Jusho":"北海道旭川市末広三条10","kouzui":"×","gake":"○","takashio":"×","jishin":"○","tsunami":"×","kaji":"○","naisui":"○","kazan":"×"}}
,{"type":"Feature","geometry":{"type":"Point","coordinates":[142.396,43.802]},"properties":{"Name":"末広東公園","Jusho":"北海道旭川市末広東三条5-1","kouzui":"×","gake":"○","takashio":"×","jishin":"○","tsunami":"×","kaji":"○","naisui":"○","kazan":"×"}}
,{"type":"Feature","geometry":{"type":"Point","coordinates":[142.368,43.816]},"properties":{"Name":"鷹実公園","Jusho":"北海道旭川市末広八条3","kouzui":"○","gake":"○","takashio":"×","jishin":"○","tsunami":"×","kaji":"○","naisui":"○","kazan":"×"}}
,{"type":"Feature","geometry":{"type":"Point","coordinates":[142.405,43.803]},"properties":{"Name":"いこい公園","Jusho":"北海道旭川市流通団地三条4","kouzui":"○","gake":"○","takashio":"×","jishin":"○","tsunami":"×","kaji":"○","naisui":"○","kazan":"×"}}
,{"type":"Feature","geometry":{"type":"Point","coordinates":[142.372,43.734]},"properties":{"Name":"緑が丘西緑地","Jusho":"北海道旭川市緑が丘五条1","kouzui":"○","gake":"○","takashio":"×","jishin":"○","tsunami":"×","kaji":"○","naisui":"○","kazan":"×"}}
,{"type":"Feature","geometry":{"type":"Point","coordinates":[142.379,43.733]},"properties":{"Name":"神陵公園","Jusho":"北海道旭川市緑が丘三条3","kouzui":"○","gake":"○","takashio":"×","jishin":"○","tsunami":"×","kaji":"○","naisui":"○","kazan":"×"}}
,{"type":"Feature","geometry":{"type":"Point","coordinates":[142.381,43.721]},"properties":{"Name":"緑の沢公園","Jusho":"北海道旭川市緑が丘東4","kouzui":"○","gake":"○","takashio":"×","jishin":"○","tsunami":"×","kaji":"○","naisui":"○","kazan":"×"}}
,{"type":"Feature","geometry":{"type":"Point","coordinates":[142.369,43.732]},"properties":{"Name":"西御料公園","Jusho":"北海道旭川市緑が丘南二条1","kouzui":"○","gake":"○","takashio":"×","jishin":"○","tsunami":"×","kaji":"○","naisui":"○","kazan":"×"}}
,{"type":"Feature","geometry":{"type":"Point","coordinates":[142.335,43.785]},"properties":{"Name":"旭川明成高等学校（２階以上の階）","Jusho":"北海道旭川市緑町14","kouzui":"○","gake":"×","takashio":"×","jishin":"×","tsunami":"×","kaji":"×","naisui":"○","kazan":"×"}}
,{"type":"Feature","geometry":{"type":"Point","coordinates":[142.331,43.788]},"properties":{"Name":"旭川市立近文小学校（２階以上の階）","Jusho":"北海道旭川市緑町17-225-4","kouzui":"○","gake":"×","takashio":"×","jishin":"×","tsunami":"×","kaji":"×","naisui":"○","kazan":"×"}}
,{"type":"Feature","geometry":{"type":"Point","coordinates":[142.326,43.794]},"properties":{"Name":"イオンモール旭川西店（３階屋内駐車場及び屋上駐車場）","Jusho":"北海道旭川市緑町23-2161-3","kouzui":"○","gake":"×","takashio":"×","jishin":"×","tsunami":"×","kaji":"×","naisui":"○","kazan":"×"}}
,{"type":"Feature","geometry":{"type":"Point","coordinates":[141.013,42.329]},"properties":{"Name":"みゆき町公園","Jusho":"北海道室蘭市みゆき町1-12","kouzui":"○","gake":"○","takashio":"×","jishin":"×","tsunami":"○","kaji":"×","naisui":"×","kazan":"×"}}
,{"type":"Feature","geometry":{"type":"Point","coordinates":[141.012,42.332]},"properties":{"Name":"天理教輪西分教会","Jusho":"北海道室蘭市みゆき町1-16-7","kouzui":"○","gake":"○","takashio":"×","jishin":"×","tsunami":"×","kaji":"×","naisui":"×","kazan":"×"}}
,{"type":"Feature","geometry":{"type":"Point","coordinates":[141.01,42.331]},"properties":{"Name":"廣徳寺","Jusho":"北海道室蘭市みゆき町1-6-5","kouzui":"○","gake":"○","takashio":"×","jishin":"×","tsunami":"×","kaji":"×","naisui":"×","kazan":"×"}}
,{"type":"Feature","geometry":{"type":"Point","coordinates":[141.014,42.332]},"properties":{"Name":"西乘寺","Jusho":"北海道室蘭市みゆき町2-8-5","kouzui":"○","gake":"○","takashio":"×","jishin":"×","tsunami":"○","kaji":"×","naisui":"×","kazan":"×"}}
,{"type":"Feature","geometry":{"type":"Point","coordinates":[141.015,42.332]},"properties":{"Name":"室蘭高等技術専門学院","Jusho":"北海道室蘭市みゆき町2-9-5","kouzui":"○","gake":"○","takashio":"×","jishin":"×","tsunami":"○","kaji":"×","naisui":"×","kazan":"×"}}
,{"type":"Feature","geometry":{"type":"Point","coordinates":[141.018,42.33]},"properties":{"Name":"室蘭ユースホステル","Jusho":"北海道室蘭市みゆき町3-12-2","kouzui":"○","gake":"○","takashio":"×","jishin":"×","tsunami":"○","kaji":"×","naisui":"×","kazan":"×"}}
,{"type":"Feature","geometry":{"type":"Point","coordinates":[141.019,42.333]},"properties":{"Name":"潮見公園","Jusho":"北海道室蘭市みゆき町3-289","kouzui":"○","gake":"○","takashio":"×","jishin":"×","tsunami":"×","kaji":"×","naisui":"×","kazan":"×"}}
,{"type":"Feature","geometry":{"type":"Point","coordinates":[140.97,42.313]},"properties":{"Name":"絆ホール室蘭","Jusho":"北海道室蘭市栄町1-8-8","kouzui":"○","gake":"○","takashio":"×","jishin":"×","tsunami":"×","kaji":"×","naisui":"×","kazan":"×"}}
,{"type":"Feature","geometry":{"type":"Point","coordinates":[140.973,42.311]},"properties":{"Name":"栄町公園","Jusho":"北海道室蘭市栄町2-3","kouzui":"○","gake":"○","takashio":"×","jishin":"×","tsunami":"×","kaji":"×","naisui":"×","kazan":"×"}}
,{"type":"Feature","geometry":{"type":"Point","coordinates":[140.973,42.312]},"properties":{"Name":"室蘭市武揚体育館","Jusho":"北海道室蘭市栄町2-3-3","kouzui":"○","gake":"○","takashio":"×","jishin":"×","tsunami":"×","kaji":"×","naisui":"×","kazan":"×"}}
,{"type":"Feature","geometry":{"type":"Point","coordinates":[140.972,42.311]},"properties":{"Name":"常盤保育所","Jusho":"北海道室蘭市栄町2-6-16","kouzui":"○","gake":"○","takashio":"×","jishin":"×","tsunami":"×","kaji":"×","naisui":"×","kazan":"×"}}
,{"type":"Feature","geometry":{"type":"Point","coordinates":[140.972,42.326]},"properties":{"Name":"中央埠頭多目的広場","Jusho":"北海道室蘭市海岸町1","kouzui":"○","gake":"○","takashio":"×","jishin":"×","tsunami":"×","kaji":"×","naisui":"×","kazan":"×"}}
,{"type":"Feature","geometry":{"type":"Point","coordinates":[140.975,42.319]},"properties":{"Name":"レインボー公園","Jusho":"北海道室蘭市海岸町1-2","kouzui":"○","gake":"○","takashio":"×","jishin":"×","tsunami":"×","kaji":"×","naisui":"×","kazan":"×"}}
,{"type":"Feature","geometry":{"type":"Point","coordinates":[140.97,42.322]},"properties":{"Name":"旧室蘭駅舎","Jusho":"北海道室蘭市海岸町1-5","kouzui":"○","gake":"○","takashio":"×","jishin":"×","tsunami":"×","kaji":"×","naisui":"×","kazan":"×"}}
,{"type":"Feature","geometry":{"type":"Point","coordinates":[140.97,42.322]},"properties":{"Name":"旧室蘭駅舎公園","Jusho":"北海道室蘭市海岸町1-5-1","kouzui":"○","gake":"○","takashio":"×","jishin":"×","tsunami":"×","kaji":"×","naisui":"×","kazan":"×"}}
,{"type":"Feature","geometry":{"type":"Point","coordinates":[140.97,42.322]},"properties":{"Name":"海岸町２丁目公園","Jusho":"北海道室蘭市海岸町2-2","kouzui":"○","gake":"○","takashio":"×","jishin":"×","tsunami":"×","kaji":"×","naisui":"×","kazan":"×"}}
,{"type":"Feature","geometry":{"type":"Point","coordinates":[140.968,42.324]},"properties":{"Name":"港町会館","Jusho":"北海道室蘭市海岸町3-11-7","kouzui":"○","gake":"○","takashio":"×","jishin":"×","tsunami":"○","kaji":"×","naisui":"×","kazan":"×"}}
,{"type":"Feature","geometry":{"type":"Point","coordinates":[140.967,42.324]},"properties":{"Name":"みなとが丘児童遊園地","Jusho":"北海道室蘭市海岸町3-14","kouzui":"○","gake":"○","takashio":"×","jishin":"×","tsunami":"○","kaji":"×","naisui":"×","kazan":"×"}}
,{"type":"Feature","geometry":{"type":"Point","coordinates":[140.968,42.326]},"properties":{"Name":"海岸町３丁目公園","Jusho":"北海道室蘭市海岸町3-7","kouzui":"○","gake":"○","takashio":"×","jishin":"×","tsunami":"○","kaji":"×","naisui":"×","kazan":"×"}}
,{"type":"Feature","geometry":{"type":"Point","coordinates":[140.939,42.337]},"properties":{"Name":"絵鞆町会館","Jusho":"北海道室蘭市絵鞆町1-11-12","kouzui":"○","gake":"○","takashio":"×","jishin":"×","tsunami":"○","kaji":"×","naisui":"×","kazan":"×"}}
,{"type":"Feature","geometry":{"type":"Point","coordinates":[140.938,42.334]},"properties":{"Name":"絵鞆２丁目公園","Jusho":"北海道室蘭市絵鞆町2-19","kouzui":"○","gake":"○","takashio":"×","jishin":"×","tsunami":"○","kaji":"×","naisui":"×","kazan":"×"}}
,{"type":"Feature","geometry":{"type":"Point","coordinates":[140.935,42.337]},"properties":{"Name":"絵鞆２丁目２号公園","Jusho":"北海道室蘭市絵鞆町2-6","kouzui":"○","gake":"○","takashio":"×","jishin":"×","tsunami":"○","kaji":"×","naisui":"×","kazan":"×"}}
,{"type":"Feature","geometry":{"type":"Point","coordinates":[140.941,42.333]},"properties":{"Name":"絵鞆３丁目公園","Jusho":"北海道室蘭市絵鞆町3-8","kouzui":"○","gake":"○","takashio":"×","jishin":"×","tsunami":"○","kaji":"×","naisui":"×","kazan":"×"}}
,{"type":"Feature","geometry":{"type":"Point","coordinates":[140.941,42.34]},"properties":{"Name":"エンルムマリーナ室蘭センターハウス","Jusho":"北海道室蘭市絵鞆町4-2-14","kouzui":"○","gake":"○","takashio":"×","jishin":"×","tsunami":"×","kaji":"×","naisui":"×","kazan":"×"}}
,{"type":"Feature","geometry":{"type":"Point","coordinates":[141.021,42.355]},"properties":{"Name":"蓬崍殿","Jusho":"北海道室蘭市宮の森町1-1","kouzui":"○","gake":"○","takashio":"×","jishin":"×","tsunami":"○","kaji":"×","naisui":"×","kazan":"×"}}
,{"type":"Feature","geometry":{"type":"Point","coordinates":[141.022,42.354]},"properties":{"Name":"中島中央会館","Jusho":"北海道室蘭市宮の森町1-1-59","kouzui":"○","gake":"○","takashio":"×","jishin":"×","tsunami":"○","kaji":"×","naisui":"×","kazan":"×"}}
,{"type":"Feature","geometry":{"type":"Point","coordinates":[141.025,42.357]},"properties":{"Name":"楽山三ツ和会館","Jusho":"北海道室蘭市宮の森町1-11-3","kouzui":"○","gake":"○","takashio":"×","jishin":"×","tsunami":"○","kaji":"×","naisui":"×","kazan":"×"}}
,{"type":"Feature","geometry":{"type":"Point","coordinates":[141.022,42.356]},"properties":{"Name":"旭ヶ丘小学校グラウンド","Jusho":"北海道室蘭市宮の森町1-5","kouzui":"○","gake":"○","takashio":"×","jishin":"×","tsunami":"○","kaji":"×","naisui":"×","kazan":"×"}}
,{"type":"Feature","geometry":{"type":"Point","coordinates":[141.024,42.355]},"properties":{"Name":"楽山保育園","Jusho":"北海道室蘭市宮の森町1-6-16","kouzui":"○","gake":"○","takashio":"×","jishin":"×","tsunami":"○","kaji":"×","naisui":"×","kazan":"×"}}
,{"type":"Feature","geometry":{"type":"Point","coordinates":[141.029,42.356]},"properties":{"Name":"室蘭工業高等学校グラウンド","Jusho":"北海道室蘭市宮の森町3-1-1","kouzui":"○","gake":"○","takashio":"×","jishin":"×","tsunami":"×","kaji":"×","naisui":"×","kazan":"×"}}
,{"type":"Feature","geometry":{"type":"Point","coordinates":[141.032,42.356]},"properties":{"Name":"宮の森小公園","Jusho":"北海道室蘭市宮の森町3-7","kouzui":"○","gake":"○","takashio":"×","jishin":"×","tsunami":"×","kaji":"×","naisui":"×","kazan":"×"}}
,{"type":"Feature","geometry":{"type":"Point","coordinates":[141.03,42.355]},"properties":{"Name":"宮の森町会館","Jusho":"北海道室蘭市宮の森町3-9-18","kouzui":"○","gake":"○","takashio":"×","jishin":"×","tsunami":"×","kaji":"×","naisui":"×","kazan":"×"}}
,{"type":"Feature","geometry":{"type":"Point","coordinates":[141.026,42.353]},"properties":{"Name":"中島公園","Jusho":"北海道室蘭市宮の森町4-1","kouzui":"○","gake":"○","takashio":"×","jishin":"×","tsunami":"○","kaji":"×","naisui":"×","kazan":"×"}}
,{"type":"Feature","geometry":{"type":"Point","coordinates":[141.028,42.353]},"properties":{"Name":"宮の森旭通り親交会会館","Jusho":"北海道室蘭市宮の森町4-6-10","kouzui":"○","gake":"○","takashio":"×","jishin":"×","tsunami":"×","kaji":"×","naisui":"×","kazan":"×"}}
,{"type":"Feature","geometry":{"type":"Point","coordinates":[140.994,42.331]},"properties":{"Name":"御崎公園","Jusho":"北海道室蘭市御崎町2-6","kouzui":"○","gake":"○","takashio":"×","jishin":"×","tsunami":"○","kaji":"×","naisui":"×","kazan":"×"}}
,{"type":"Feature","geometry":{"type":"Point","coordinates":[140.993,42.331]},"properties":{"Name":"御崎町内会会館","Jusho":"北海道室蘭市御崎町2-7-37","kouzui":"○","gake":"○","takashio":"×","jishin":"×","tsunami":"×","kaji":"×","naisui":"×","kazan":"×"}}
,{"type":"Feature","geometry":{"type":"Point","coordinates":[141,42.323]},"properties":{"Name":"願隆寺","Jusho":"北海道室蘭市御前水町1-11-9","kouzui":"○","gake":"○","takashio":"×","jishin":"×","tsunami":"○","kaji":"×","naisui":"×","kazan":"×"}}
,{"type":"Feature","geometry":{"type":"Point","coordinates":[141.001,42.323]},"properties":{"Name":"淨誓寺","Jusho":"北海道室蘭市御前水町1-23-33","kouzui":"○","gake":"○","takashio":"×","jishin":"×","tsunami":"○","kaji":"×","naisui":"×","kazan":"×"}}
,{"type":"Feature","geometry":{"type":"Point","coordinates":[140.999,42.325]},"properties":{"Name":"御前水１丁目公園","Jusho":"北海道室蘭市御前水町1-3","kouzui":"○","gake":"○","takashio":"×","jishin":"×","tsunami":"○","kaji":"×","naisui":"×","kazan":"×"}}
,{"type":"Feature","geometry":{"type":"Point","coordinates":[140.999,42.322]},"properties":{"Name":"御前水公園","Jusho":"北海道室蘭市御前水町2-2","kouzui":"○","gake":"○","takashio":"×","jishin":"×","tsunami":"○","kaji":"×","naisui":"×","kazan":"×"}}
,{"type":"Feature","geometry":{"type":"Point","coordinates":[140.998,42.323]},"properties":{"Name":"御前水町会館","Jusho":"北海道室蘭市御前水町2-2-5","kouzui":"○","gake":"○","takashio":"×","jishin":"×","tsunami":"○","kaji":"×","naisui":"×","kazan":"×"}}
,{"type":"Feature","geometry":{"type":"Point","coordinates":[140.995,42.319]},"properties":{"Name":"護国寺","Jusho":"北海道室蘭市御前水町3-1-1","kouzui":"○","gake":"○","takashio":"×","jishin":"×","tsunami":"○","kaji":"×","naisui":"×","kazan":"×"}}
,{"type":"Feature","geometry":{"type":"Point","coordinates":[140.975,42.315]},"properties":{"Name":"開運公園","Jusho":"北海道室蘭市幸町1","kouzui":"○","gake":"○","takashio":"×","jishin":"×","tsunami":"×","kaji":"×","naisui":"×","kazan":"×"}}
,{"type":"Feature","geometry":{"type":"Point","coordinates":[140.953,42.333]},"properties":{"Name":"みなと小学校グラウンド","Jusho":"北海道室蘭市港南町2-5-1","kouzui":"○","gake":"○","takashio":"×","jishin":"×","tsunami":"○","kaji":"×","naisui":"×","kazan":"×"}}
,{"type":"Feature","geometry":{"type":"Point","coordinates":[140.986,42.36]},"properties":{"Name":"港北中央会館","Jusho":"北海道室蘭市港北町1-4-9","kouzui":"○","gake":"○","takashio":"×","jishin":"×","tsunami":"×","kaji":"×","naisui":"×","kazan":"×"}}
,{"type":"Feature","geometry":{"type":"Point","coordinates":[140.984,42.361]},"properties":{"Name":"室蘭市サンライフ","Jusho":"北海道室蘭市港北町1-6-2","kouzui":"○","gake":"○","takashio":"×","jishin":"×","tsunami":"×","kaji":"×","naisui":"×","kazan":"×"}}
,{"type":"Feature","geometry":{"type":"Point","coordinates":[140.99,42.364]},"properties":{"Name":"桜ヶ丘幼稚園","Jusho":"北海道室蘭市港北町2-26-30","kouzui":"○","gake":"○","takashio":"×","jishin":"×","tsunami":"○","kaji":"×","naisui":"×","kazan":"×"}}
,{"type":"Feature","geometry":{"type":"Point","coordinates":[140.993,42.368]},"properties":{"Name":"港北公園","Jusho":"北海道室蘭市港北町2-354","kouzui":"○","gake":"○","takashio":"×","jishin":"×","tsunami":"○","kaji":"×","naisui":"×","kazan":"×"}}
,{"type":"Feature","geometry":{"type":"Point","coordinates":[140.992,42.363]},"properties":{"Name":"港北ふれあいセンター","Jusho":"北海道室蘭市港北町3-29-1","kouzui":"○","gake":"○","takashio":"×","jishin":"×","tsunami":"○","kaji":"×","naisui":"×","kazan":"×"}}
,{"type":"Feature","geometry":{"type":"Point","coordinates":[140.995,42.364]},"properties":{"Name":"蘭北小学校グラウンド","Jusho":"北海道室蘭市港北町4-9","kouzui":"○","gake":"○","takashio":"×","jishin":"×","tsunami":"○","kaji":"×","naisui":"×","kazan":"×"}}
,{"type":"Feature","geometry":{"type":"Point","coordinates":[141.037,42.358]},"properties":{"Name":"高砂緑ヶ丘町会会館","Jusho":"北海道室蘭市高砂町1-12-11","kouzui":"○","gake":"○","takashio":"×","jishin":"×","tsunami":"○","kaji":"×","naisui":"×","kazan":"×"}}
,{"type":"Feature","geometry":{"type":"Point","coordinates":[141.037,42.361]},"properties":{"Name":"緑ヶ丘公園","Jusho":"北海道室蘭市高砂町1-30","kouzui":"○","gake":"○","takashio":"×","jishin":"×","tsunami":"○","kaji":"×","naisui":"×","kazan":"×"}}
,{"type":"Feature","geometry":{"type":"Point","coordinates":[141.033,42.358]},"properties":{"Name":"高砂１丁目公園","Jusho":"北海道室蘭市高砂町1-4","kouzui":"○","gake":"○","takashio":"×","jishin":"×","tsunami":"○","kaji":"×","naisui":"×","kazan":"×"}}
,{"type":"Feature","geometry":{"type":"Point","coordinates":[141.041,42.363]},"properties":{"Name":"高砂第一会館","Jusho":"北海道室蘭市高砂町1-52-34","kouzui":"○","gake":"○","takashio":"×","jishin":"×","tsunami":"×","kaji":"×","naisui":"×","kazan":"×"}}
,{"type":"Feature","geometry":{"type":"Point","coordinates":[141.033,42.37]},"properties":{"Name":"高砂東公園","Jusho":"北海道室蘭市高砂町2-23","kouzui":"○","gake":"○","takashio":"×","jishin":"×","tsunami":"○","kaji":"×","naisui":"×","kazan":"×"}}
,{"type":"Feature","geometry":{"type":"Point","coordinates":[141.033,42.361]},"properties":{"Name":"高砂第三町会会館","Jusho":"北海道室蘭市高砂町2-5-18","kouzui":"○","gake":"○","takashio":"×","jishin":"×","tsunami":"○","kaji":"×","naisui":"×","kazan":"×"}}
,{"type":"Feature","geometry":{"type":"Point","coordinates":[141.033,42.367]},"properties":{"Name":"高砂中央会館","Jusho":"北海道室蘭市高砂町3-11-3","kouzui":"○","gake":"○","takashio":"×","jishin":"×","tsunami":"○","kaji":"×","naisui":"×","kazan":"×"}}
,{"type":"Feature","geometry":{"type":"Point","coordinates":[141.037,42.366]},"properties":{"Name":"高砂３丁目公園","Jusho":"北海道室蘭市高砂町3-14","kouzui":"○","gake":"○","takashio":"×","jishin":"×","tsunami":"○","kaji":"×","naisui":"×","kazan":"×"}}
,{"type":"Feature","geometry":{"type":"Point","coordinates":[141.037,42.366]},