var ishikawa={"type":"FeatureCollection","name":"ishikawa","features":[
{"type":"Feature","geometry":{"type":"Point","coordinates":[136.583,36.552]},"properties":{"Name":"いなほふれあい公園","Jusho":"石川県金沢市いなほ1-8","kouzui":"×","gake":"○","takashio":"×","jishin":"○","tsunami":"○","kaji":"×","naisui":"×","kazan":"×"}}
,{"type":"Feature","geometry":{"type":"Point","coordinates":[136.679,36.527]},"properties":{"Name":"つつじが丘児童公園","Jusho":"石川県金沢市つつじが丘202","kouzui":"×","gake":"×","takashio":"×","jishin":"○","tsunami":"○","kaji":"×","naisui":"×","kazan":"×"}}
,{"type":"Feature","geometry":{"type":"Point","coordinates":[136.672,36.622]},"properties":{"Name":"瑞樹中央公園","Jusho":"石川県金沢市みずき2-262","kouzui":"×","gake":"○","takashio":"×","jishin":"○","tsunami":"○","kaji":"×","naisui":"×","kazan":"×"}}
,{"type":"Feature","geometry":{"type":"Point","coordinates":[136.667,36.623]},"properties":{"Name":"瑞樹西公園","Jusho":"石川県金沢市みずき4-247","kouzui":"×","gake":"○","takashio":"×","jishin":"○","tsunami":"○","kaji":"×","naisui":"×","kazan":"×"}}
,{"type":"Feature","geometry":{"type":"Point","coordinates":[136.591,36.57]},"properties":{"Name":"金沢市立緑小学校","Jusho":"石川県金沢市みどり1-166","kouzui":"○","gake":"○","takashio":"×","jishin":"○","tsunami":"○","kaji":"×","naisui":"×","kazan":"×"}}
,{"type":"Feature","geometry":{"type":"Point","coordinates":[136.591,36.569]},"properties":{"Name":"みどり第２児童公園","Jusho":"石川県金沢市みどり1-172","kouzui":"×","gake":"○","takashio":"×","jishin":"○","tsunami":"○","kaji":"×","naisui":"×","kazan":"×"}}
,{"type":"Feature","geometry":{"type":"Point","coordinates":[136.584,36.571]},"properties":{"Name":"金沢市立緑中学校","Jusho":"石川県金沢市みどり2-3","kouzui":"×","gake":"○","takashio":"×","jishin":"○","tsunami":"○","kaji":"×","naisui":"×","kazan":"×"}}
,{"type":"Feature","geometry":{"type":"Point","coordinates":[136.585,36.568]},"properties":{"Name":"みどり中央公園","Jusho":"石川県金沢市みどり2-58-1","kouzui":"×","gake":"○","takashio":"×","jishin":"○","tsunami":"○","kaji":"×","naisui":"×","kazan":"×"}}
,{"type":"Feature","geometry":{"type":"Point","coordinates":[136.584,36.567]},"properties":{"Name":"みどり庭園公園","Jusho":"石川県金沢市みどり3-22","kouzui":"×","gake":"○","takashio":"×","jishin":"○","tsunami":"○","kaji":"×","naisui":"×","kazan":"×"}}
,{"type":"Feature","geometry":{"type":"Point","coordinates":[136.688,36.552]},"properties":{"Name":"医王の杜公園","Jusho":"石川県金沢市もりの里1-1000","kouzui":"×","gake":"○","takashio":"×","jishin":"○","tsunami":"○","kaji":"×","naisui":"×","kazan":"×"}}
,{"type":"Feature","geometry":{"type":"Point","coordinates":[136.685,36.556]},"properties":{"Name":"浅野川すずかけ公園","Jusho":"石川県金沢市もりの里2-1000","kouzui":"×","gake":"○","takashio":"×","jishin":"○","tsunami":"○","kaji":"×","naisui":"×","kazan":"×"}}
,{"type":"Feature","geometry":{"type":"Point","coordinates":[136.684,36.56]},"properties":{"Name":"鈴見しょうぶ公園","Jusho":"石川県金沢市もりの里3-1000","kouzui":"×","gake":"×","takashio":"×","jishin":"○","tsunami":"○","kaji":"×","naisui":"×","kazan":"×"}}
,{"type":"Feature","geometry":{"type":"Point","coordinates":[136.688,36.551]},"properties":{"Name":"旭町河畔公園","Jusho":"石川県金沢市旭町1-52","kouzui":"×","gake":"○","takashio":"×","jishin":"○","tsunami":"○","kaji":"×","naisui":"×","kazan":"×"}}
,{"type":"Feature","geometry":{"type":"Point","coordinates":[136.684,36.554]},"properties":{"Name":"旭町中央公園","Jusho":"石川県金沢市旭町2-207","kouzui":"×","gake":"○","takashio":"×","jishin":"○","tsunami":"○","kaji":"×","naisui":"×","kazan":"×"}}
,{"type":"Feature","geometry":{"type":"Point","coordinates":[136.681,36.556]},"properties":{"Name":"旭町なかよし公園","Jusho":"石川県金沢市旭町2-8","kouzui":"×","gake":"○","takashio":"×","jishin":"○","tsunami":"○","kaji":"×","naisui":"×","kazan":"×"}}
,{"type":"Feature","geometry":{"type":"Point","coordinates":[136.628,36.626]},"properties":{"Name":"金沢市粟崎公民館","Jusho":"石川県金沢市粟崎町1-3","kouzui":"○","gake":"○","takashio":"×","jishin":"○","tsunami":"○","kaji":"×","naisui":"×","kazan":"×"}}
,{"type":"Feature","geometry":{"type":"Point","coordinates":[136.626,36.628]},"properties":{"Name":"粟崎中央公園","Jusho":"石川県金沢市粟崎町2-247","kouzui":"○","gake":"○","takashio":"×","jishin":"○","tsunami":"○","kaji":"×","naisui":"×","kazan":"×"}}
,{"type":"Feature","geometry":{"type":"Point","coordinates":[136.621,36.627]},"properties":{"Name":"粟崎第１公園","Jusho":"石川県金沢市粟崎町3-242","kouzui":"○","gake":"○","takashio":"×","jishin":"○","tsunami":"○","kaji":"×","naisui":"×","kazan":"×"}}
,{"type":"Feature","geometry":{"type":"Point","coordinates":[136.622,36.634]},"properties":{"Name":"粟崎町４丁目児童公園","Jusho":"石川県金沢市粟崎町4-6","kouzui":"○","gake":"○","takashio":"×","jishin":"○","tsunami":"○","kaji":"×","naisui":"×","kazan":"×"}}
,{"type":"Feature","geometry":{"type":"Point","coordinates":[136.62,36.629]},"properties":{"Name":"金沢市ものづくり会館","Jusho":"石川県金沢市粟崎町4-80-1","kouzui":"○","gake":"○","takashio":"×","jishin":"○","tsunami":"○","kaji":"×","naisui":"×","kazan":"×"}}
,{"type":"Feature","geometry":{"type":"Point","coordinates":[136.625,36.621]},"properties":{"Name":"金沢市立粟崎小学校","Jusho":"石川県金沢市粟崎町ヘ78","kouzui":"○","gake":"○","takashio":"×","jishin":"○","tsunami":"○","kaji":"×","naisui":"×","kazan":"×"}}
,{"type":"Feature","geometry":{"type":"Point","coordinates":[136.631,36.626]},"properties":{"Name":"木谷公園","Jusho":"石川県金沢市粟崎町リ1-1","kouzui":"×","gake":"○","takashio":"×","jishin":"○","tsunami":"×","kaji":"×","naisui":"×","kazan":"×"}}
,{"type":"Feature","geometry":{"type":"Point","coordinates":[136.625,36.592]},"properties":{"Name":"鞍月セントラルパーク","Jusho":"石川県金沢市鞍月1-8","kouzui":"×","gake":"○","takashio":"×","jishin":"○","tsunami":"○","kaji":"×","naisui":"×","kazan":"×"}}
,{"type":"Feature","geometry":{"type":"Point","coordinates":[136.617,36.599]},"properties":{"Name":"西部緑道","Jusho":"石川県金沢市鞍月3-70","kouzui":"×","gake":"○","takashio":"×","jishin":"○","tsunami":"○","kaji":"×","naisui":"×","kazan":"×"}}
,{"type":"Feature","geometry":{"type":"Point","coordinates":[136.621,36.599]},"properties":{"Name":"鞍月広場","Jusho":"石川県金沢市鞍月4-21","kouzui":"×","gake":"○","takashio":"×","jishin":"○","tsunami":"○","kaji":"×","naisui":"×","kazan":"×"}}
,{"type":"Feature","geometry":{"type":"Point","coordinates":[136.622,36.597]},"properties":{"Name":"鞍月磯のひろば公園","Jusho":"石川県金沢市鞍月4-53","kouzui":"×","gake":"○","takashio":"×","jishin":"○","tsunami":"○","kaji":"×","naisui":"×","kazan":"×"}}
,{"type":"Feature","geometry":{"type":"Point","coordinates":[136.658,36.598]},"properties":{"Name":"金沢市城北市民運動公園","Jusho":"石川県金沢市磯部町ニ25-1","kouzui":"×","gake":"○","takashio":"×","jishin":"○","tsunami":"○","kaji":"×","naisui":"×","kazan":"×"}}
,{"type":"Feature","geometry":{"type":"Point","coordinates":[136.66,36.597]},"properties":{"Name":"金沢プール","Jusho":"石川県金沢市磯部町ハ55","kouzui":"○","gake":"○","takashio":"×","jishin":"○","tsunami":"○","kaji":"×","naisui":"×","kazan":"×"}}
,{"type":"Feature","geometry":{"type":"Point","coordinates":[136.639,36.595]},"properties":{"Name":"南新保第２児童公園","Jusho":"石川県金沢市駅西新町2-1101","kouzui":"×","gake":"○","takashio":"×","jishin":"○","tsunami":"○","kaji":"×","naisui":"×","kazan":"×"}}
,{"type":"Feature","geometry":{"type":"Point","coordinates":[136.635,36.592]},"properties":{"Name":"姉妹都市公園","Jusho":"石川県金沢市駅西新町3-1001","kouzui":"×","gake":"○","takashio":"×","jishin":"○","tsunami":"○","kaji":"×","naisui":"×","kazan":"×"}}
,{"type":"Feature","geometry":{"type":"Point","coordinates":[136.637,36.592]},"properties":{"Name":"金沢市立西小学校","Jusho":"石川県金沢市駅西新町3-15-1","kouzui":"○","gake":"○","takashio":"×","jishin":"○","tsunami":"○","kaji":"×","naisui":"×","kazan":"×"}}
,{"type":"Feature","geometry":{"type":"Point","coordinates":[136.64,36.58]},"properties":{"Name":"駅西第３児童公園","Jusho":"石川県金沢市駅西本町1-904","kouzui":"×","gake":"○","takashio":"×","jishin":"○","tsunami":"○","kaji":"×","naisui":"×","kazan":"×"}}
,{"type":"Feature","geometry":{"type":"Point","coordinates":[136.636,36.583]},"properties":{"Name":"駅西第４児童公園","Jusho":"石川県金沢市駅西本町3-406","kouzui":"×","gake":"○","takashio":"×","jishin":"○","tsunami":"○","kaji":"×","naisui":"×","kazan":"×"}}
,{"type":"Feature","geometry":{"type":"Point","coordinates":[136.627,36.586]},"properties":{"Name":"北町児童公園","Jusho":"石川県金沢市駅西本町6-403","kouzui":"×","gake":"○","takashio":"×","jishin":"○","tsunami":"○","kaji":"×","naisui":"×","kazan":"×"}}
,{"type":"Feature","geometry":{"type":"Point","coordinates":[136.614,36.548]},"properties":{"Name":"押野松の木公園","Jusho":"石川県金沢市押野3-525","kouzui":"○","gake":"○","takashio":"×","jishin":"○","tsunami":"○","kaji":"×","naisui":"×","kazan":"×"}}
,{"type":"Feature","geometry":{"type":"Point","coordinates":[136.623,36.535]},"properties":{"Name":"横川日吉児童公園","Jusho":"石川県金沢市横川1-68","kouzui":"×","gake":"○","takashio":"×","jishin":"○","tsunami":"○","kaji":"×","naisui":"×","kazan":"×"}}
,{"type":"Feature","geometry":{"type":"Point","coordinates":[136.63,36.539]},"properties":{"Name":"横川児童公園","Jusho":"石川県金沢市横川4-2","kouzui":"×","gake":"○","takashio":"×","jishin":"○","tsunami":"○","kaji":"×","naisui":"×","kazan":"×"}}
,{"type":"Feature","geometry":{"type":"Point","coordinates":[136.678,36.607]},"properties":{"Name":"横枕はすの里公園","Jusho":"石川県金沢市横枕町ハ80-1","kouzui":"×","gake":"○","takashio":"×","jishin":"○","tsunami":"○","kaji":"×","naisui":"×","kazan":"×"}}
,{"type":"Feature","geometry":{"type":"Point","coordinates":[136.665,36.587]},"properties":{"Name":"金沢市浅野町公民館","Jusho":"石川県金沢市乙丸町甲161","kouzui":"○","gake":"○","takashio":"×","jishin":"○","tsunami":"○","kaji":"×","naisui":"×","kazan":"×"}}
,{"type":"Feature","geometry":{"type":"Point","coordinates":[136.574,36.57]},"properties":{"Name":"安原スポーツ広場","Jusho":"石川県金沢市下安原町東1127","kouzui":"×","gake":"○","takashio":"×","jishin":"○","tsunami":"○","kaji":"×","naisui":"×","kazan":"×"}}
,{"type":"Feature","geometry":{"type":"Point","coordinates":[136.756,36.623]},"properties":{"Name":"旧金沢市立朝日小学校","Jusho":"石川県金沢市加賀朝日町ホ33","kouzui":"○","gake":"○","takashio":"×","jishin":"×","tsunami":"○","kaji":"×","naisui":"×","kazan":"×"}}
,{"type":"Feature","geometry":{"type":"Point","coordinates":[136.711,36.604]},"properties":{"Name":"河原市町みずほ中央公園","Jusho":"石川県金沢市河原市町30","kouzui":"×","gake":"○","takashio":"×","jishin":"○","tsunami":"○","kaji":"×","naisui":"×","kazan":"×"}}
,{"type":"Feature","geometry":{"type":"Point","coordinates":[136.707,36.547]},"properties":{"Name":"金沢大学（角間キャンパス）","Jusho":"石川県金沢市角間町","kouzui":"○","gake":"○","takashio":"×","jishin":"○","tsunami":"○","kaji":"×","naisui":"×","kazan":"×"}}
,{"type":"Feature","geometry":{"type":"Point","coordinates":[136.623,36.511]},"properties":{"Name":"金沢市立額中学校","Jusho":"石川県金沢市額乙丸町イ1","kouzui":"○","gake":"○","takashio":"×","jishin":"○","tsunami":"○","kaji":"×","naisui":"×","kazan":"×"}}
,{"type":"Feature","geometry":{"type":"Point","coordinates":[136.622,36.51]},"properties":{"Name":"金沢市立額小学校","Jusho":"石川県金沢市額乙丸町イ55","kouzui":"○","gake":"○","takashio":"×","jishin":"○","tsunami":"○","kaji":"×","naisui":"×","kazan":"×"}}
,{"type":"Feature","geometry":{"type":"Point","coordinates":[136.618,36.511]},"properties":{"Name":"額乙丸児童公園","Jusho":"石川県金沢市額乙丸町ハ151","kouzui":"×","gake":"○","takashio":"×","jishin":"○","tsunami":"○","kaji":"×","naisui":"×","kazan":"×"}}
,{"type":"Feature","geometry":{"type":"Point","coordinates":[136.621,36.519]},"properties":{"Name":"額新町１丁目緑地","Jusho":"石川県金沢市額新町1-183","kouzui":"×","gake":"○","takashio":"×","jishin":"○","tsunami":"○","kaji":"×","naisui":"×","kazan":"×"}}
,{"type":"Feature","geometry":{"type":"Point","coordinates":[136.624,36.519]},"properties":{"Name":"額新町第２公園","Jusho":"石川県金沢市額新町1-217","kouzui":"×","gake":"○","takashio":"×","jishin":"○","tsunami":"○","kaji":"×","naisui":"×","kazan":"×"}}
,{"type":"Feature","geometry":{"type":"Point","coordinates":[136.62,36.518]},"properties":{"Name":"あすなろ公園","Jusho":"石川県金沢市額新町1-26","kouzui":"×","gake":"○","takashio":"×","jishin":"○","tsunami":"○","kaji":"×","naisui":"×","kazan":"×"}}
,{"type":"Feature","geometry":{"type":"Point","coordinates":[136.62,36.516]},"properties":{"Name":"額新町２丁目緑地","Jusho":"石川県金沢市額新町2-49","kouzui":"×","gake":"○","takashio":"×","jishin":"○","tsunami":"○","kaji":"×","naisui":"×","kazan":"×"}}
,{"type":"Feature","geometry":{"type":"Point","coordinates":[136.62,36.517]},"properties":{"Name":"額新町第３児童公園","Jusho":"石川県金沢市額新町2-77-1","kouzui":"×","gake":"○","takashio":"×","jishin":"○","tsunami":"○","kaji":"×","naisui":"×","kazan":"×"}}
,{"type":"Feature","geometry":{"type":"Point","coordinates":[136.616,36.516]},"properties":{"Name":"額新保中央公園","Jusho":"石川県金沢市額新保2-350","kouzui":"×","gake":"○","takashio":"×","jishin":"○","tsunami":"○","kaji":"×","naisui":"×","kazan":"×"}}
,{"type":"Feature","geometry":{"type":"Point","coordinates":[136.626,36.512]},"properties":{"Name":"額せせらぎ公園","Jusho":"石川県金沢市額谷1-1","kouzui":"○","gake":"○","takashio":"×","jishin":"○","tsunami":"○","kaji":"×","naisui":"×","kazan":"×"}}
,{"type":"Feature","geometry":{"type":"Point","coordinates":[136.626,36.509]},"properties":{"Name":"額谷第１児童公園","Jusho":"石川県金沢市額谷2-49","kouzui":"○","gake":"○","takashio":"×","jishin":"○","tsunami":"○","kaji":"×","naisui":"×","kazan":"×"}}
,{"type":"Feature","geometry":{"type":"Point","coordinates":[136.624,36.511]},"properties":{"Name":"金沢市額公民館","Jusho":"石川県金沢市額谷3-1-1","kouzui":"○","gake":"○","takashio":"×","jishin":"○","tsunami":"○","kaji":"×","naisui":"×","kazan":"×"}}
,{"type":"Feature","geometry":{"type":"Point","coordinates":[136.629,36.51]},"properties":{"Name":"金沢市老人福祉センター鶴寿園","Jusho":"石川県金沢市額谷町ヌ1","kouzui":"○","gake":"○","takashio":"×","jishin":"○","tsunami":"○","kaji":"×","naisui":"×","kazan":"×"}}
,{"type":"Feature","geometry":{"type":"Point","coordinates":[136.63,36.509]},"properties":{"Name":"額谷ふれあい公園","Jusho":"石川県金沢市額谷町ヌ16","kouzui":"×","gake":"×","takashio":"×","jishin":"○","tsunami":"○","kaji":"×","naisui":"×","kazan":"×"}}
,{"type":"Feature","geometry":{"type":"Point","coordinates":[136.63,36.509]},"properties":{"Name":"金沢市額谷ふれあい体育館","Jusho":"石川県金沢市額谷町ヌ16","kouzui":"○","gake":"×","takashio":"×","jishin":"○","tsunami":"○","kaji":"×","naisui":"×","kazan":"×"}}
,{"type":"Feature","geometry":{"type":"Point","coordinates":[136.629,36.509]},"properties":{"Name":"金沢市営額谷運動広場","Jusho":"石川県金沢市額谷町ホ2-3","kouzui":"×","gake":"×","takashio":"×","jishin":"○","tsunami":"○","kaji":"×","naisui":"×","kazan":"×"}}
,{"type":"Feature","geometry":{"type":"Point","coordinates":[136.675,36.548]},"properties":{"Name":"笠舞第３児童公園","Jusho":"石川県金沢市笠舞1-234","kouzui":"○","gake":"○","takashio":"×","jishin":"○","tsunami":"○","kaji":"×","naisui":"×","kazan":"×"}}
,{"type":"Feature","geometry":{"type":"Point","coordinates":[136.673,36.549]},"properties":{"Name":"笠舞第２児童公園","Jusho":"石川県金沢市笠舞1-414","kouzui":"○","gake":"○","takashio":"×","jishin":"○","tsunami":"○","kaji":"×","naisui":"×","kazan":"×"}}
,{"type":"Feature","geometry":{"type":"Point","coordinates":[136.64,36.603]},"properties":{"Name":"割出町公園","Jusho":"石川県金沢市割出町418","kouzui":"×","gake":"○","takashio":"×","jishin":"○","tsunami":"○","kaji":"×","naisui":"×","kazan":"×"}}
,{"type":"Feature","geometry":{"type":"Point","coordinates":[136.607,36.59]},"properties":{"Name":"金沢市立大徳中学校","Jusho":"石川県金沢市観音堂町ト35","kouzui":"○","gake":"○","takashio":"×","jishin":"○","tsunami":"○","kaji":"×","naisui":"×","kazan":"×"}}
,{"type":"Feature","geometry":{"type":"Point","coordinates":[136.618,36.565]},"properties":{"Name":"金沢市米丸公民館","Jusho":"石川県金沢市間明町2-72","kouzui":"○","gake":"○","takashio":"×","jishin":"○","tsunami":"○","kaji":"×","naisui":"×","kazan":"×"}}
,{"type":"Feature","geometry":{"type":"Point","coordinates":[136.66,36.568]},"properties":{"Name":"金沢城公園","Jusho":"石川県金沢市丸の内1-1","kouzui":"○","gake":"○","takashio":"×","jishin":"○","tsunami":"○","kaji":"×","naisui":"×","kazan":"×"}}
,{"type":"Feature","geometry":{"type":"Point","coordinates":[136.662,36.55]},"properties":{"Name":"金沢市立犀桜小学校","Jusho":"石川県金沢市菊川1-2-15","kouzui":"×","gake":"○","takashio":"×","jishin":"○","tsunami":"○","kaji":"×","naisui":"×","kazan":"×"}}
,{"type":"Feature","geometry":{"type":"Point","coordinates":[136.66,36.551]},"properties":{"Name":"金沢市菊川町公民館","Jusho":"石川県金沢市菊川2-3-3","kouzui":"×","gake":"○","takashio":"×","jishin":"○","tsunami":"○","kaji":"×","naisui":"×","kazan":"×"}}
,{"type":"Feature","geometry":{"type":"Point","coordinates":[136.692,36.61]},"properties":{"Name":"吉原児童公園","Jusho":"石川県金沢市吉原町ヨ23","kouzui":"○","gake":"○","takashio":"×","jishin":"○","tsunami":"○","kaji":"×","naisui":"×","kazan":"×"}}
,{"type":"Feature","geometry":{"type":"Point","coordinates":[136.693,36.607]},"properties":{"Name":"石川県立金沢北陵高等学校","Jusho":"石川県金沢市吉原町ワ21","kouzui":"○","gake":"○","takashio":"×","jishin":"○","tsunami":"○","kaji":"×","naisui":"×","kazan":"×"}}
,{"type":"Feature","geometry":{"type":"Point","coordinates":[136.632,36.533]},"properties":{"Name":"久安伏見公園","Jusho":"石川県金沢市久安1-489","kouzui":"×","gake":"○","takashio":"×","jishin":"○","tsunami":"○","kaji":"×","naisui":"×","kazan":"×"}}
,{"type":"Feature","geometry":{"type":"Point","coordinates":[136.629,36.533]},"properties":{"Name":"国際高等専門学校","Jusho":"石川県金沢市久安2-270","kouzui":"○","gake":"○","takashio":"×","jishin":"○","tsunami":"○","kaji":"×","naisui":"×","kazan":"×"}}
,{"type":"Feature","geometry":{"type":"Point","coordinates":[136.631,36.533]},"properties":{"Name":"久安殿屋敷公園","Jusho":"石川県金沢市久安2-281","kouzui":"×","gake":"○","takashio":"×","jishin":"○","tsunami":"○","kaji":"×","naisui":"×","kazan":"×"}}
,{"type":"Feature","geometry":{"type":"Point","coordinates":[136.634,36.544]},"properties":{"Name":"金沢市立三馬小学校","Jusho":"石川県金沢市久安6-154","kouzui":"○","gake":"○","takashio":"×","jishin":"○","tsunami":"○","kaji":"×","naisui":"×","kazan":"×"}}
,{"type":"Feature","geometry":{"type":"Point","coordinates":[136.635,36.542]},"properties":{"Name":"金沢市三馬公民館","Jusho":"石川県金沢市久安6-59-1","kouzui":"○","gake":"○","takashio":"×","jishin":"○","tsunami":"○","kaji":"×","naisui":"×","kazan":"×"}}
,{"type":"Feature","geometry":{"type":"Point","coordinates":[136.737,36.596]},"properties":{"Name":"金沢市立三谷小学校","Jusho":"石川県金沢市宮野町ニ277","kouzui":"×","gake":"○","takashio":"×","jishin":"○","tsunami":"○","kaji":"×","naisui":"×","kazan":"×"}}
,{"type":"Feature","geometry":{"type":"Point","coordinates":[136.737,36.597]},"properties":{"Name":"金沢市三谷公民館","Jusho":"石川県金沢市宮野町ホ79","kouzui":"×","gake":"○","takashio":"×","jishin":"○","tsunami":"○","kaji":"×","naisui":"×","kazan":"×"}}
,{"type":"Feature","geometry":{"type":"Point","coordinates":[136.64,36.611]},"properties":{"Name":"弓取町児童公園","Jusho":"石川県金沢市弓取町172","kouzui":"×","gake":"○","takashio":"×","jishin":"○","tsunami":"○","kaji":"×","naisui":"×","kazan":"×"}}
,{"type":"Feature","geometry":{"type":"Point","coordinates":[136.659,36.582]},"properties":{"Name":"金沢市立浅野町小学校","Jusho":"石川県金沢市京町35-1","kouzui":"○","gake":"○","takashio":"×","jishin":"○","tsunami":"○","kaji":"×","naisui":"×","kazan":"×"}}
,{"type":"Feature","geometry":{"type":"Point","coordinates":[136.658,36.584]},"properties":{"Name":"浅野本町第３児童公園","Jusho":"石川県金沢市京町59","kouzui":"×","gake":"○","takashio":"×","jishin":"○","tsunami":"○","kaji":"×","naisui":"×","kazan":"×"}}
,{"type":"Feature","geometry":{"type":"Point","coordinates":[136.651,36.569]},"properties":{"Name":"玉川公園","Jusho":"石川県金沢市玉川町11-3","kouzui":"×","gake":"○","takashio":"×","jishin":"○","tsunami":"○","kaji":"×","naisui":"×","kazan":"×"}}
,{"type":"Feature","geometry":{"type":"Point","coordinates":[136.651,36.57]},"properties":{"Name":"金沢市立中央小学校","Jusho":"石川県金沢市玉川町2-1","kouzui":"○","gake":"○","takashio":"×","jishin":"○","tsunami":"○","kaji":"×","naisui":"×","kazan":"×"}}
,{"type":"Feature","geometry":{"type":"Point","coordinates":[136.623,36.574]},"properties":{"Name":"玉鉾公園","Jusho":"石川県金沢市玉鉾2-361","kouzui":"×","gake":"○","takashio":"×","jishin":"○","tsunami":"○","kaji":"×","naisui":"×","kazan":"×"}}
,{"type":"Feature","geometry":{"type":"Point","coordinates":[136.628,36.61]},"properties":{"Name":"金沢市立港中学校","Jusho":"石川県金沢市近岡町217","kouzui":"○","gake":"○","takashio":"×","jishin":"○","tsunami":"○","kaji":"×","naisui":"×","kazan":"×"}}
,{"type":"Feature","geometry":{"type":"Point","coordinates":[136.682,36.611]},"properties":{"Name":"金市やすらぎ公園","Jusho":"石川県金沢市金市町ニ12-1","kouzui":"×","gake":"○","takashio":"×","jishin":"○","tsunami":"○","kaji":"×","naisui":"×","kazan":"×"}}
,{"type":"Feature","geometry":{"type":"Point","coordinates":[136.594,36.604]},"properties":{"Name":"金沢市金石町公民館","Jusho":"石川県金沢市金石西4-5-30","kouzui":"○","gake":"○","takashio":"×","jishin":"○","tsunami":"○","kaji":"×","naisui":"×","kazan":"×"}}
,{"type":"Feature","geometry":{"type":"Point","coordinates":[136.597,36.6]},"properties":{"Name":"金沢市立金石中学校","Jusho":"石川県金沢市金石東1-13-1","kouzui":"○","gake":"○","takashio":"×","jishin":"○","tsunami":"○","kaji":"×","naisui":"×","kazan":"×"}}
,{"type":"Feature","geometry":{"type":"Point","coordinates":[136.597,36.608]},"properties":{"Name":"金石銭五公園","Jusho":"石川県金沢市金石北2-147","kouzui":"○","gake":"○","takashio":"×","jishin":"○","tsunami":"○","kaji":"×","naisui":"×","kazan":"×"}}
,{"type":"Feature","geometry":{"type":"Point","coordinates":[136.599,36.608]},"properties":{"Name":"金沢市老人福祉センター松寿荘","Jusho":"石川県金沢市金石北3-3-33","kouzui":"○","gake":"○","takashio":"×","jishin":"○","tsunami":"○","kaji":"×","naisui":"×","kazan":"×"}}
,{"type":"Feature","geometry":{"type":"Point","coordinates":[136.599,36.609]},"properties":{"Name":"金沢市立金石町小学校","Jusho":"石川県金沢市金石北4-1-1","kouzui":"○","gake":"○","takashio":"×","jishin":"○","tsunami":"○","kaji":"×","naisui":"×","kazan":"×"}}
,{"type":"Feature","geometry":{"type":"Point","coordinates":[136.597,36.596]},"properties":{"Name":"大野湊緑地公園","Jusho":"石川県金沢市金石本町ロ55","kouzui":"×","gake":"○","takashio":"×","jishin":"○","tsunami":"○","kaji":"×","naisui":"×","kazan":"×"}}
,{"type":"Feature","geometry":{"type":"Point","coordinates":[136.728,36.483]},"properties":{"Name":"駒帰資料保管所（旧駒帰小学校）","Jusho":"石川県金沢市駒帰町ヌ40-1","kouzui":"○","gake":"×","takashio":"×","jishin":"×","tsunami":"○","kaji":"×","naisui":"×","kazan":"×"}}
,{"type":"Feature","geometry":{"type":"Point","coordinates":[136.64,36.527]},"properties":{"Name":"窪伏見台公園","Jusho":"石川県金沢市窪4-547","kouzui":"○","gake":"○","takashio":"×","jishin":"○","tsunami":"○","kaji":"×","naisui":"×","kazan":"×"}}
,{"type":"Feature","geometry":{"type":"Point","coordinates":[136.638,36.527]},"properties":{"Name":"金沢市立伏見台小学校","Jusho":"石川県金沢市窪5-335","kouzui":"○","gake":"○","takashio":"×","jishin":"○","tsunami":"○","kaji":"×","naisui":"×","kazan":"×"}}
,{"type":"Feature","geometry":{"type":"Point","coordinates":[136.638,36.526]},"properties":{"Name":"金沢市伏見台公民館","Jusho":"石川県金沢市窪5-675","kouzui":"○","gake":"○","takashio":"×","jishin":"○","tsunami":"○","kaji":"×","naisui":"×","kazan":"×"}}
,{"type":"Feature","geometry":{"type":"Point","coordinates":[136.641,36.53]},"properties":{"Name":"石川県立金沢錦丘高等学校・中学校","Jusho":"石川県金沢市窪6-218","kouzui":"×","gake":"○","takashio":"×","jishin":"○","tsunami":"○","kaji":"×","naisui":"×","kazan":"×"}}
,{"type":"Feature","geometry":{"type":"Point","coordinates":[136.639,36.531]},"properties":{"Name":"窪錦丘公園","Jusho":"石川県金沢市窪7-309","kouzui":"×","gake":"○","takashio":"×","jishin":"○","tsunami":"○","kaji":"×","naisui":"×","kazan":"×"}}
,{"type":"Feature","geometry":{"type":"Point","coordinates":[136.666,36.566]},"properties":{"Name":"金沢市立兼六小学校","Jusho":"石川県金沢市兼六元町7-15","kouzui":"○","gake":"○","takashio":"×","jishin":"○","tsunami":"○","kaji":"×","naisui":"×","kazan":"×"}}
,{"type":"Feature","geometry":{"type":"Point","coordinates":[136.665,36.566]},"properties":{"Name":"金沢市味噌蔵町公民館","Jusho":"石川県金沢市兼六元町7-19","kouzui":"○","gake":"○","takashio":"×","jishin":"○","tsunami":"○","kaji":"×","naisui":"×","kazan":"×"}}
,{"type":"Feature","geometry":{"type":"Point","coordinates":[136.663,36.581]},"properties":{"Name":"元町第３児童公園","Jusho":"石川県金沢市元町2-137","kouzui":"×","gake":"○","takashio":"×","jishin":"○","tsunami":"○","kaji":"×","naisui":"×","kazan":"×"}}
,{"type":"Feature","geometry":{"type":"Point","coordinates":[136.61,36.567]},"properties":{"Name":"古府徳代公園","Jusho":"石川県金沢市古府2-4","kouzui":"×","gake":"○","takashio":"×","jishin":"○","tsunami":"○","kaji":"×","naisui":"×","kazan":"×"}}
,{"type":"Feature","geometry":{"type":"Point","coordinates":[136.608,36.571]},"properties":{"Name":"古府中央公園","Jusho":"石川県金沢市古府3-95","kouzui":"×","gake":"○","takashio":"×","jishin":"○","tsunami":"○","kaji":"×","naisui":"×","kazan":"×"}}
,{"type":"Feature","geometry":{"type":"Point","coordinates":[136.611,36.56]},"properties":{"Name":"古府町第１児童公園","Jusho":"石川県金沢市古府町南851","kouzui":"×","gake":"○","takashio":"×","jishin":"○","tsunami":"○","kaji":"×","naisui":"×","kazan":"×"}}
,{"type":"Feature","geometry":{"type":"Point","coordinates":[136.733,36.546]},"properties":{"Name":"金沢市戸室スポーツ広場","Jusho":"石川県金沢市戸室新保ト35","kouzui":"○","gake":"○","takashio":"×","jishin":"○","tsunami":"○","kaji":"×","naisui":"×","kazan":"×"}}
,{"type":"Feature","geometry":{"type":"Point","coordinates":[136.621,36.603]},"properties":{"Name":"戸水船のひろば公園","Jusho":"石川県金沢市戸水1-400","kouzui":"×","gake":"○","takashio":"×","jishin":"○","tsunami":"○","kaji":"×","naisui":"×","kazan":"×"}}
,{"type":"Feature","geometry":{"type":"Point","coordinates":[136.623,36.579]},"properties":{"Name":"金沢市立戸板小学校","Jusho":"石川県金沢市戸板1-1","kouzui":"○","gake":"○","takashio":"×","jishin":"○","tsunami":"○","kaji":"×","naisui":"×","kazan":"×"}}
,{"type":"Feature","geometry":{"type":"Point","coordinates":[136.623,36.58]},"properties":{"Name":"金沢市戸板公民館","Jusho":"石川県金沢市戸板1-2","kouzui":"○","gake":"○","takashio":"×","jishin":"○","tsunami":"○","kaji":"×","naisui":"×","kazan":"×"}}
,{"type":"Feature","geometry":{"type":"Point","coordinates":[136.626,36.581]},"properties":{"Name":"戸板東公園","Jusho":"石川県金沢市戸板4-19","kouzui":"×","gake":"○","takashio":"×","jishin":"○","tsunami":"○","kaji":"×","naisui":"×","kazan":"×"}}
,{"type":"Feature","geometry":{"type":"Point","coordinates":[136.623,36.582]},"properties":{"Name":"戸板公園","Jusho":"石川県金沢市戸板5-87","kouzui":"×","gake":"○","takashio":"×","jishin":"○","tsunami":"○","kaji":"×","naisui":"×","kazan":"×"}}
,{"type":"Feature","geometry":{"type":"Point","coordinates":[136.688,36.626]},"properties":{"Name":"湖陽児童公園","Jusho":"石川県金沢市湖陽1-133","kouzui":"×","gake":"○","takashio":"×","jishin":"○","tsunami":"○","kaji":"×","naisui":"×","kazan":"×"}}
,{"type":"Feature","geometry":{"type":"Point","coordinates":[136.689,36.627]},"properties":{"Name":"湖陽緑道公園","Jusho":"石川県金沢市湖陽1-79","kouzui":"×","gake":"○","takashio":"×","jishin":"○","tsunami":"○","kaji":"×","naisui":"×","kazan":"×"}}
,{"type":"Feature","geometry":{"type":"Point","coordinates":[136.697,36.58]},"properties":{"Name":"御所さくら公園","Jusho":"石川県金沢市御所町1-407","kouzui":"○","gake":"○","takashio":"×","jishin":"○","tsunami":"○","kaji":"×","naisui":"×","kazan":"×"}}
,{"type":"Feature","geometry":{"type":"Point","coordinates":[136.692,36.581]},"properties":{"Name":"御所かつら公園","Jusho":"石川県金沢市御所町1-42","kouzui":"○","gake":"○","takashio":"×","jishin":"○","tsunami":"○","kaji":"×","naisui":"×","kazan":"×"}}
,{"type":"Feature","geometry":{"type":"Point","coordinates":[136.7,36.581]},"properties":{"Name":"御所ひがし公園","Jusho":"石川県金沢市御所町2-172","kouzui":"○","gake":"○","takashio":"×","jishin":"○","tsunami":"○","kaji":"×","naisui":"×","kazan":"×"}}
,{"type":"Feature","geometry":{"type":"Point","coordinates":[136.697,36.582]},"properties":{"Name":"御所にし公園","Jusho":"石川県金沢市御所町2-189","kouzui":"○","gake":"○","takashio":"×","jishin":"○","tsunami":"○","kaji":"×","naisui":"×","kazan":"×"}}
,{"type":"Feature","geometry":{"type":"Point","coordinates":[136.682,36.584]},"properties":{"Name":"金沢星稜大学","Jusho":"石川県金沢市御所町丑10-1","kouzui":"×","gake":"×","takashio":"×","jishin":"○","tsunami":"○","kaji":"×","naisui":"×","kazan":"×"}}
,{"type":"Feature","geometry":{"type":"Point","coordinates":[136.626,36.521]},"properties":{"Name":"光が丘１丁目児童公園","Jusho":"石川県金沢市光が丘1-67","kouzui":"×","gake":"○","takashio":"×","jishin":"○","tsunami":"○","kaji":"×","naisui":"×","kazan":"×"}}
,{"type":"Feature","geometry":{"type":"Point","coordinates":[136.628,36.516]},"properties":{"Name":"光が丘中央公園","Jusho":"石川県金沢市光が丘2-105","kouzui":"○","gake":"○","takashio":"×","jishin":"○","tsunami":"○","kaji":"×","naisui":"×","kazan":"×"}}
,{"type":"Feature","geometry":{"type":"Point","coordinates":[136.627,36.513]},"properties":{"Name":"光が丘３丁目児童公園","Jusho":"石川県金沢市光が丘3-19","kouzui":"○","gake":"○","takashio":"×","jishin":"○","tsunami":"○","kaji":"×","naisui":"×","kazan":"×"}}
,{"type":"Feature","geometry":{"type":"Point","coordinates":[136.643,36.578]},"properties":{"Name":"駅西第１児童公園","Jusho":"石川県金沢市広岡2-802","kouzui":"×","gake":"○","takashio":"×","jishin":"○","tsunami":"○","kaji":"×","naisui":"×","kazan":"×"}}
,{"type":"Feature","geometry":{"type":"Point","coordinates":[136.656,36.563]},"properties":{"Name":"いしかわ四高記念公園","Jusho":"石川県金沢市広坂2","kouzui":"○","gake":"○","takashio":"×","jishin":"○","tsunami":"○","kaji":"×","naisui":"×","kazan":"×"}}
,{"type":"Feature","geometry":{"type":"Point","coordinates":[136.685,36.616]},"properties":{"Name":"荒屋八幡公園","Jusho":"石川県金沢市荒屋1-96","kouzui":"×","gake":"○","takashio":"×","jishin":"○","tsunami":"○","kaji":"×","naisui":"×","kazan":"×"}}
,{"type":"Feature","geometry":{"type":"Point","coordinates":[136.652,36.567]},"properties":{"Name":"金沢市文化ホール","Jusho":"石川県金沢市高岡町15-1","kouzui":"○","gake":"○","takashio":"×","jishin":"○","tsunami":"○","kaji":"×","naisui":"×","kazan":"×"}}
,{"type":"Feature","geometry":{"type":"Point","coordinates":[136.653,36.57]},"properties":{"Name":"松ヶ枝緑地","Jusho":"石川県金沢市高岡町188-2","kouzui":"○","gake":"○","takashio":"×","jishin":"○","tsunami":"○","kaji":"×","naisui":"×","kazan":"×"}}
,{"type":"Feature","geometry":{"type":"Point","coordinates":[136.653,36.57]},"properties":{"Name":"金沢市松ヶ枝公民館","Jusho":"石川県金沢市高岡町7-23","kouzui":"○","gake":"○","takashio":"×","jishin":"○","tsunami":"○","kaji":"×","naisui":"×","kazan":"×"}}
,{"type":"Feature","geometry":{"type":"Point","coordinates":[136.613,36.571]},"properties":{"Name":"高畠第２児童公園","Jusho":"石川県金沢市高畠1-262","kouzui":"×","gake":"○","takashio":"×","jishin":"○","tsunami":"○","kaji":"×","naisui":"×","kazan":"×"}}
,{"type":"Feature","geometry":{"type":"Point","coordinates":[136.616,36.57]},"properties":{"Name":"米丸中央公園","Jusho":"石川県金沢市高畠1-382","kouzui":"×","gake":"○","takashio":"×","jishin":"○","tsunami":"○","kaji":"×","naisui":"×","kazan":"×"}}
,{"type":"Feature","geometry":{"type":"Point","coordinates":[136.634,36.523]},"properties":{"Name":"金沢市立高尾台中学校","Jusho":"石川県金沢市高尾台1-128","kouzui":"○","gake":"○","takashio":"×","jishin":"○","tsunami":"○","kaji":"×","naisui":"×","kazan":"×"}}
,{"type":"Feature","geometry":{"type":"Point","coordinates":[136.636,36.522]},"properties":{"Name":"的場公園","Jusho":"石川県金沢市高尾台1-354","kouzui":"×","gake":"×","takashio":"×","jishin":"○","tsunami":"○","kaji":"×","naisui":"×","kazan":"×"}}
,{"type":"Feature","geometry":{"type":"Point","coordinates":[136.63,36.521]},"properties":{"Name":"高尾中央公園","Jusho":"石川県金沢市高尾台3-143","kouzui":"○","gake":"○","takashio":"×","jishin":"○","tsunami":"○","kaji":"×","naisui":"×","kazan":"×"}}
,{"type":"Feature","geometry":{"type":"Point","coordinates":[136.627,36.523]},"properties":{"Name":"城谷公園","Jusho":"石川県金沢市高尾台4-57","kouzui":"×","gake":"○","takashio":"×","jishin":"○","tsunami":"○","kaji":"×","naisui":"×","kazan":"×"}}
,{"type":"Feature","geometry":{"type":"Point","coordinates":[136.634,36.515]},"properties":{"Name":"高尾第３児童公園","Jusho":"石川県金沢市高尾南1-165","kouzui":"×","gake":"×","takashio":"×","jishin":"○","tsunami":"○","kaji":"×","naisui":"×","kazan":"×"}}
,{"type":"Feature","geometry":{"type":"Point","coordinates":[136.631,36.517]},"properties":{"Name":"高尾南ゆうあい公園","Jusho":"石川県金沢市高尾南2-119","kouzui":"○","gake":"○","takashio":"×","jishin":"○","tsunami":"○","kaji":"×","naisui":"×","kazan":"×"}}
,{"type":"Feature","geometry":{"type":"Point","coordinates":[136.616,36.561]},"properties":{"Name":"黒田児童公園","Jusho":"石川県金沢市黒田1-9","kouzui":"×","gake":"○","takashio":"×","jishin":"○","tsunami":"○","kaji":"×","naisui":"×","kazan":"×"}}
,{"type":"Feature","geometry":{"type":"Point","coordinates":[136.652,36.577]},"properties":{"Name":"此花町緑地","Jusho":"石川県金沢市此花町149-1","kouzui":"×","gake":"○","takashio":"×","jishin":"○","tsunami":"○","kaji":"×","naisui":"×","kazan":"×"}}
,{"type":"Feature","geometry":{"type":"Point","coordinates":[136.652,36.577]},"properties":{"Name":"金沢市此花町公民館","Jusho":"石川県金沢市此花町2-7","kouzui":"○","gake":"○","takashio":"×","jishin":"○","tsunami":"○","kaji":"×","naisui":"×","kazan":"×"}}
,{"type":"Feature","geometry":{"type":"Point","coordinates":[136.708,36.633]},"properties":{"Name":"金沢市花園公民館","Jusho":"石川県金沢市今町チ41","kouzui":"○","gake":"○","takashio":"×","jishin":"○","tsunami":"○","kaji":"×","naisui":"×","kazan":"×"}}
,{"type":"Feature","geometry":{"type":"Point","coordinates":[136.708,36.633]},"properties":{"Name":"金沢市立花園小学校","Jusho":"石川県金沢市今町ヌ34","kouzui":"○","gake":"○","takashio":"×","jishin":"○","tsunami":"○","kaji":"×","naisui":"×","kazan":"×"}}
,{"type":"Feature","geometry":{"type":"Point","coordinates":[136.668,36.567]},"properties":{"Name":"金沢市材木公民館","Jusho":"石川県金沢市材木町13-11","kouzui":"○","gake":"○","takashio":"×","jishin":"○","tsunami":"○","kaji":"×","naisui":"×","kazan":"×"}}
,{"type":"Feature","geometry":{"type":"Point","coordinates":[136.668,36.567]},"properties":{"Name":"旧材木町小学校体育館","Jusho":"石川県金沢市材木町13-12","kouzui":"○","gake":"○","takashio":"×","jishin":"○","tsunami":"○","kaji":"×","naisui":"×","kazan":"×"}}
,{"type":"Feature","geometry":{"type":"Point","coordinates":[136.62,36.579]},"properties":{"Name":"桜田中央公園","Jusho":"石川県金沢市桜田町1-116","kouzui":"×","gake":"○","takashio":"×","jishin":"○","tsunami":"○","kaji":"×","naisui":"×","kazan":"×"}}
,{"type":"Feature","geometry":{"type":"Point","coordinates":[136.621,36.577]},"properties":{"Name":"桜田南児童公園","Jusho":"石川県金沢市桜田町2-65","kouzui":"×","gake":"○","takashio":"×","jishin":"○","tsunami":"○","kaji":"×","naisui":"×","kazan":"×"}}
,{"type":"Feature","geometry":{"type":"Point","coordinates":[136.681,36.54]},"properties":{"Name":"三口新町第２児童公園","Jusho":"石川県金沢市三口新町2-145","kouzui":"○","gake":"○","takashio":"×","jishin":"○","tsunami":"○","kaji":"×","naisui":"×","kazan":"×"}}
,{"type":"Feature","geometry":{"type":"Point","coordinates":[136.681,36.544]},"properties":{"Name":"三口新町第１児童公園","Jusho":"石川県金沢市三口新町3-294","kouzui":"○","gake":"○","takashio":"×","jishin":"○","tsunami":"○","kaji":"×","naisui":"×","kazan":"×"}}
,{"type":"Feature","geometry":{"type":"Point","coordinates":[136.677,36.544]},"properties":{"Name":"三口新町第３児童公園","Jusho":"石川県金沢市三口新町4-266","kouzui":"○","gake":"○","takashio":"×","jishin":"○","tsunami":"○","kaji":"×","naisui":"×","kazan":"×"}}
,{"type":"Feature","geometry":{"type":"Point","coordinates":[136.64,36.608]},"properties":{"Name":"三口町第１児童公園","Jusho":"石川県金沢市三口町火237","kouzui":"×","gake":"○","takashio":"×","jishin":"○","tsunami":"○","kaji":"×","naisui":"×","kazan":"×"}}
,{"type":"Feature","geometry":{"type":"Point","coordinates":[136.646,36.571]},"properties":{"Name":"金沢市女性センター","Jusho":"石川県金沢市三社町1-44","kouzui":"○","gake":"○","takashio":"×","jishin":"○","tsunami":"○","kaji":"×","naisui":"×","kazan":"×"}}
,{"type":"Feature","geometry":{"type":"Point","coordinates":[136.642,36.57]},"properties":{"Name":"神保緑地","Jusho":"石川県金沢市三社町373-11","kouzui":"×","gake":"○","takashio":"×","jishin":"○","tsunami":"○","kaji":"×","naisui":"×","kazan":"×"}}
,{"type":"Feature","geometry":{"type":"Point","coordinates":[136.615,36.507]},"properties":{"Name":"三十苅中央公園","Jusho":"石川県金沢市三十苅町丁154","kouzui":"×","gake":"○","takashio":"×","jishin":"○","tsunami":"○","kaji":"×","naisui":"×","kazan":"×"}}
,{"type":"Feature","geometry":{"type":"Point","coordinates":[136.619,36.508]},"properties":{"Name":"三十苅児童公園","Jusho":"石川県金沢市三十苅町丙184","kouzui":"×","gake":"○","takashio":"×","jishin":"○","tsunami":"○","kaji":"×","naisui":"×","kazan":"×"}}
,{"type":"Feature","geometry":{"type":"Point","coordinates":[136.675,36.51]},"properties":{"Name":"金沢市内川公民館","Jusho":"石川県金沢市三小牛町20-1-10","kouzui":"○","gake":"○","takashio":"×","jishin":"○","tsunami":"○","kaji":"×","naisui":"×","kazan":"×"}}
,{"type":"Feature","geometry":{"type":"Point","coordinates":[136.67,36.518]},"properties":{"Name":"北陸学院大学","Jusho":"石川県金沢市三小牛町イ11","kouzui":"○","gake":"○","takashio":"×","jishin":"○","tsunami":"○","kaji":"×","naisui":"×","kazan":"×"}}
,{"type":"Feature","geometry":{"type":"Point","coordinates":[136.672,36.518]},"properties":{"Name":"北陸学院小学校","Jusho":"石川県金沢市三小牛町イ11","kouzui":"○","gake":"○","takashio":"×","jishin":"○","tsunami":"○","kaji":"×","naisui":"×","kazan":"×"}}
,{"type":"Feature","geometry":{"type":"Point","coordinates":[136.673,36.596]},"properties":{"Name":"三池はすのみ公園","Jusho":"石川県金沢市三池栄町201","kouzui":"×","gake":"○","takashio":"×","jishin":"○","tsunami":"○","kaji":"×","naisui":"×","kazan":"×"}}
,{"type":"Feature","geometry":{"type":"Point","coordinates":[136.669,36.597]},"properties":{"Name":"三池はすの里公園","Jusho":"石川県金沢市三池栄町346","kouzui":"×","gake":"○","takashio":"×","jishin":"○","tsunami":"○","kaji":"×","naisui":"×","kazan":"×"}}
,{"type":"Feature","geometry":{"type":"Point","coordinates":[136.671,36.593]},"properties":{"Name":"東金沢駅前かがやき公園","Jusho":"石川県金沢市三池町197-53","kouzui":"×","gake":"○","takashio":"×","jishin":"○","tsunami":"○","kaji":"×","naisui":"×","kazan":"×"}}
,{"type":"Feature","geometry":{"type":"Point","coordinates":[136.671,36.594]},"properties":{"Name":"金沢市営東金沢スポーツ広場","Jusho":"石川県金沢市三池町240-1","kouzui":"×","gake":"○","takashio":"×","jishin":"○","tsunami":"○","kaji":"×","naisui":"×","kazan":"×"}}
,{"type":"Feature","geometry":{"type":"Point","coordinates":[136.631,36.525]},"properties":{"Name":"三馬第２児童公園","Jusho":"石川県金沢市三馬1-229","kouzui":"○","gake":"○","takashio":"×","jishin":"○","tsunami":"○","kaji":"×","naisui":"×","kazan":"×"}}
,{"type":"Feature","geometry":{"type":"Point","coordinates":[136.635,36.527]},"properties":{"Name":"三馬第３児童公園","Jusho":"石川県金沢市三馬1-73","kouzui":"○","gake":"○","takashio":"×","jishin":"○","tsunami":"○","kaji":"×","naisui":"×","kazan":"×"}}
,{"type":"Feature","geometry":{"type":"Point","coordinates":[136.632,36.528]},"properties":{"Name":"三馬第１児童公園","Jusho":"石川県金沢市三馬3-150","kouzui":"○","gake":"○","takashio":"×","jishin":"○","tsunami":"○","kaji":"×","naisui":"×","kazan":"×"}}
,{"type":"Feature","geometry":{"type":"Point","coordinates":[136.631,36.527]},"properties":{"Name":"三馬第４児童公園","Jusho":"石川県金沢市三馬3-325","kouzui":"○","gake":"○","takashio":"×","jishin":"○","tsunami":"○","kaji":"×","naisui":"×","kazan":"×"}}
,{"type":"Feature","geometry":{"type":"Point","coordinates":[136.704,36.573]},"properties":{"Name":"山王町第４児童公園","Jusho":"石川県金沢市山王町1-394","kouzui":"○","gake":"○","takashio":"×","jishin":"○","tsunami":"○","kaji":"×","naisui":"×","kazan":"×"}}
,{"type":"Feature","geometry":{"type":"Point","coordinates":[136.697,36.576]},"properties":{"Name":"山王町第２児童公園","Jusho":"石川県金沢市山王町2-168","kouzui":"○","gake":"○","takashio":"×","jishin":"○","tsunami":"○","kaji":"×","naisui":"×","kazan":"×"}}
,{"type":"Feature","geometry":{"type":"Point","coordinates":[136.647,36.528]},"properties":{"Name":"金沢市富樫公民館","Jusho":"石川県金沢市山科1-6-8","kouzui":"○","gake":"○","takashio":"×","jishin":"○","tsunami":"○","kaji":"×","naisui":"×","kazan":"×"}}
,{"type":"Feature","geometry":{"type":"Point","coordinates":[136.646,36.53]},"properties":{"Name":"金沢市立富樫小学校","Jusho":"石川県金沢市山科3-6-60","kouzui":"○","gake":"○","takashio":"×","jishin":"○","tsunami":"○","kaji":"×","naisui":"×","kazan":"×"}}
,{"type":"Feature","geometry":{"type":"Point","coordinates":[136.687,36.511]},"properties":{"Name":"金沢市内川スポーツ広場","Jusho":"石川県金沢市山川町1-1","kouzui":"×","gake":"×","takashio":"×","jishin":"○","tsunami":"○","kaji":"×","naisui":"×","kazan":"×"}}
,{"type":"Feature","geometry":{"type":"Point","coordinates":[136.618,36.503]},"properties":{"Name":"四十万中央公園","Jusho":"石川県金沢市四十万3-185","kouzui":"×","gake":"○","takashio":"×","jishin":"○","tsunami":"○","kaji":"×","naisui":"×","kazan":"×"}}
,{"type":"Feature","geometry":{"type":"Point","coordinates":[136.618,36.503]},"properties":{"Name":"金沢市立四十万小学校","Jusho":"石川県金沢市四十万3-186","kouzui":"○","gake":"○","takashio":"×","jishin":"○","tsunami":"○","kaji":"×","naisui":"×","kazan":"×"}}
,{"type":"Feature","geometry":{"type":"Point","coordinates":[136.619,36.504]},"properties":{"Name":"金沢市四十万公民館","Jusho":"石川県金沢市四十万3-90","kouzui":"○","gake":"○","takashio":"×","jishin":"○","tsunami":"○","kaji":"×","naisui":"×","kazan":"×"}}
,{"type":"Feature","geometry":{"type":"Point","coordinates":[136.621,36.5]},"properties":{"Name":"中四十万児童公園","Jusho":"石川県金沢市四十万町リ407","kouzui":"×","gake":"×","takashio":"×","jishin":"○","tsunami":"○","kaji":"×","naisui":"×","kazan":"×"}}
,{"type":"Feature","geometry":{"type":"Point","coordinates":[136.624,36.507]},"properties":{"Name":"四十万きずな広場","Jusho":"石川県金沢市四十万町北チ54-3","kouzui":"×","gake":"×","takashio":"×","jishin":"○","tsunami":"○","kaji":"×","naisui":"×","kazan":"×"}}
,{"type":"Feature","geometry":{"type":"Point","coordinates":[136.669,36.573]},"properties":{"Name":"子来町緑地","Jusho":"石川県金沢市子来町2","kouzui":"○","gake":"○","takashio":"×","jishin":"○","tsunami":"○","kaji":"×","naisui":"×","kazan":"×"}}
,{"type":"Feature","geometry":{"type":"Point","coordinates":[136.672,36.572]},"properties":{"Name":"子来町さくら公園","Jusho":"石川県金沢市子来町33","kouzui":"○","gake":"○","takashio":"×","jishin":"○","tsunami":"○","kaji":"×","naisui":"×","kazan":"×"}}
,{"type":"Feature","geometry":{"type":"Point","coordinates":[136.623,36.559]},"properties":{"Name":"糸田第２児童公園","Jusho":"石川県金沢市糸田2-207","kouzui":"×","gake":"○","takashio":"×","jishin":"○","tsunami":"○","kaji":"×","naisui":"×","kazan":"×"}}
,{"type":"Feature","geometry":{"type":"Point","coordinates":[136.644,36.536]},"properties":{"Name":"寺地みんなの広場","Jusho":"石川県金沢市寺地1-39","kouzui":"○","gake":"○","takashio":"×","jishin":"○","tsunami":"○","kaji":"×","naisui":"×","kazan":"×"}}
,{"type":"Feature","geometry":{"type":"Point","coordinates":[136.636,36.537]},"properties":{"Name":"寺地いなほ公園","Jusho":"石川県金沢市寺地2-69","kouzui":"×","gake":"○","takashio":"×","jishin":"○","tsunami":"○","kaji":"×","naisui":"×","kazan":"×"}}
,{"type":"Feature","geometry":{"type":"Point","coordinates":[136.604,36.594]},"properties":{"Name":"金沢市立金沢海みらい図書館","Jusho":"石川県金沢市寺中町イ1-1","kouzui":"○","gake":"○","takashio":"×","jishin":"○","tsunami":"○","kaji":"×","naisui":"×","kazan":"×"}}
,{"type":"Feature","geometry":{"type":"Point","coordinates":[136.617,36.578]},"properties":{"Name":"示野中中央公園","Jusho":"石川県金沢市示野中町1-40","kouzui":"×","gake":"○","takashio":"×","jishin":"○","tsunami":"○","kaji":"×","naisui":"×","kazan":"×"}}
,{"type":"Feature","geometry":{"type":"Point","coordinates":[136.616,36.575]},"properties":{"Name":"示野中青島公園","Jusho":"石川県金沢市示野中町2-114","kouzui":"×","gake":"○","takashio":"×","jishin":"○","tsunami":"○","kaji":"×","naisui":"×","kazan":"×"}}
,{"type":"Feature","geometry":{"type":"Point","coordinates":[136.61,36.582]},"properties":{"Name":"示野公園","Jusho":"石川県金沢市示野町チ233","kouzui":"×","gake":"○","takashio":"×","jishin":"○","tsunami":"○","kaji":"×","naisui":"×","kazan":"×"}}
,{"type":"Feature","geometry":{"type":"Point","coordinates":[136.607,36.582]},"properties":{"Name":"示野町児童公園","Jusho":"石川県金沢市示野町西26","kouzui":"×","gake":"○","takashio":"×","jishin":"○","tsunami":"○","kaji":"×","naisui":"×","kazan":"×"}}
,{"type":"Feature","geometry":{"type":"Point","coordinates":[136.631,36.575]},"properties":{"Name":"若宮中央公園","Jusho":"石川県金沢市若宮2-29","kouzui":"×","gake":"○","takashio":"×","jishin":"○","tsunami":"○","kaji":"×","naisui":"×","kazan":"×"}}
,{"type":"Feature","geometry":{"type":"Point","coordinates":[136.698,36.56]},"properties":{"Name":"奥卯辰山健民公園","Jusho":"石川県金沢市若松町","kouzui":"○","gake":"○","takashio":"×","jishin":"○","tsunami":"○","kaji":"×","naisui":"×","kazan":"×"}}
,{"type":"Feature","geometry":{"type":"Point","coordinates":[136.691,36.554]},"properties":{"Name":"若松せせらぎ公園","Jusho":"石川県金沢市若松町1000","kouzui":"○","gake":"○","takashio":"×","jishin":"○","tsunami":"○","kaji":"×","naisui":"×","kazan":"×"}}
,{"type":"Feature","geometry":{"type":"Point","coordinates":[136.689,36.557]},"properties":{"Name":"若松八幡さん公園","Jusho":"石川県金沢市若松町3-1000","kouzui":"×","gake":"×","takashio":"×","jishin":"○","tsunami":"○","kaji":"×","naisui":"×","kazan":"×"}}
,{"type":"Feature","geometry":{"type":"Point","coordinates":[136.686,36.557]},"properties":{"Name":"金沢市立杜の里小学校","Jusho":"石川県金沢市若松町3-282","kouzui":"○","gake":"○","takashio":"×","jishin":"○","tsunami":"○","kaji":"×","naisui":"×","kazan":"×"}}
,{"type":"Feature","geometry":{"type":"Point","coordinates":[136.694,36.558]},"properties":{"Name":"若松町第２児童公園","Jusho":"石川県金沢市若松町ツ168-1","kouzui":"×","gake":"×","takashio":"×","jishin":"○","tsunami":"○","kaji":"×","naisui":"×","kazan":"×"}}
,{"type":"Feature","geometry":{"type":"Point","coordinates":[136.658,36.544]},"properties":{"Name":"金沢市立野田中学校","Jusho":"石川県金沢市若草町1-23","kouzui":"○","gake":"○","takashio":"×","jishin":"○","tsunami":"○","kaji":"×","naisui":"×","kazan":"×"}}
,{"type":"Feature","geometry":{"type":"Point","coordinates":[136.657,36.544]},"properties":{"Name":"金沢市営城南市民体育館","Jusho":"石川県金沢市若草町1-60","kouzui":"○","gake":"○","takashio":"×","jishin":"○","tsunami":"○","kaji":"×","naisui":"×","kazan":"×"}}
,{"type":"Feature","geometry":{"type":"Point","coordinates":[136.661,36.542]},"properties":{"Name":"金沢市城南公民館","Jusho":"石川県金沢市若草町22-12","kouzui":"○","gake":"○","takashio":"×","jishin":"○","tsunami":"○","kaji":"×","naisui":"×","kazan":"×"}}
,{"type":"Feature","geometry":{"type":"Point","coordinates":[136.661,36.545]},"properties":{"Name":"金沢市立十一屋小学校","Jusho":"石川県金沢市十一屋町3-45","kouzui":"○","gake":"○","takashio":"×","jishin":"○","tsunami":"○","kaji":"×","naisui":"×","kazan":"×"}}
,{"type":"Feature","geometry":{"type":"Point","coordinates":[136.662,36.558]},"properties":{"Name":"本多の森公園","Jusho":"石川県金沢市出羽町","kouzui":"○","gake":"○","takashio":"×","jishin":"○","tsunami":"○","kaji":"×","naisui":"×","kazan":"×"}}
,{"type":"Feature","geometry":{"type":"Point","coordinates":[136.625,36.576]},"properties":{"Name":"出雲中央公園","Jusho":"石川県金沢市出雲町イ418","kouzui":"×","gake":"○","takashio":"×","jishin":"○","tsunami":"○","kaji":"×","naisui":"×","kazan":"×"}}
,{"type":"Feature","geometry":{"type":"Point","coordinates":[136.642,36.593]},"properties":{"Name":"諸江児童公園","Jusho":"石川県金沢市諸江町2815","kouzui":"×","gake":"○","takashio":"×","jishin":"○","tsunami":"○","kaji":"×","naisui":"×","kazan":"×"}}
,{"type":"Feature","geometry":{"type":"Point","coordinates":[136.642,36.591]},"properties":{"Name":"金沢市諸江公民館","Jusho":"石川県金沢市諸江町29-1","kouzui":"○","gake":"○","takashio":"×","jishin":"○","tsunami":"○","kaji":"×","naisui":"×","kazan":"×"}}
,{"type":"Feature","geometry":{"type":"Point","coordinates":[136.647,36.6]},"properties":{"Name":"諸江町下丁ふれあい公園","Jusho":"石川県金沢市諸江町下丁263-1","kouzui":"×","gake":"○","takashio":"×","jishin":"○","tsunami":"○","kaji":"×","naisui":"×","kazan":"×"}}
,{"type":"Feature","geometry":{"type":"Point","coordinates":[136.649,36.603]},"properties":{"Name":"金沢市立浅野川中学校","Jusho":"石川県金沢市諸江町下丁388","kouzui":"×","gake":"○","takashio":"×","jishin":"○","tsunami":"○","kaji":"×","naisui":"×","kazan":"×"}}
,{"type":"Feature","geometry":{"type":"Point","coordinates":[136.648,36.594]},"properties":{"Name":"諸江町上丁ゆうあい公園","Jusho":"石川県金沢市諸江町上丁524-1","kouzui":"×","gake":"○","takashio":"×","jishin":"○","tsunami":"○","kaji":"×","naisui":"×","kazan":"×"}}
,{"type":"Feature","geometry":{"type":"Point","coordinates":[136.671,36.583]},"properties":{"Name":"小金町公園","Jusho":"石川県金沢市小金町183","kouzui":"×","gake":"×","takashio":"×","jishin":"○","tsunami":"○","kaji":"×","naisui":"×","kazan":"×"}}
,{"type":"Feature","geometry":{"type":"Point","coordinates":[136.672,36.59]},"properties":{"Name":"金沢市立城北児童会館","Jusho":"石川県金沢市小坂町西8-11","kouzui":"○","gake":"○","takashio":"×","jishin":"○","tsunami":"○","kaji":"×","naisui":"×","kazan":"×"}}
,{"type":"Feature","geometry":{"type":"Point","coordinates":[136.674,36.59]},"properties":{"Name":"城北中央公園","Jusho":"石川県金沢市小坂町西8-6","kouzui":"×","gake":"○","takashio":"×","jishin":"○","tsunami":"○","kaji":"×","naisui":"×","kazan":"×"}}
,{"type":"Feature","geometry":{"type":"Point","coordinates":[136.678,36.59]},"properties":{"Name":"金沢市立小坂小学校","Jusho":"石川県金沢市小坂町中142","kouzui":"○","gake":"○","takashio":"×","jishin":"○","tsunami":"○","kaji":"×","naisui":"×","kazan":"×"}}
,{"type":"Feature","geometry":{"type":"Point","coordinates":[136.682,36.585]},"properties":{"Name":"星稜高等学校","Jusho":"石川県金沢市小坂町南206","kouzui":"○","gake":"×","takashio":"×","jishin":"○","tsunami":"○","kaji":"×","naisui":"×","kazan":"×"}}
,{"type":"Feature","geometry":{"type":"Point","coordinates":[136.679,36.586]},"properties":{"Name":"小坂白蓮公園","Jusho":"石川県金沢市小坂町南589","kouzui":"×","gake":"○","takashio":"×","jishin":"○","tsunami":"○","kaji":"×","naisui":"×","kazan":"×"}}
,{"type":"Feature","geometry":{"type":"Point","coordinates":[136.676,36.593]},"properties":{"Name":"金沢市小坂公民館","Jusho":"石川県金沢市小坂町北312","kouzui":"×","gake":"○","takashio":"×","jishin":"○","tsunami":"○","kaji":"×","naisui":"×","kazan":"×"}}
,{"type":"Feature","geometry":{"type":"Point","coordinates":[136.676,36.595]},"properties":{"Name":"金沢市立北鳴中学校","Jusho":"石川県金沢市小坂町北95","kouzui":"○","gake":"○","takashio":"×","jishin":"○","tsunami":"○","kaji":"×","naisui":"×","kazan":"×"}}
,{"type":"Feature","geometry":{"type":"Point","coordinates":[136.665,36.564]},"properties":{"Name":"金沢市立小将町中学校","Jusho":"石川県金沢市小将町1-15","kouzui":"○","gake":"○","takashio":"×","jishin":"○","tsunami":"○","kaji":"×","naisui":"×","kazan":"×"}}
,{"type":"Feature","geometry":{"type":"Point","coordinates":[136.746,36.524]},"properties":{"Name":"金沢市キゴ山ふれあい研修センター青少年交流棟","Jusho":"石川県金沢市小豆沢町ヲ4","kouzui":"○","gake":"○","takashio":"×","jishin":"○","tsunami":"○","kaji":"×","naisui":"×","kazan":"×"}}
,{"type":"Feature","geometry":{"type":"Point","coordinates":[136.683,36.545]},"properties":{"Name":"小立野児童公園","Jusho":"石川県金沢市小立野1-729","kouzui":"○","gake":"○","takashio":"×","jishin":"○","tsunami":"○","kaji":"×","naisui":"×","kazan":"×"}}
,{"type":"Feature","geometry":{"type":"Point","coordinates":[136.68,36.547]},"properties":{"Name":"金沢市崎浦公民館","Jusho":"石川県金沢市小立野2-41-36","kouzui":"○","gake":"○","takashio":"×","jishin":"○","tsunami":"○","kaji":"×","naisui":"×","kazan":"×"}}
,{"type":"Feature","geometry":{"type":"Point","coordinates":[136.679,36.551]},"properties":{"Name":"金沢市小立野公民館","Jusho":"石川県金沢市小立野4-7-51","kouzui":"○","gake":"○","takashio":"×","jishin":"○","tsunami":"○","kaji":"×","naisui":"×","kazan":"×"}}
,{"type":"Feature","geometry":{"type":"Point","coordinates":[136.678,36.552]},"properties":{"Name":"金沢市立小立野小学校","Jusho":"石川県金沢市小立野4-7-7","kouzui":"○","gake":"○","takashio":"×","jishin":"○","tsunami":"○","kaji":"×","naisui":"×","kazan":"×"}}
,{"type":"Feature","geometry":{"type":"Point","coordinates":[136.677,36.556]},"properties":{"Name":"金沢美術工芸大学","Jusho":"石川県金沢市小立野5-11-1","kouzui":"○","gake":"○","takashio":"×","jishin":"×","tsunami":"○","kaji":"×","naisui":"×","kazan":"×"}}
,{"type":"Feature","geometry":{"type":"Point","coordinates":[136.677,36.555]},"properties":{"Name":"金沢大学（鶴間キャンパス）","Jusho":"石川県金沢市小立野5-11-80","kouzui":"○","gake":"○","takashio":"×","jishin":"○","tsunami":"○","kaji":"×","naisui":"×","kazan":"×"}}
,{"type":"Feature","geometry":{"type":"Point","coordinates":[136.679,36.553]},"properties":{"Name":"石川県立金沢商業高等学校","Jusho":"石川県金沢市小立野5-4-1","kouzui":"○","gake":"○","takashio":"×","jishin":"○","tsunami":"○","kaji":"×","naisui":"×","kazan":"×"}}
,{"type":"Feature","geometry":{"type":"Point","coordinates":[136.652,36.604]},"properties":{"Name":"金沢市松寺公民館","Jusho":"石川県金沢市松寺町丑42","kouzui":"○","gake":"○","takashio":"×","jishin":"○","tsunami":"○","kaji":"×","naisui":"×","kazan":"×"}}
,{"type":"Feature","geometry":{"type":"Point","coordinates":[136.652,36.602]},"properties":{"Name":"松寺中央公園","Jusho":"石川県金沢市松寺町子83-1","kouzui":"×","gake":"○","takashio":"×","jishin":"○","tsunami":"○","kaji":"×","naisui":"×","kazan":"×"}}
,{"type":"Feature","geometry":{"type":"Point","coordinates":[136.656,36.602]},"properties":{"Name":"金沢市営城北市民テニスコート","Jusho":"石川県金沢市松寺町酉90-1","kouzui":"×","gake":"○","takashio":"×","jishin":"○","tsunami":"○","kaji":"×","naisui":"×","kazan":"×"}}
,{"type":"Feature","geometry":{"type":"Point","coordinates":[136.614,36.586]},"properties":{"Name":"松村第２公園","Jusho":"石川県金沢市松村2-29","kouzui":"×","gake":"○","takashio":"×","jishin":"○","tsunami":"○","kaji":"×","naisui":"×","kazan":"×"}}
,{"type":"Feature","geometry":{"type":"Point","coordinates":[136.616,36.582]},"properties":{"Name":"松村あおぞら公園","Jusho":"石川県金沢市松村3-550","kouzui":"×","gake":"○","takashio":"×","jishin":"○","tsunami":"○","kaji":"×","naisui":"×","kazan":"×"}}
,{"type":"Feature","geometry":{"type":"Point","coordinates":[136.61,36.591]},"properties":{"Name":"金沢市立大徳小学校","Jusho":"石川県金沢市松村6-200","kouzui":"○","gake":"○","takashio":"×","jishin":"○","tsunami":"○","kaji":"×","naisui":"×","kazan":"×"}}
,{"type":"Feature","geometry":{"type":"Point","coordinates":[136.602,36.564]},"properties":{"Name":"松島町中央公園","Jusho":"石川県金沢市松島2-165","kouzui":"×","gake":"○","takashio":"×","jishin":"○","tsunami":"○","kaji":"×","naisui":"×","kazan":"×"}}
,{"type":"Feature","geometry":{"type":"Point","coordinates":[136.601,36.567]},"properties":{"Name":"松島町西公園","Jusho":"石川県金沢市松島3-179","kouzui":"×","gake":"○","takashio":"×","jishin":"○","tsunami":"○","kaji":"×","naisui":"×","kazan":"×"}}
,{"type":"Feature","geometry":{"type":"Point","coordinates":[136.591,36.565]},"properties":{"Name":"上安原中央公園","Jusho":"石川県金沢市上安原1-262","kouzui":"×","gake":"○","takashio":"×","jishin":"○","tsunami":"○","kaji":"×","naisui":"×","kazan":"×"}}
,{"type":"Feature","geometry":{"type":"Point","coordinates":[136.586,36.566]},"properties":{"Name":"金沢龍谷高等学校","Jusho":"石川県金沢市上安原町169-1","kouzui":"×","gake":"○","takashio":"×","jishin":"○","tsunami":"○","kaji":"×","naisui":"×","kazan":"×"}}
,{"type":"Feature","geometry":{"type":"Point","coordinates":[136.587,36.563]},"properties":{"Name":"八洲原公園","Jusho":"石川県金沢市上安原町943","kouzui":"×","gake":"○","takashio":"×","jishin":"○","tsunami":"○","kaji":"×","naisui":"×","kazan":"×"}}
,{"type":"Feature","geometry":{"type":"Point","coordinates":[136.592,36.548]},"properties":{"Name":"上荒屋１丁目くすのき公園","Jusho":"石川県金沢市上荒屋1-346","kouzui":"×","gake":"○","takashio":"×","jishin":"○","tsunami":"○","kaji":"×","naisui":"×","kazan":"×"}}
,{"type":"Feature","geometry":{"type":"Point","coordinates":[136.593,36.554]},"properties":{"Name":"金沢市三和公民館","Jusho":"石川県金沢市上荒屋4-82","kouzui":"○","gake":"○","takashio":"×","jishin":"○","tsunami":"○","kaji":"×","naisui":"×","kazan":"×"}}
,{"type":"Feature","geometry":{"type":"Point","coordinates":[136.589,36.557]},"properties":{"Name":"上荒屋にれの木公園","Jusho":"石川県金沢市上荒屋5-453","kouzui":"×","gake":"○","takashio":"×","jishin":"○","tsunami":"○","kaji":"×","naisui":"×","kazan":"×"}}
,{"type":"Feature","geometry":{"type":"Point","coordinates":[136.589,36.553]},"properties":{"Name":"上荒屋もくれん公園","Jusho":"石川県金沢市上荒屋6-446","kouzui":"○","gake":"○","takashio":"×","jishin":"○","tsunami":"○","kaji":"×","naisui":"×","kazan":"×"}}
,{"type":"Feature","geometry":{"type":"Point","coordinates":[136.59,36.55]},"properties":{"Name":"上荒屋つばき公園","Jusho":"石川県金沢市上荒屋8-43","kouzui":"×","gake":"○","takashio":"×","jishin":"○","tsunami":"○","kaji":"×","naisui":"×","kazan":"×"}}
,{"type":"Feature","geometry":{"type":"Point","coordinates":[136.692,36.55]},"properties":{"Name":"中瀬栃の木公園","Jusho":"石川県金沢市上若松町1000","kouzui":"○","gake":"○","takashio":"×","jishin":"○","tsunami":"○","kaji":"×","naisui":"×","kazan":"×"}}
,{"type":"Feature","geometry":{"type":"Point","coordinates":[136.705,36.52]},"properties":{"Name":"金沢市東浅川公民館","Jusho":"石川県金沢市上中町ニ14","kouzui":"×","gake":"○","takashio":"×","jishin":"×","tsunami":"○","kaji":"×","naisui":"×","kazan":"×"}}
,{"type":"Feature","geometry":{"type":"Point","coordinates":[136.703,36.517]},"properties":{"Name":"湖南学院","Jusho":"石川県金沢市上中町ロ11-1","kouzui":"○","gake":"○","takashio":"×","jishin":"○","tsunami":"○","kaji":"×","naisui":"×","kazan":"×"}}
,{"type":"Feature","geometry":{"type":"Point","coordinates":[136.774,36.628]},"properties":{"Name":"旧金沢市立上平小学校","Jusho":"石川県金沢市上平町ハ25","kouzui":"○","gake":"○","takashio":"×","jishin":"×","tsunami":"○","kaji":"×","naisui":"×","kazan":"×"}}
,{"type":"Feature","geometry":{"type":"Point","coordinates":[136.674,36.544]},"properties":{"Name":"金沢市立城南中学校","Jusho":"石川県金沢市城南1-24-1","kouzui":"×","gake":"○","takashio":"×","jishin":"○","tsunami":"○","kaji":"×","naisui":"×","kazan":"×"}}
,{"type":"Feature","geometry":{"type":"Point","coordinates":[136.676,36.566]},"properties":{"Name":"石川県青少年総合研修センター","Jusho":"石川県金沢市常盤町212-1","kouzui":"○","gake":"×","takashio":"×","jishin":"○","tsunami":"○","kaji":"×","naisui":"×","kazan":"×"}}
,{"type":"Feature","geometry":{"type":"Point","coordinates":[136.636,36.564]},"properties":{"Name":"金沢市新神田公民館","Jusho":"石川県金沢市新神田1-1-18","kouzui":"○","gake":"○","takashio":"×","jishin":"○","tsunami":"○","kaji":"×","naisui":"×","kazan":"×"}}
,{"type":"Feature","geometry":{"type":"Point","coordinates":[136.636,36.565]},"properties":{"Name":"金沢市立高岡中学校","Jusho":"石川県金沢市新神田1-10-1","kouzui":"○","gake":"○","takashio":"×","jishin":"○","tsunami":"○","kaji":"×","naisui":"×","kazan":"×"}}
,{"type":"Feature","geometry":{"type":"Point","coordinates":[136.635,36.565]},"properties":{"Name":"金沢市立新神田小学校","Jusho":"石川県金沢市新神田1-10-58","kouzui":"○","gake":"○","takashio":"×","jishin":"○","tsunami":"○","kaji":"×","naisui":"×","kazan":"×"}}
,{"type":"Feature","geometry":{"type":"Point","coordinates":[136.631,36.561]},"properties":{"Name":"神田交通公園","Jusho":"石川県金沢市新神田3-113","kouzui":"×","gake":"○","takashio":"×","jishin":"○","tsunami":"○","kaji":"×","naisui":"×","kazan":"×"}}
,{"type":"Feature","geometry":{"type":"Point","coordinates":[136.657,36.556]},"properties":{"Name":"旧金沢市立新竪町小学校","Jusho":"石川県金沢市新竪町3-25","kouzui":"○","gake":"○","takashio":"×","jishin":"○","tsunami":"○","kaji":"×","naisui":"×","kazan":"×"}}
,{"type":"Feature","geometry":{"type":"Point","coordinates":[136.606,36.553]},"properties":{"Name":"金沢市立西南部中学校","Jusho":"石川県金沢市新保本1-149","kouzui":"○","gake":"○","takashio":"×","jishin":"○","tsunami":"○","kaji":"×","naisui":"×","kazan":"×"}}
,{"type":"Feature","geometry":{"type":"Point","coordinates":[136.602,36.552]},"properties":{"Name":"新保本町中央公園","Jusho":"石川県金沢市新保本2-502","kouzui":"○","gake":"○","takashio":"×","jishin":"○","tsunami":"○","kaji":"×","naisui":"×","kazan":"×"}}
,{"type":"Feature","geometry":{"type":"Point","coordinates":[136.603,36.559]},"properties":{"Name":"新保本町ふれあい公園","Jusho":"石川県金沢市新保本4-70","kouzui":"×","gake":"○","takashio":"×","jishin":"○","tsunami":"○","kaji":"×","naisui":"×","kazan":"×"}}
,{"type":"Feature","geometry":{"type":"Point","coordinates":[136.605,36.556]},"properties":{"Name":"チカモリ遺跡公園","Jusho":"石川県金沢市新保本5-47","kouzui":"×","gake":"○","takashio":"×","jishin":"○","tsunami":"○","kaji":"×","naisui":"×","kazan":"×"}}
,{"type":"Feature","geometry":{"type":"Point","coordinates":[136.669,36.579]},"properties":{"Name":"金沢市森山公民館","Jusho":"石川県金沢市森山2-11-13","kouzui":"○","gake":"○","takashio":"×","jishin":"○","tsunami":"○","kaji":"×","naisui":"×","kazan":"×"}}
,{"type":"Feature","geometry":{"type":"Point","coordinates":[136.668,36.578]},"properties":{"Name":"金沢市立森山町小学校","Jusho":"石川県金沢市森山2-13-50","kouzui":"○","gake":"○","takashio":"×","jishin":"○","tsunami":"○","kaji":"×","naisui":"×","kazan":"×"}}
,{"type":"Feature","geometry":{"type":"Point","coordinates":[136.668,36.587]},"properties":{"Name":"神宮寺桜児童公園","Jusho":"石川県金沢市神宮寺2-326","kouzui":"×","gake":"○","takashio":"×","jishin":"○","tsunami":"○","kaji":"×","naisui":"×","kazan":"×"}}
,{"type":"Feature","geometry":{"type":"Point","coordinates":[136.666,36.587]},"properties":{"Name":"神宮寺運動公園","Jusho":"石川県金沢市神宮寺3-123","kouzui":"×","gake":"○","takashio":"×","jishin":"○","tsunami":"○","kaji":"×","naisui":"×","kazan":"×"}}
,{"type":"Feature","geometry":{"type":"Point","coordinates":[136.689,36.599]},"properties":{"Name":"神谷内児童公園","Jusho":"石川県金沢市神谷内町チ204-1","kouzui":"×","gake":"×","takashio":"×","jishin":"○","tsunami":"○","kaji":"×","naisui":"×","kazan":"×"}}
,{"type":"Feature","geometry":{"type":"Point","coordinates":[136.637,36.562]},"properties":{"Name":"神田町児童公園","Jusho":"石川県金沢市神田1-271","kouzui":"×","gake":"○","takashio":"×","jishin":"○","tsunami":"○","kaji":"×","naisui":"×","kazan":"×"}}
,{"type":"Feature","geometry":{"type":"Point","coordinates":[136.635,36.559]},"properties":{"Name":"神泉児童公園","Jusho":"石川県金沢市神田2-27","kouzui":"×","gake":"○","takashio":"×","jishin":"○","tsunami":"○","kaji":"×","naisui":"×","kazan":"×"}}
,{"type":"Feature","geometry":{"type":"Point","coordinates":[136.6,36.564]},"properties":{"Name":"神野東公園","Jusho":"石川県金沢市神野町東107-2","kouzui":"×","gake":"○","takashio":"×","jishin":"○","tsunami":"○","kaji":"×","naisui":"×","kazan":"×"}}
,{"type":"Feature","geometry":{"type":"Point","coordinates":[136.642,36.621]},"properties":{"Name":"金沢市立浅野川小学校","Jusho":"石川県金沢市須崎町チ42","kouzui":"○","gake":"○","takashio":"×","jishin":"○","tsunami":"○","kaji":"×","naisui":"×","kazan":"×"}}
,{"type":"Feature","geometry":{"type":"Point","coordinates":[136.61,36.592]},"properties":{"Name":"金沢市大徳公民館","Jusho":"石川県金沢市畝田西1-201-1","kouzui":"○","gake":"○","takashio":"×","jishin":"○","tsunami":"○","kaji":"×","naisui":"×","kazan":"×"}}
,{"type":"Feature","geometry":{"type":"Point","coordinates":[136.616,36.592]},"properties":{"Name":"金沢市立工業高等学校","Jusho":"石川県金沢市畝田東1-1-1","kouzui":"○","gake":"○","takashio":"×","jishin":"○","tsunami":"○","kaji":"×","naisui":"×","kazan":"×"}}
,{"type":"Feature","geometry":{"type":"Point","coordinates":[136.614,36.595]},"properties":{"Name":"畝田町児童公園","Jusho":"石川県金沢市畝田東2-7","kouzui":"×","gake":"○","takashio":"×","jishin":"○","tsunami":"○","kaji":"×","naisui":"×","kazan":"×"}}
,{"type":"Feature","geometry":{"type":"Point","coordinates":[136.618,36.596]},"properties":{"Name":"石川県立金沢西高等学校","Jusho":"石川県金沢市畝田東3-526","kouzui":"○","gake":"○","takashio":"×","jishin":"○","tsunami":"○","kaji":"×","naisui":"×","kazan":"×"}}
,{"type":"Feature","geometry":{"type":"Point","coordinates":[136.612,36.555]},"properties":{"Name":"金沢市西南部公民館","Jusho":"石川県金沢市西金沢3-684","kouzui":"○","gake":"○","takashio":"×","jishin":"○","tsunami":"○","kaji":"×","naisui":"×","kazan":"×"}}
,{"type":"Feature","geometry":{"type":"Point","coordinates":[136.611,36.555]},"properties":{"Name":"金沢市営西金沢テニスコート","Jusho":"石川県金沢市西金沢3-684","kouzui":"×","gake":"○","takashio":"×","jishin":"○","tsunami":"○","kaji":"×","naisui":"×","kazan":"×"}}
,{"type":"Feature","geometry":{"type":"Point","coordinates":[136.616,36.557]},"properties":{"Name":"西部中央公園","Jusho":"石川県金沢市西金沢5-286","kouzui":"×","gake":"○","takashio":"×","jishin":"○","tsunami":"○","kaji":"×","naisui":"×","kazan":"×"}}
,{"type":"Feature","geometry":{"type":"Point","coordinates":[136.615,36.554]},"properties":{"Name":"西金児童公園","Jusho":"石川県金沢市西金沢新町256","kouzui":"×","gake":"○","takashio":"×","jishin":"○","tsunami":"○","kaji":"×","naisui":"×","kazan":"×"}}
,{"type":"Feature","geometry":{"type":"Point","coordinates":[136.671,36.54]},"properties":{"Name":"西大桑町児童公園","Jusho":"石川県金沢市西大桑町715","kouzui":"×","gake":"○","takashio":"×","jishin":"○","tsunami":"○","kaji":"×","naisui":"×","kazan":"×"}}
,{"type":"Feature","geometry":{"type":"Point","coordinates":[136.626,36.59]},"properties":{"Name":"西都ゆめみどり公園","Jusho":"石川県金沢市西都2-15","kouzui":"×","gake":"○","takashio":"×","jishin":"○","tsunami":"○","kaji":"×","naisui":"×","kazan":"×"}}
,{"type":"Feature","geometry":{"type":"Point","coordinates":[136.644,36.583]},"properties":{"Name":"駅西中央公園","Jusho":"石川県金沢市西念1-1101","kouzui":"×","gake":"○","takashio":"×","jishin":"○","tsunami":"○","kaji":"×","naisui":"×","kazan":"×"}}
,{"type":"Feature","geometry":{"type":"Point","coordinates":[136.641,36.587]},"properties":{"Name":"西念町第２公園","Jusho":"石川県金沢市西念2-3101","kouzui":"×","gake":"○","takashio":"×","jishin":"○","tsunami":"○","kaji":"×","naisui":"×","kazan":"×"}}
,{"type":"Feature","geometry":{"type":"Point","coordinates":[136.641,36.587]},"properties":{"Name":"金沢市西公民館","Jusho":"石川県金沢市西念2-34-9","kouzui":"○","gake":"○","takashio":"×","jishin":"○","tsunami":"○","kaji":"×","naisui":"×","kazan":"×"}}
,{"type":"Feature","geometry":{"type":"Point","coordinates":[136.637,36.588]},"properties":{"Name":"西念町児童公園","Jusho":"石川県金沢市西念3-701","kouzui":"×","gake":"○","takashio":"×","jishin":"○","tsunami":"○","kaji":"×","naisui":"×","kazan":"×"}}
,{"type":"Feature","geometry":{"type":"Point","coordinates":[136.656,36.572]},"properties":{"Name":"近江町いちば館","Jusho":"石川県金沢市青草町88","kouzui":"○","gake":"○","takashio":"×","jishin":"○","tsunami":"○","kaji":"×","naisui":"×","kazan":"×"}}
,{"type":"Feature","geometry":{"type":"Point","coordinates":[136.674,36.606]},"properties":{"Name":"金沢市千坂公民館","Jusho":"石川県金沢市千木1-119","kouzui":"○","gake":"○","takashio":"×","jishin":"○","tsunami":"○","kaji":"×","naisui":"×","kazan":"×"}}
,{"type":"Feature","geometry":{"type":"Point","coordinates":[136.675,36.606]},"properties":{"Name":"金沢市立千坂小学校","Jusho":"石川県金沢市千木1-125","kouzui":"○","gake":"○","takashio":"×","jishin":"○","tsunami":"○","kaji":"×","naisui":"×","kazan":"×"}}
,{"type":"Feature","geometry":{"type":"Point","coordinates":[136.668,36.611]},"properties":{"Name":"千木日吉の森公園","Jusho":"石川県金沢市千木町カ66","kouzui":"×","gake":"○","takashio":"×","jishin":"○","tsunami":"○","kaji":"×","naisui":"×","kazan":"×"}}
,{"type":"Feature","geometry":{"type":"Point","coordinates":[136.581,36.582]},"properties":{"Name":"専光寺五本松公園","Jusho":"石川県金沢市専光寺町そ94","kouzui":"○","gake":"○","takashio":"×","jishin":"○","tsunami":"○","kaji":"×","naisui":"×","kazan":"×"}}
,{"type":"Feature","geometry":{"type":"Point","coordinates":[136.587,36.583]},"properties":{"Name":"加賀友禅染色団地公園","Jusho":"石川県金沢市専光寺町ニ172","kouzui":"×","gake":"○","takashio":"×","jishin":"○","tsunami":"○","kaji":"×","naisui":"×","kazan":"×"}}
,{"type":"Feature","geometry":{"type":"Point","coordinates":[136.579,36.586]},"properties":{"Name":"金沢市営専光寺ソフトボール場","Jusho":"石川県金沢市専光寺町レ3-5","kouzui":"○","gake":"○","takashio":"×","jishin":"○","tsunami":"○","kaji":"×","naisui":"×","kazan":"×"}}
,{"type":"Feature","geometry":{"type":"Point","coordinates":[136.636,36.547]},"properties":{"Name":"清泉公園","Jusho":"石川県金沢市泉本町1-160-6","kouzui":"×","gake":"○","takashio":"×","jishin":"○","tsunami":"○","kaji":"×","naisui":"×","kazan":"×"}}
,{"type":"Feature","geometry":{"type":"Point","coordinates":[136.635,36.551]},"properties":{"Name":"金沢高等学校","Jusho":"石川県金沢市泉本町3-111","kouzui":"○","gake":"○","takashio":"×","jishin":"○","tsunami":"○","kaji":"×","naisui":"×","kazan":"×"}}
,{"type":"Feature","geometry":{"type":"Point","coordinates":[136.636,36.548]},"properties":{"Name":"金沢市立清泉中学校","Jusho":"石川県金沢市泉本町3-3","kouzui":"○","gake":"○","takashio":"×","jishin":"○","tsunami":"○","kaji":"×","naisui":"×","kazan":"×"}}
,{"type":"Feature","geometry":{"type":"Point","coordinates":[136.639,36.554]},"properties":{"Name":"石川県立金沢中央高等学校","Jusho":"石川県金沢市泉本町6-105","kouzui":"○","gake":"○","takashio":"×","jishin":"○","tsunami":"○","kaji":"×","naisui":"×","kazan":"×"}}
,{"type":"Feature","geometry":{"type":"Point","coordinates":[136.656,36.539]},"properties":{"Name":"泉野出町第２児童公園","Jusho":"石川県金沢市泉野出町1-2107","kouzui":"○","gake":"○","takashio":"×","jishin":"○","tsunami":"○","kaji":"×","naisui":"×","kazan":"×"}}
,{"type":"Feature","geometry":{"type":"Point","coordinates":[136.651,36.537]},"properties":{"Name":"泉野出町第１公園","Jusho":"石川県金沢市泉野出町2-1601","kouzui":"○","gake":"○","takashio":"×","jishin":"○","tsunami":"○","kaji":"×","naisui":"×","kazan":"×"}}
,{"type":"Feature","geometry":{"type":"Point","coordinates":[136.649,36.538]},"properties":{"Name":"石川県立金沢泉丘高等学校","Jusho":"石川県金沢市泉野出町3-10-10","kouzui":"○","gake":"○","takashio":"×","jishin":"○","tsunami":"○","kaji":"×","naisui":"×","kazan":"×"}}
,{"type":"Feature","geometry":{"type":"Point","coordinates":[136.65,36.54]},"properties":{"Name":"金沢市総合体育館","Jusho":"石川県金沢市泉野出町3-8-1","kouzui":"○","gake":"○","takashio":"×","jishin":"○","tsunami":"○","kaji":"×","naisui":"×","kazan":"×"}}
,{"type":"Feature","geometry":{"type":"Point","coordinates":[136.652,36.536]},"properties":{"Name":"泉野出町第３児童公園","Jusho":"石川県金沢市泉野出町4-1533","kouzui":"○","gake":"○","takashio":"×","jishin":"○","tsunami":"○","kaji":"×","naisui":"×","kazan":"×"}}
,{"type":"Feature","geometry":{"type":"Point","coordinates":[136.707,36.519]},"properties":{"Name":"旧金沢市立東浅川小学校","Jusho":"石川県金沢市浅川町イ140-1","kouzui":"○","gake":"×","takashio":"×","jishin":"○","tsunami":"○","kaji":"×","naisui":"×","kazan":"×"}}
,{"type":"Feature","geometry":{"type":"Point","coordinates":[136.661,36.584]},"properties":{"Name":"浅野本町第２児童公園","Jusho":"石川県金沢市浅野本町2-125","kouzui":"×","gake":"○","takashio":"×","jishin":"○","tsunami":"○","kaji":"×","naisui":"×","kazan":"×"}}
,{"type":"Feature","geometry":{"type":"Point","coordinates":[136.707,36.525]},"properties":{"Name":"北陸大学","Jusho":"石川県金沢市太陽が丘1-1","kouzui":"○","gake":"○","takashio":"×","jishin":"○","tsunami":"○","kaji":"×","naisui":"×","kazan":"×"}}
,{"type":"Feature","geometry":{"type":"Point","coordinates":[136.706,36.53]},"properties":{"Name":"太陽が丘詩の木公園","Jusho":"石川県金沢市太陽が丘2-213","kouzui":"○","gake":"○","takashio":"×","jishin":"○","tsunami":"○","kaji":"×","naisui":"×","kazan":"×"}}
,{"type":"Feature","geometry":{"type":"Point","coordinates":[136.706,36.534]},"properties":{"Name":"太陽が丘ゆうひみ公園","Jusho":"石川県金沢市太陽が丘2-266","kouzui":"○","gake":"○","takashio":"×","jishin":"○","tsunami":"○","kaji":"×","naisui":"×","kazan":"×"}}
,{"type":"Feature","geometry":{"type":"Point","coordinates":[136.708,36.535]},"properties":{"Name":"太陽が丘しいの木公園","Jusho":"石川県金沢市太陽ヶ丘土地区画整理事業地内７工区１１街区","kouzui":"○","gake":"○","takashio":"×","jishin":"○","tsunami":"○","kaji":"×","naisui":"×","kazan":"×"}}
,{"type":"Feature","geometry":{"type":"Point","coordinates":[136.572,36.569]},"properties":{"Name":"打木町東児童公園","Jusho":"石川県金沢市打木町東1301","kouzui":"×","gake":"○","takashio":"×","jishin":"○","tsunami":"○","kaji":"×","naisui":"×","kazan":"×"}}
,{"type":"Feature","geometry":{"type":"Point","coordinates":[136.57,36.568]},"properties":{"Name":"打木町くろまつ公園","Jusho":"石川県金沢市打木町東1452","kouzui":"×","gake":"○","takashio":"×","jishin":"○","tsunami":"○","kaji":"×","naisui":"×","kazan":"×"}}
,{"type":"Feature","geometry":{"type":"Point","coordinates":[136.602,36.576]},"properties":{"Name":"西部緑地公園","Jusho":"石川県金沢市袋畠町南193","kouzui":"×","gake":"○","takashio":"×","jishin":"○","tsunami":"○","kaji":"×","naisui":"×","kazan":"×"}}
,{"type":"Feature","geometry":{"type":"Point","coordinates":[136.653,36.623]},"properties":{"Name":"金沢市立大浦小学校","Jusho":"石川県金沢市大浦町ヌ87","kouzui":"○","gake":"○","takashio":"×","jishin":"○","tsunami":"○","kaji":"×","naisui":"×","kazan":"×"}}
,{"type":"Feature","geometry":{"type":"Point","coordinates":[136.653,36.624]},"properties":{"Name":"金沢市大浦公民館","Jusho":"石川県金沢市大浦町ヲ39-1","kouzui":"○","gake":"○","takashio":"×","jishin":"○","tsunami":"○","kaji":"×","naisui":"×","kazan":"×"}}
,{"type":"Feature","geometry":{"type":"Point","coordinates":[136.64,36.614]},"properties":{"Name":"大河端西鷹狩り公園","Jusho":"石川県金沢市大河端西1-57","kouzui":"×","gake":"○","takashio":"×","jishin":"○","tsunami":"○","kaji":"×","naisui":"×","kazan":"×"}}
,{"type":"Feature","geometry":{"type":"Point","coordinates":[136.64,36.615]},"properties":{"Name":"金沢市営浅野川市民体育館","Jusho":"石川県金沢市大河端西1-96","kouzui":"×","gake":"○","takashio":"×","jishin":"○","tsunami":"○","kaji":"×","naisui":"×","kazan":"×"}}
,{"type":"Feature","geometry":{"type":"Point","coordinates":[136.64,36.615]},"properties":{"Name":"金沢市浅野川公民館","Jusho":"石川県金沢市大河端西1-96","kouzui":"○","gake":"○","takashio":"×","jishin":"○","tsunami":"○","kaji":"×","naisui":"×","kazan":"×"}}
,{"type":"Feature","geometry":{"type":"Point","coordinates":[136.619,36.514]},"properties":{"Name":"大額１丁目公園","Jusho":"石川県金沢市大額1-378","kouzui":"×","gake":"○","takashio":"×","jishin":"○","tsunami":"○","kaji":"×","naisui":"×","kazan":"×"}}
,{"type":"Feature","geometry":{"type":"Point","coordinates":[136.624,36.517]},"properties":{"Name":"大額２丁目公園","Jusho":"石川県金沢市大額2-132","kouzui":"×","gake":"○","takashio":"×","jishin":"○","tsunami":"○","kaji":"×","naisui":"×","kazan":"×"}}
,{"type":"Feature","geometry":{"type":"Point","coordinates":[136.677,36.536]},"properties":{"Name":"大桑防災拠点広場","Jusho":"石川県金沢市大桑3-80","kouzui":"×","gake":"○","takashio":"×","jishin":"○","tsunami":"○","kaji":"×","naisui":"×","kazan":"×"}}
,{"type":"Feature","geometry":{"type":"Point","coordinates":[136.678,36.536]},"properties":{"Name":"大桑かやのした公園","Jusho":"石川県金沢市大桑3-81","kouzui":"×","gake":"○","takashio":"×","jishin":"○","tsunami":"○","kaji":"×","naisui":"×","kazan":"×"}}
,{"type":"Feature","geometry":{"type":"Point","coordinates":[136.677,36.525]},"properties":{"Name":"金沢市老人福祉センター万寿苑","Jusho":"石川県金沢市大桑町ヤ1-4","kouzui":"○","gake":"○","takashio":"×","jishin":"○","tsunami":"○","kaji":"×","naisui":"×","kazan":"×"}}
,{"type":"Feature","geometry":{"type":"Point","coordinates":[136.671,36.633]},"properties":{"Name":"柳瀬川つつみ公園","Jusho":"石川県金沢市大場町西21-1","kouzui":"×","gake":"○","takashio":"×","jishin":"○","tsunami":"○","kaji":"×","naisui":"×","kazan":"×"}}
,{"type":"Feature","geometry":{"type":"Point","coordinates":[136.687,36.624]},"properties":{"Name":"石川県立金沢向陽高等学校","Jusho":"石川県金沢市大場町東590","kouzui":"○","gake":"○","takashio":"×","jishin":"○","tsunami":"○","kaji":"×","naisui":"×","kazan":"×"}}
,{"type":"Feature","geometry":{"type":"Point","coordinates":[136.633,36.573]},"properties":{"Name":"大豆田公園","Jusho":"石川県金沢市大豆田本町甲535","kouzui":"×","gake":"○","takashio":"×","jishin":"○","tsunami":"○","kaji":"×","naisui":"×","kazan":"×"}}
,{"type":"Feature","geometry":{"type":"Point","coordinates":[136.679,36.583]},"properties":{"Name":"石川県立金沢桜丘高等学校","Jusho":"石川県金沢市大樋町16-1","kouzui":"○","gake":"○","takashio":"×","jishin":"○","tsunami":"○","kaji":"×","naisui":"×","kazan":"×"}}
,{"type":"Feature","geometry":{"type":"Point","coordinates":[136.603,36.61]},"properties":{"Name":"金沢市立大野町小学校","Jusho":"石川県金沢市大野町1-15","kouzui":"○","gake":"○","takashio":"×","jishin":"○","tsunami":"○","kaji":"×","naisui":"×","kazan":"×"}}
,{"type":"Feature","geometry":{"type":"Point","coordinates":[136.603,36.611]},"properties":{"Name":"金沢市大野町公民館","Jusho":"石川県金沢市大野町1-8-5","kouzui":"○","gake":"○","takashio":"×","jishin":"○","tsunami":"○","kaji":"×","naisui":"×","kazan":"×"}}
,{"type":"Feature","geometry":{"type":"Point","coordinates":[136.626,36.6]},"properties":{"Name":"大友なぎさ公園","Jusho":"石川県金沢市大友1-148","kouzui":"×","gake":"○","takashio":"×","jishin":"○","tsunami":"○","kaji":"×","naisui":"×","kazan":"×"}}
,{"type":"Feature","geometry":{"type":"Point","coordinates":[136.639,36.569]},"properties":{"Name":"大和町防災拠点広場","Jusho":"石川県金沢市大和町1-1","kouzui":"×","gake":"○","takashio":"×","jishin":"○","tsunami":"○","kaji":"×","naisui":"×","kazan":"×"}}
,{"type":"Feature","geometry":{"type":"Point","coordinates":[136.598,36.579]},"properties":{"Name":"いしかわ総合スポーツセンター","Jusho":"石川県金沢市稚日野町北222","kouzui":"×","gake":"○","takashio":"×","jishin":"○","tsunami":"○","kaji":"×","naisui":"×","kazan":"×"}}
,{"type":"Feature","geometry":{"type":"Point","coordinates":[136.586,36.563]},"properties":{"Name":"産王の杜公園","Jusho":"石川県金沢市中屋1-177","kouzui":"×","gake":"○","takashio":"×","jishin":"○","tsunami":"○","kaji":"×","naisui":"×","kazan":"×"}}
,{"type":"Feature","geometry":{"type":"Point","coordinates":[136.642,36.559]},"properties":{"Name":"金沢市中村町公民館","Jusho":"石川県金沢市中村町10-35","kouzui":"○","gake":"○","takashio":"×","jishin":"○","tsunami":"○","kaji":"×","naisui":"×","kazan":"×"}}
,{"type":"Feature","geometry":{"type":"Point","coordinates":[136.642,36.561]},"properties":{"Name":"金沢市立中村町小学校","Jusho":"石川県金沢市中村町26-12","kouzui":"○","gake":"○","takashio":"×","jishin":"○","tsunami":"○","kaji":"×","naisui":"×","kazan":"×"}}
,{"type":"Feature","geometry":{"type":"Point","coordinates":[136.644,36.561]},"properties":{"Name":"中村町児童公園","Jusho":"石川県金沢市中村町281","kouzui":"×","gake":"○","takashio":"×","jishin":"○","tsunami":"○","kaji":"×","naisui":"×","kazan":"×"}}
,{"type":"Feature","geometry":{"type":"Point","coordinates":[136.692,36.627]},"properties":{"Name":"北部公園","Jusho":"石川県金沢市忠縄町","kouzui":"×","gake":"○","takashio":"×","jishin":"○","tsunami":"○","kaji":"×","naisui":"×","kazan":"×"}}
,{"type":"Feature","geometry":{"type":"Point","coordinates":[136.657,36.535]},"properties":{"Name":"金沢市立長坂台小学校","Jusho":"石川県金沢市長坂3-14-1","kouzui":"○","gake":"○","takashio":"×","jishin":"○","tsunami":"○","kaji":"×","naisui":"×","kazan":"×"}}
,{"type":"Feature","geometry":{"type":"Point","coordinates":[136.656,36.535]},"properties":{"Name":"長坂みはらし公園","Jusho":"石川県金沢市長坂3-1521","kouzui":"○","gake":"○","takashio":"×","jishin":"○","tsunami":"○","kaji":"×","naisui":"×","kazan":"×"}}
,{"type":"Feature","geometry":{"type":"Point","coordinates":[136.653,36.532]},"properties":{"Name":"長坂台児童公園","Jusho":"石川県金沢市長坂台136","kouzui":"○","gake":"○","takashio":"×","jishin":"○","tsunami":"○","kaji":"×","naisui":"×","kazan":"×"}}
,{"type":"Feature","geometry":{"type":"Point","coordinates":[136.657,36.53]},"properties":{"Name":"大乗寺丘陵公園","Jusho":"石川県金沢市長坂町ヲ135","kouzui":"○","gake":"○","takashio":"×","jishin":"○","tsunami":"○","kaji":"×","naisui":"×","kazan":"×"}}
,{"type":"Feature","geometry":{"type":"Point","coordinates":[136.649,36.563]},"properties":{"Name":"金沢市長町公民館","Jusho":"石川県金沢市長町2-2-16","kouzui":"○","gake":"○","takashio":"×","jishin":"○","tsunami":"○","kaji":"×","naisui":"×","kazan":"×"}}
,{"type":"Feature","geometry":{"type":"Point","coordinates":[136.65,36.563]},"properties":{"Name":"長町緑地","Jusho":"石川県金沢市長町2-2-43","kouzui":"×","gake":"○","takashio":"×","jishin":"○","tsunami":"○","kaji":"×","naisui":"×","kazan":"×"}}
,{"type":"Feature","geometry":{"type":"Point","coordinates":[136.65,36.563]},"properties":{"Name":"金沢市中央公民館長町館","Jusho":"石川県金沢市長町2-2-43","kouzui":"○","gake":"○","takashio":"×","jishin":"○","tsunami":"○","kaji":"×","naisui":"×","kazan":"×"}}
,{"type":"Feature","geometry":{"type":"Point","coordinates":[136.645,36.567]},"properties":{"Name":"金沢市長土塀青少年交流センター","Jusho":"石川県金沢市長町3-3-3","kouzui":"○","gake":"○","takashio":"×","jishin":"○","tsunami":"○","kaji":"×","naisui":"×","kazan":"×"}}
,{"type":"Feature","geometry":{"type":"Point","coordinates":[136.646,36.567]},"properties":{"Name":"金沢市営中央市民体育館","Jusho":"石川県金沢市長町3-3-3","kouzui":"○","gake":"○","takashio":"×","jishin":"○","tsunami":"○","kaji":"×","naisui":"×","kazan":"×"}}
,{"type":"Feature","geometry":{"type":"Point","coordinates":[136.645,36.567]},"properties":{"Name":"金沢市長土塀公民館","Jusho":"石川県金沢市長町3-3-3","kouzui":"○","gake":"○","takashio":"×","jishin":"○","tsunami":"○","kaji":"×","naisui":"×","kazan":"×"}}
,{"type":"Feature","geometry":{"type":"Point","coordinates":[136.642,36.575]},"properties":{"Name":"金沢市立長田町小学校","Jusho":"石川県金沢市長田1-5-40","kouzui":"○","gake":"○","takashio":"×","jishin":"○","tsunami":"○","kaji":"×","naisui":"×","kazan":"×"}}
,{"type":"Feature","geometry":{"type":"Point","coordinates":[136.643,36.576]},"properties":{"Name":"金沢市長田町公民館","Jusho":"石川県金沢市長田1-5-50","kouzui":"○","gake":"○","takashio":"×","jishin":"○","tsunami":"○","kaji":"×","naisui":"×","kazan":"×"}}
,{"type":"Feature","geometry":{"type":"Point","coordinates":[136.64,36.575]},"properties":{"Name":"長田２丁目ひまわり公園","Jusho":"石川県金沢市長田2-9","kouzui":"×","gake":"○","takashio":"×","jishin":"○","tsunami":"○","kaji":"×","naisui":"×","kazan":"×"}}
,{"type":"Feature","geometry":{"type":"Point","coordinates":[136.648,36.569]},"properties":{"Name":"穴水町児童公園","Jusho":"石川県金沢市長土塀1-151","kouzui":"×","gake":"○","takashio":"×","jishin":"○","tsunami":"○","kaji":"×","naisui":"×","kazan":"×"}}
,{"type":"Feature","geometry":{"type":"Point","coordinates":[136.635,36.611]},"properties":{"Name":"鞍月中央公園","Jusho":"石川県金沢市直江西1-201","kouzui":"×","gake":"○","takashio":"×","jishin":"○","tsunami":"○","kaji":"×","naisui":"×","kazan":"×"}}
,{"type":"Feature","geometry":{"type":"Point","coordinates":[136.633,36.603]},"properties":{"Name":"金沢市鞍月公民館","Jusho":"石川県金沢市直江南1-1","kouzui":"○","gake":"○","takashio":"×","jishin":"○","tsunami":"○","kaji":"×","naisui":"×","kazan":"×"}}
,{"type":"Feature","geometry":{"type":"Point","coordinates":[136.634,36.615]},"properties":{"Name":"直江北公園","Jusho":"石川県金沢市直江北1-176","kouzui":"×","gake":"○","takashio":"×","jishin":"○","tsunami":"○","kaji":"×","naisui":"×","kazan":"×"}}
,{"type":"Feature","geometry":{"type":"Point","coordinates":[136.697,36.615]},"properties":{"Name":"森本こどもグラウンド","Jusho":"石川県金沢市塚崎町ハ47-1","kouzui":"×","gake":"○","takashio":"×","jishin":"○","tsunami":"○","kaji":"×","naisui":"×","kazan":"×"}}
,{"type":"Feature","geometry":{"type":"Point","coordinates":[136.677,36.558]},"properties":{"Name":"天神しらうめ公園","Jusho":"石川県金沢市天神町1-586","kouzui":"×","gake":"○","takashio":"×","jishin":"○","tsunami":"○","kaji":"×","naisui":"×","kazan":"×"}}
,{"type":"Feature","geometry":{"type":"Point","coordinates":[136.674,36.56]},"properties":{"Name":"天神町緑地","Jusho":"石川県金沢市天神町2-617-1","kouzui":"×","gake":"○","takashio":"×","jishin":"○","tsunami":"○","kaji":"×","naisui":"×","kazan":"×"}}
,{"type":"Feature","geometry":{"type":"Point","coordinates":[136.694,36.504]},"properties":{"Name":"金沢工業大学天池自然学苑体育館","Jusho":"石川県金沢市天池町3","kouzui":"○","gake":"○","takashio":"×","jishin":"○","tsunami":"○","kaji":"×","naisui":"×","kazan":"×"}}
,{"type":"Feature","geometry":{"type":"Point","coordinates":[136.68,36.56]},"properties":{"Name":"金沢市立兼六中学校","Jusho":"石川県金沢市田井町12-12","kouzui":"×","gake":"○","takashio":"×","jishin":"○","tsunami":"○","kaji":"×","naisui":"×","kazan":"×"}}
,{"type":"Feature","geometry":{"type":"Point","coordinates":[136.679,36.561]},"properties":{"Name":"田井町第１児童公園","Jusho":"石川県金沢市田井町273","kouzui":"×","gake":"○","takashio":"×","jishin":"○","tsunami":"○","kaji":"×","naisui":"×","kazan":"×"}}
,{"type":"Feature","geometry":{"type":"Point","coordinates":[136.696,36.543]},"properties":{"Name":"田上中央公園","Jusho":"石川県金沢市田上1-6","kouzui":"×","gake":"×","takashio":"×","jishin":"○","tsunami":"○","kaji":"×","naisui":"×","kazan":"×"}}
,{"type":"Feature","geometry":{"type":"Point","coordinates":[136.69,36.542]},"properties":{"Name":"田上さくらぶち公園","Jusho":"石川県金沢市田上さくら1-100","kouzui":"×","gake":"○","takashio":"×","jishin":"○","tsunami":"○","kaji":"×","naisui":"×","kazan":"×"}}
,{"type":"Feature","geometry":{"type":"Point","coordinates":[136.689,36.548]},"properties":{"Name":"田上桜の道公園","Jusho":"石川県金沢市田上さくら3-111","kouzui":"×","gake":"○","takashio":"×","jishin":"○","tsunami":"○","kaji":"×","naisui":"×","kazan":"×"}}
,{"type":"Feature","geometry":{"type":"Point","coordinates":[136.694,36.544]},"properties":{"Name":"田上郷公園","Jusho":"石川県金沢市田上の里1-195","kouzui":"○","gake":"○","takashio":"×","jishin":"○","tsunami":"○","kaji":"×","naisui":"×","kazan":"×"}}
,{"type":"Feature","geometry":{"type":"Point","coordinates":[136.693,36.546]},"properties":{"Name":"金沢市立田上小学校","Jusho":"石川県金沢市田上の里2-1","kouzui":"○","gake":"○","takashio":"×","jishin":"○","tsunami":"○","kaji":"×","naisui":"×","kazan":"×"}}
,{"type":"Feature","geometry":{"type":"Point","coordinates":[136.692,36.545]},"properties":{"Name":"金沢市田上公民館","Jusho":"石川県金沢市田上の里2-3","kouzui":"○","gake":"○","takashio":"×","jishin":"○","tsunami":"○","kaji":"×","naisui":"×","kazan":"×"}}
,{"type":"Feature","geometry":{"type":"Point","coordinates":[136.7,36.543]},"properties":{"Name":"田上児童公園","Jusho":"石川県金沢市田上新町234-1","kouzui":"×","gake":"×","takashio":"×","jishin":"○","tsunami":"○","kaji":"×","naisui":"×","kazan":"×"}}
,{"type":"Feature","geometry":{"type":"Point","coordinates":[136.693,36.534]},"properties":{"Name":"田上本町朝霧公園","Jusho":"石川県金沢市田上本町1-1","kouzui":"×","gake":"○","takashio":"×","jishin":"○","tsunami":"○","kaji":"×","naisui":"×","kazan":"×"}}
,{"type":"Feature","geometry":{"type":"Point","coordinates":[136.699,36.532]},"properties":{"Name":"田上本町馬場公園","Jusho":"石川県金沢市田上本町1-1","kouzui":"○","gake":"○","takashio":"×","jishin":"○","tsunami":"○","kaji":"×","naisui":"×","kazan":"×"}}
,{"type":"Feature","geometry":{"type":"Point","coordinates":[136.697,36.538]},"properties":{"Name":"田上本町高嶋公園","Jusho":"石川県金沢市田上本町3-52-1","kouzui":"○","gake":"○","takashio":"×","jishin":"○","tsunami":"○","kaji":"×","naisui":"×","kazan":"×"}}
,{"type":"Feature","geometry":{"type":"Point","coordinates":[136.691,36.528]},"properties":{"Name":"土清水なかの公園","Jusho":"石川県金沢市土清水1-297","kouzui":"○","gake":"○","takashio":"×","jishin":"○","tsunami":"○","kaji":"×","naisui":"×","kazan":"×"}}
,{"type":"Feature","geometry":{"type":"Point","coordinates":[136.691,36.526]},"properties":{"Name":"土清水たかみ公園","Jusho":"石川県金沢市土清水2-337","kouzui":"○","gake":"○","takashio":"×","jishin":"○","tsunami":"○","kaji":"×","naisui":"×","kazan":"×"}}
,{"type":"Feature","geometry":{"type":"Point","coordinates":[136.691,36.525]},"properties":{"Name":"金沢市営城東市民体育館","Jusho":"石川県金沢市土清水2-346","kouzui":"○","gake":"○","takashio":"×","jishin":"○","tsunami":"○","kaji":"×","naisui":"×","kazan":"×"}}
,{"type":"Feature","geometry":{"type":"Point","coordinates":[136.691,36.532]},"properties":{"Name":"土清水みすぎ公園","Jusho":"石川県金沢市土清水3-66","kouzui":"○","gake":"○","takashio":"×","jishin":"○","tsunami":"○","kaji":"×","naisui":"×","kazan":"×"}}
,{"type":"Feature","geometry":{"type":"Point","coordinates":[136.664,36.633]},"properties":{"Name":"こなん水辺公園","Jusho":"石川県金沢市東蚊爪町マ33-1","kouzui":"×","gake":"○","takashio":"×","jishin":"○","tsunami":"○","kaji":"×","naisui":"×","kazan":"×"}}
,{"type":"Feature","geometry":{"type":"Point","coordinates":[136.666,36.563]},"properties":{"Name":"金沢大学人間社会学域学校教育学類附属特別支援学校","Jusho":"石川県金沢市東兼六町2-10","kouzui":"○","gake":"○","takashio":"×","jishin":"○","tsunami":"○","kaji":"×","naisui":"×","kazan":"×"}}
,{"type":"Feature","geometry":{"type":"Point","coordinates":[136.674,36.568]},"properties":{"Name":"常盤町緑地","Jusho":"石川県金沢市東御影町163-1","kouzui":"×","gake":"×","takashio":"×","jishin":"○","tsunami":"○","kaji":"×","naisui":"×","kazan":"×"}}
,{"type":"Feature","geometry":{"type":"Point","coordinates":[136.665,36.575]},"properties":{"Name":"金沢市立馬場小学校","Jusho":"石川県金沢市東山3-9-30","kouzui":"○","gake":"○","takashio":"×","jishin":"○","tsunami":"○","kaji":"×","naisui":"×","kazan":"×"}}
,{"type":"Feature","geometry":{"type":"Point","coordinates":[136.665,36.574]},"properties":{"Name":"金沢市馬場公民館","Jusho":"石川県金沢市東山3-9-35","kouzui":"○","gake":"○","takashio":"×","jishin":"○","tsunami":"○","kaji":"×","naisui":"×","kazan":"×"}}
,{"type":"Feature","geometry":{"type":"Point","coordinates":[136.692,36.578]},"properties":{"Name":"金沢市立夕日寺小学校","Jusho":"石川県金沢市東長江町に17","kouzui":"×","gake":"×","takashio":"×","jishin":"○","tsunami":"○","kaji":"×","naisui":"×","kazan":"×"}}
,{"type":"Feature","geometry":{"type":"Point","coordinates":[136.689,36.568]},"properties":{"Name":"卯辰山公園健康交流センター千寿閣","Jusho":"石川県金沢市東長江町辺2-1","kouzui":"○","gake":"○","takashio":"×","jishin":"○","tsunami":"○","kaji":"×","naisui":"×","kazan":"×"}}
,{"type":"Feature","geometry":{"type":"Point","coordinates":[136.624,36.563]},"properties":{"Name":"あすなろの森","Jusho":"石川県金沢市東力4-90","kouzui":"×","gake":"○","takashio":"×","jishin":"○","tsunami":"○","kaji":"×","naisui":"×","kazan":"×"}}
,{"type":"Feature","geometry":{"type":"Point","coordinates":[136.62,36.566]},"properties":{"Name":"金沢市立米丸小学校","Jusho":"石川県金沢市東力町ニ155","kouzui":"○","gake":"○","takashio":"×","jishin":"○","tsunami":"○","kaji":"×","naisui":"×","kazan":"×"}}
,{"type":"Feature","geometry":{"type":"Point","coordinates":[136.62,36.563]},"properties":{"Name":"金沢市営西部市民体育会館","Jusho":"石川県金沢市東力町ハ250","kouzui":"○","gake":"○","takashio":"×","jishin":"○","tsunami":"○","kaji":"×","naisui":"×","kazan":"×"}}
,{"type":"Feature","geometry":{"type":"Point","coordinates":[136.619,36.563]},"properties":{"Name":"金沢市西部市民憩いの家","Jusho":"石川県金沢市東力町ハ256","kouzui":"○","gake":"○","takashio":"×","jishin":"○","tsunami":"○","kaji":"×","naisui":"×","kazan":"×"}}
,{"type":"Feature","geometry":{"type":"Point","coordinates":[136.618,36.563]},"properties":{"Name":"伏見川中央公園","Jusho":"石川県金沢市東力町ハ273","kouzui":"×","gake":"○","takashio":"×","jishin":"○","tsunami":"○","kaji":"×","naisui":"×","kazan":"×"}}
,{"type":"Feature","geometry":{"type":"Point","coordinates":[136.618,36.561]},"properties":{"Name":"米丸交流広場","Jusho":"石川県金沢市東力町ハ284","kouzui":"×","gake":"○","takashio":"×","jishin":"○","tsunami":"○","kaji":"×","naisui":"×","kazan":"×"}}
,{"type":"Feature","geometry":{"type":"Point","coordinates":[136.753,36.492]},"properties":{"Name":"金沢市立芝原中学校","Jusho":"石川県金沢市湯涌荒屋町23","kouzui":"○","gake":"○","takashio":"×","jishin":"○","tsunami":"○","kaji":"×","naisui":"×","kazan":"×"}}
,{"type":"Feature","geometry":{"type":"Point","coordinates":[136.754,36.492]},"properties":{"Name":"金沢市立湯涌小学校","Jusho":"石川県金沢市湯涌荒屋町23","kouzui":"○","gake":"○","takashio":"×","jishin":"○","tsunami":"○","kaji":"×","naisui":"×","kazan":"×"}}
,{"type":"Feature","geometry":{"type":"Point","coordinates":[136.622,36.589]},"properties":{"Name":"藤江北中央公園","Jusho":"石川県金沢市藤江北2-337","kouzui":"×","gake":"○","takashio":"×","jishin":"○","tsunami":"○","kaji":"×","naisui":"×","kazan":"×"}}
,{"type":"Feature","geometry":{"type":"Point","coordinates":[136.62,36.592]},"properties":{"Name":"藤江北やすらぎ公園","Jusho":"石川県金沢市藤江北4-446","kouzui":"×","gake":"○","takashio":"×","jishin":"○","tsunami":"○","kaji":"×","naisui":"×","kazan":"×"}}
,{"type":"Feature","geometry":{"type":"Point","coordinates":[136.619,36.498]},"properties":{"Name":"四十万あいぞめ公園","Jusho":"石川県金沢市南四十万1-221","kouzui":"○","gake":"○","takashio":"×","jishin":"○","tsunami":"○","kaji":"×","naisui":"×","kazan":"×"}}
,{"type":"Feature","geometry":{"type":"Point","coordinates":[136.633,36.602]},"properties":{"Name":"金沢市立鞍月小学校","Jusho":"石川県金沢市南新保町リ27-1","kouzui":"○","gake":"○","takashio":"×","jishin":"○","tsunami":"○","kaji":"×","naisui":"×","kazan":"×"}}
,{"type":"Feature","geometry":{"type":"Point","coordinates":[136.693,36.623]},"properties":{"Name":"金沢市立森本小学校","Jusho":"石川県金沢市南森本町イ24","kouzui":"○","gake":"○","takashio":"×","jishin":"○","tsunami":"○","kaji":"×","naisui":"×","kazan":"×"}}
,{"type":"Feature","geometry":{"type":"Point","coordinates":[136.693,36.617]},"properties":{"Name":"金沢市森本公民館","Jusho":"石川県金沢市南森本町チ103-1","kouzui":"○","gake":"○","takashio":"×","jishin":"○","tsunami":"○","kaji":"×","naisui":"×","kazan":"×"}}
,{"type":"Feature","geometry":{"type":"Point","coordinates":[136.699,36.616]},"properties":{"Name":"森本しちょうが丘公園","Jusho":"石川県金沢市南森本町ワ102","kouzui":"×","gake":"○","takashio":"×","jishin":"○","tsunami":"○","kaji":"×","naisui":"×","kazan":"×"}}
,{"type":"Feature","geometry":{"type":"Point","coordinates":[136.629,36.585]},"properties":{"Name":"金沢市立長田中学校","Jusho":"石川県金沢市二宮町1-1","kouzui":"○","gake":"○","takashio":"×","jishin":"○","tsunami":"○","kaji":"×","naisui":"×","kazan":"×"}}
,{"type":"Feature","geometry":{"type":"Point","coordinates":[136.762,36.562]},"properties":{"Name":"金沢市医王山公民館","Jusho":"石川県金沢市二俣町6-14-9","kouzui":"○","gake":"○","takashio":"×","jishin":"○","tsunami":"○","kaji":"×","naisui":"×","kazan":"×"}}
,{"type":"Feature","geometry":{"type":"Point","coordinates":[136.76,36.556]},"properties":{"Name":"金沢市立医王山中学校","Jusho":"石川県金沢市二俣町サ21","kouzui":"○","gake":"○","takashio":"×","jishin":"○","tsunami":"○","kaji":"×","naisui":"×","kazan":"×"}}
,{"type":"Feature","geometry":{"type":"Point","coordinates":[136.76,36.555]},"properties":{"Name":"金沢市立医王山小学校","Jusho":"石川県金沢市二俣町サ21","kouzui":"○","gake":"○","takashio":"×","jishin":"○","tsunami":"○","kaji":"×","naisui":"×","kazan":"×"}}
,{"type":"Feature","geometry":{"type":"Point","coordinates":[136.627,36.566]},"properties":{"Name":"入江第１児童公園","Jusho":"石川県金沢市入江2-250","kouzui":"×","gake":"○","takashio":"×","jishin":"○","tsunami":"○","kaji":"×","naisui":"×","kazan":"×"}}
,{"type":"Feature","geometry":{"type":"Point","coordinates":[136.624,36.522]},"properties":{"Name":"金沢市扇台公民館","Jusho":"石川県金沢市馬替1-29-1","kouzui":"×","gake":"○","takashio":"×","jishin":"○","tsunami":"○","kaji":"×","naisui":"×","kazan":"×"}}
,{"type":"Feature","geometry":{"type":"Point","coordinates":[136.625,36.523]},"properties":{"Name":"金沢市立扇台小学校","Jusho":"石川県金沢市馬替1-34","kouzui":"×","gake":"○","takashio":"×","jishin":"○","tsunami":"○","kaji":"×","naisui":"×","kazan":"×"}}
,{"type":"Feature","geometry":{"type":"Point","coordinates":[136.622,36.523]},"properties":{"Name":"馬替児童公園","Jusho":"石川県金沢市馬替2-39","kouzui":"×","gake":"○","takashio":"×","jishin":"○","tsunami":"○","kaji":"×","naisui":"×","kazan":"×"}}
,{"type":"Feature","geometry":{"type":"Point","coordinates":[136.647,36.56]},"properties":{"Name":"白菊町緑地","Jusho":"石川県金沢市白菊町370-1","kouzui":"×","gake":"○","takashio":"×","jishin":"○","tsunami":"○","kaji":"×","naisui":"×","kazan":"×"}}
,{"type":"Feature","geometry":{"type":"Point","coordinates":[136.676,36.634]},"properties":{"Name":"金沢競馬場","Jusho":"石川県金沢市八田町西1","kouzui":"×","gake":"○","takashio":"×","jishin":"○","tsunami":"○","kaji":"×","naisui":"×","kazan":"×"}}
,{"type":"Feature","geometry":{"type":"Point","coordinates":[136.686,36.633]},"properties":{"Name":"金沢市湖南公民館","Jusho":"石川県金沢市八田町東1459-1","kouzui":"○","gake":"○","takashio":"×","jishin":"○","tsunami":"○","kaji":"×","naisui":"×","kazan":"×"}}
,{"type":"Feature","geometry":{"type":"Point","coordinates":[136.609,36.546]},"properties":{"Name":"金沢市立押野小学校","Jusho":"石川県金沢市八日市1-175","kouzui":"○","gake":"○","takashio":"×","jishin":"○","tsunami":"○","kaji":"×","naisui":"×","kazan":"×"}}
,{"type":"Feature","geometry":{"type":"Point","coordinates":[136.609,36.546]},"properties":{"Name":"金沢市押野公民館","Jusho":"石川県金沢市八日市2-464","kouzui":"○","gake":"○","takashio":"×","jishin":"○","tsunami":"○","kaji":"×","naisui":"×","kazan":"×"}}
,{"type":"Feature","geometry":{"type":"Point","coordinates":[136.608,36.544]},"properties":{"Name":"八日市住吉中央公園","Jusho":"石川県金沢市八日市2-608","kouzui":"○","gake":"○","takashio":"×","jishin":"○","tsunami":"○","kaji":"×","naisui":"×","kazan":"×"}}
,{"type":"Feature","geometry":{"type":"Point","coordinates":[136.61,36.548]},"properties":{"Name":"八日市アメリカフウ児童公園","Jusho":"石川県金沢市八日市5-296","kouzui":"○","gake":"○","takashio":"×","jishin":"○","tsunami":"○","kaji":"×","naisui":"×","kazan":"×"}}
,{"type":"Feature","geometry":{"type":"Point","coordinates":[136.61,36.551]},"properties":{"Name":"八日市ケヤキ児童公園","Jusho":"石川県金沢市八日市5-455","kouzui":"○","gake":"○","takashio":"×","jishin":"○","tsunami":"○","kaji":"×","naisui":"×","kazan":"×"}}
,{"type":"Feature","geometry":{"type":"Point","coordinates":[136.608,36.556]},"properties":{"Name":"金沢市立西南部小学校","Jusho":"石川県金沢市八日市出町304","kouzui":"○","gake":"○","takashio":"×","jishin":"○","tsunami":"○","kaji":"×","naisui":"×","kazan":"×"}}
,{"type":"Feature","geometry":{"type":"Point","coordinates":[136.608,36.553]},"properties":{"Name":"八日市出町ふるみや公園","Jusho":"石川県金沢市八日市出町718","kouzui":"○","gake":"○","takashio":"×","jishin":"○","tsunami":"○","kaji":"×","naisui":"×","kazan":"×"}}
,{"type":"Feature","geometry":{"type":"Point","coordinates":[136.667,36.559]},"properties":{"Name":"北陸学院高等学校","Jusho":"石川県金沢市飛梅町1-10","kouzui":"○","gake":"○","takashio":"×","jishin":"○","tsunami":"○","kaji":"×","naisui":"×","kazan":"×"}}
,{"type":"Feature","geometry":{"type":"Point","coordinates":[136.669,36.558]},"properties":{"Name":"金沢市立紫錦台中学校","Jusho":"石川県金沢市飛梅町3-30","kouzui":"○","gake":"○","takashio":"×","jishin":"○","tsunami":"○","kaji":"×","naisui":"×","kazan":"×"}}
,{"type":"Feature","geometry":{"type":"Point","coordinates":[136.673,36.602]},"properties":{"Name":"疋田中央公園","Jusho":"石川県金沢市疋田1-187","kouzui":"×","gake":"○","takashio":"×","jishin":"○","tsunami":"○","kaji":"×","naisui":"×","kazan":"×"}}
,{"type":"Feature","geometry":{"type":"Point","coordinates":[136.673,36.605]},"properties":{"Name":"東インター公園","Jusho":"石川県金沢市疋田3-65","kouzui":"×","gake":"○","takashio":"×","jishin":"○","tsunami":"○","kaji":"×","naisui":"×","kazan":"×"}}
,{"type":"Feature","geometry":{"type":"Point","coordinates":[136.66,36.575]},"properties":{"Name":"金沢市中央公民館彦三館","Jusho":"石川県金沢市彦三町1-15-5","kouzui":"○","gake":"○","takashio":"×","jishin":"○","tsunami":"○","kaji":"×","naisui":"×","kazan":"×"}}
,{"type":"Feature","geometry":{"type":"Point","coordinates":[136.657,36.576]},"properties":{"Name":"金沢市瓢箪町公民館","Jusho":"石川県金沢市彦三町2-10-5","kouzui":"○","gake":"○","takashio":"×","jishin":"○","tsunami":"○","kaji":"×","naisui":"×","kazan":"×"}}
,{"type":"Feature","geometry":{"type":"Point","coordinates":[136.725,36.534]},"properties":{"Name":"金沢市俵公民館","Jusho":"石川県金沢市俵町ツ63-2","kouzui":"○","gake":"○","takashio":"×","jishin":"×","tsunami":"○","kaji":"×","naisui":"×","kazan":"×"}}
,{"type":"Feature","geometry":{"type":"Point","coordinates":[136.724,36.534]},"properties":{"Name":"俵交流芸術スタジオ","Jusho":"石川県金沢市俵町ヘ乙22","kouzui":"○","gake":"○","takashio":"×","jishin":"○","tsunami":"○","kaji":"×","naisui":"×","kazan":"×"}}
,{"type":"Feature","geometry":{"type":"Point","coordinates":[136.657,36.577]},"properties":{"Name":"金沢市立明成小学校","Jusho":"石川県金沢市瓢箪町5-48","kouzui":"○","gake":"○","takashio":"×","jishin":"○","tsunami":"○","kaji":"×","naisui":"×","kazan":"×"}}
,{"type":"Feature","geometry":{"type":"Point","coordinates":[136.708,36.609]},"properties":{"Name":"金沢市立不動寺小学校","Jusho":"石川県金沢市不動寺町イ33","kouzui":"○","gake":"○","takashio":"×","jishin":"○","tsunami":"○","kaji":"×","naisui":"×","kazan":"×"}}
,{"type":"Feature","geometry":{"type":"Point","coordinates":[136.709,36.608]},"properties":{"Name":"金沢市薬師谷公民館","Jusho":"石川県金沢市不動寺町イ34-1","kouzui":"○","gake":"○","takashio":"×","jishin":"○","tsunami":"○","kaji":"×","naisui":"×","kazan":"×"}}
,{"type":"Feature","geometry":{"type":"Point","coordinates":[136.643,36.539]},"properties":{"Name":"金沢南総合運動公園","Jusho":"石川県金沢市富樫3-8-30","kouzui":"○","gake":"○","takashio":"×","jishin":"○","tsunami":"○","kaji":"×","naisui":"×","kazan":"×"}}
,{"type":"Feature","geometry":{"type":"Point","coordinates":[136.583,36.592]},"properties":{"Name":"健民海浜公園","Jusho":"石川県金沢市普正寺町11-1-1","kouzui":"○","gake":"○","takashio":"×","jishin":"○","tsunami":"○","kaji":"×","naisui":"×","kazan":"×"}}
,{"type":"Feature","geometry":{"type":"Point","coordinates":[136.638,36.534]},"properties":{"Name":"寺地なかよし公園","Jusho":"石川県金沢市伏見台2-72","kouzui":"×","gake":"○","takashio":"×","jishin":"○","tsunami":"○","kaji":"×","naisui":"×","kazan":"×"}}
,{"type":"Feature","geometry":{"type":"Point","coordinates":[136.635,36.532]},"properties":{"Name":"円光寺第２公園","Jusho":"石川県金沢市伏見台3-58","kouzui":"×","gake":"○","takashio":"×","jishin":"○","tsunami":"○","kaji":"×","naisui":"×","kazan":"×"}}
,{"type":"Feature","geometry":{"type":"Point","coordinates":[136.679,36.617]},"properties":{"Name":"福久中央公園","Jusho":"石川県金沢市福久1-78","kouzui":"×","gake":"○","takashio":"×","jishin":"○","tsunami":"○","kaji":"×","naisui":"×","kazan":"×"}}
,{"type":"Feature","geometry":{"type":"Point","coordinates":[136.682,36.619]},"properties":{"Name":"福久かねと公園","Jusho":"石川県金沢市福久2-131","kouzui":"×","gake":"○","takashio":"×","jishin":"○","tsunami":"○","kaji":"×","naisui":"×","kazan":"×"}}
,{"type":"Feature","geometry":{"type":"Point","coordinates":[136.679,36.611]},"properties":{"Name":"福久南ほたる公園","Jusho":"石川県金沢市福久町ヘ47-1","kouzui":"×","gake":"○","takashio":"×","jishin":"○","tsunami":"○","kaji":"×","naisui":"×","kazan":"×"}}
,{"type":"Feature","geometry":{"type":"Point","coordinates":[136.679,36.614]},"properties":{"Name":"福久町わんぱく公園","Jusho":"石川県金沢市福久町ヲ121","kouzui":"×","gake":"○","takashio":"×","jishin":"○","tsunami":"○","kaji":"×","naisui":"×","kazan":"×"}}
,{"type":"Feature","geometry":{"type":"Point","coordinates":[136.582,36.563]},"properties":{"Name":"福増あじさい公園","Jusho":"石川県金沢市福増町南1309","kouzui":"×","gake":"○","takashio":"×","jishin":"○","tsunami":"○","kaji":"×","naisui":"×","kazan":"×"}}
,{"type":"Feature","geometry":{"type":"Point","coordinates":[136.581,36.561]},"properties":{"Name":"福増ゆめ公園","Jusho":"石川県金沢市福増町南1310","kouzui":"×","gake":"○","takashio":"×","jishin":"○","tsunami":"○","kaji":"×","naisui":"×","kazan":"×"}}
,{"type":"Feature","geometry":{"type":"Point","coordinates":[136.58,36.568]},"properties":{"Name":"金沢市安原公民館","Jusho":"石川県金沢市福増町北1067","kouzui":"○","gake":"○","takashio":"×","jishin":"○","tsunami":"○","kaji":"×","naisui":"×","kazan":"×"}}
,{"type":"Feature","geometry":{"type":"Point","coordinates":[136.579,36.567]},"properties":{"Name":"金沢市立安原小学校","Jusho":"石川県金沢市福増町北1087","kouzui":"○","gake":"○","takashio":"×","jishin":"○","tsunami":"○","kaji":"×","naisui":"×","kazan":"×"}}
,{"type":"Feature","geometry":{"type":"Point","coordinates":[136.577,36.566]},"properties":{"Name":"安原中央公園","Jusho":"石川県金沢市福増町北744","kouzui":"×","gake":"○","takashio":"×","jishin":"○","tsunami":"○","kaji":"×","naisui":"×","kazan":"×"}}
,{"type":"Feature","geometry":{"type":"Point","coordinates":[136.743,36.518]},