var ishikawa={"type":"FeatureCollection","name":"ishikawa","features":[
{"type":"Feature","geometry":{"type":"Point","coordinates":[136.648,36.553]},"properties":{"Name":"旧金沢市立野町小学校","Jusho":"石川県金沢市野町3丁目11番1号","kouzui":"○","gake":"○","takashio":"×","jishin":"○","tsunami":"○","kaji":"×","naisui":"×","kazan":"×"}}
,{"type":"Feature","geometry":{"type":"Point","coordinates":[136.639,36.554]},"properties":{"Name":"石川県立金沢中央高等学校","Jusho":"石川県金沢市泉本町6丁目105番地","kouzui":"○","gake":"○","takashio":"×","jishin":"○","tsunami":"○","kaji":"×","naisui":"×","kazan":"×"}}
,{"type":"Feature","geometry":{"type":"Point","coordinates":[136.647,36.553]},"properties":{"Name":"金沢市野町公民館","Jusho":"石川県金沢市野町３丁目11番１号","kouzui":"○","gake":"○","takashio":"×","jishin":"○","tsunami":"○","kaji":"×","naisui":"×","kazan":"×"}}
,{"type":"Feature","geometry":{"type":"Point","coordinates":[136.646,36.55]},"properties":{"Name":"金沢市立泉小学校","Jusho":"石川県金沢市弥生1丁目26番1号","kouzui":"○","gake":"○","takashio":"×","jishin":"○","tsunami":"○","kaji":"×","naisui":"×","kazan":"×"}}
,{"type":"Feature","geometry":{"type":"Point","coordinates":[136.645,36.549]},"properties":{"Name":"金沢市立泉中学校","Jusho":"石川県金沢市弥生1丁目26番1号","kouzui":"○","gake":"○","takashio":"×","jishin":"×","tsunami":"○","kaji":"×","naisui":"×","kazan":"×"}}
,{"type":"Feature","geometry":{"type":"Point","coordinates":[136.645,36.549]},"properties":{"Name":"金沢市弥生公民館","Jusho":"石川県金沢市弥生1丁目29番13号","kouzui":"○","gake":"○","takashio":"×","jishin":"○","tsunami":"○","kaji":"×","naisui":"×","kazan":"×"}}
,{"type":"Feature","geometry":{"type":"Point","coordinates":[136.649,36.544]},"properties":{"Name":"泉が丘おあしす広場","Jusho":"石川県金沢市泉が丘1丁目72番地","kouzui":"○","gake":"○","takashio":"×","jishin":"○","tsunami":"○","kaji":"×","naisui":"×","kazan":"×"}}
,{"type":"Feature","geometry":{"type":"Point","coordinates":[136.644,36.549]},"properties":{"Name":"弥生さくら公園","Jusho":"石川県金沢市弥生1丁目753番2ほか","kouzui":"○","gake":"○","takashio":"×","jishin":"○","tsunami":"○","kaji":"×","naisui":"×","kazan":"×"}}
,{"type":"Feature","geometry":{"type":"Point","coordinates":[136.642,36.561]},"properties":{"Name":"金沢市立中村町小学校","Jusho":"石川県金沢市中村町26番12号","kouzui":"○","gake":"○","takashio":"×","jishin":"○","tsunami":"○","kaji":"×","naisui":"×","kazan":"×"}}
,{"type":"Feature","geometry":{"type":"Point","coordinates":[136.642,36.559]},"properties":{"Name":"金沢市中村町公民館","Jusho":"石川県金沢市中村町10番35号","kouzui":"○","gake":"○","takashio":"×","jishin":"○","tsunami":"○","kaji":"×","naisui":"×","kazan":"×"}}
,{"type":"Feature","geometry":{"type":"Point","coordinates":[136.635,36.559]},"properties":{"Name":"神泉児童公園","Jusho":"石川県金沢市神田2丁目27番地","kouzui":"○","gake":"○","takashio":"×","jishin":"○","tsunami":"○","kaji":"×","naisui":"×","kazan":"×"}}
,{"type":"Feature","geometry":{"type":"Point","coordinates":[136.637,36.562]},"properties":{"Name":"神田町児童公園","Jusho":"石川県金沢市神田1丁目271番地","kouzui":"○","gake":"○","takashio":"×","jishin":"○","tsunami":"○","kaji":"×","naisui":"×","kazan":"×"}}
,{"type":"Feature","geometry":{"type":"Point","coordinates":[136.644,36.561]},"properties":{"Name":"中村町児童公園","Jusho":"石川県金沢市中村町281番地","kouzui":"○","gake":"○","takashio":"×","jishin":"○","tsunami":"○","kaji":"×","naisui":"×","kazan":"×"}}
,{"type":"Feature","geometry":{"type":"Point","coordinates":[136.647,36.56]},"properties":{"Name":"白菊町緑地","Jusho":"石川県金沢市白菊町370番地1ほか","kouzui":"○","gake":"○","takashio":"×","jishin":"○","tsunami":"○","kaji":"×","naisui":"×","kazan":"×"}}
,{"type":"Feature","geometry":{"type":"Point","coordinates":[136.661,36.545]},"properties":{"Name":"金沢市立十一屋小学校","Jusho":"石川県金沢市十一屋町3番45号","kouzui":"○","gake":"○","takashio":"×","jishin":"○","tsunami":"○","kaji":"×","naisui":"×","kazan":"×"}}
,{"type":"Feature","geometry":{"type":"Point","coordinates":[136.658,36.544]},"properties":{"Name":"金沢市立野田中学校","Jusho":"石川県金沢市若草町1番23号","kouzui":"○","gake":"○","takashio":"×","jishin":"○","tsunami":"○","kaji":"×","naisui":"×","kazan":"×"}}
,{"type":"Feature","geometry":{"type":"Point","coordinates":[136.663,36.546]},"properties":{"Name":"いしかわ子ども交流センター","Jusho":"石川県金沢市法島町11番8号","kouzui":"○","gake":"○","takashio":"×","jishin":"○","tsunami":"○","kaji":"×","naisui":"×","kazan":"×"}}
,{"type":"Feature","geometry":{"type":"Point","coordinates":[136.661,36.542]},"properties":{"Name":"金沢市城南公民館","Jusho":"石川県金沢市若草町22番12号","kouzui":"○","gake":"○","takashio":"×","jishin":"○","tsunami":"○","kaji":"×","naisui":"×","kazan":"×"}}
,{"type":"Feature","geometry":{"type":"Point","coordinates":[136.677,36.525]},"properties":{"Name":"金沢市老人福祉センター万寿苑","Jusho":"石川県金沢市大桑町ヤ1番地4","kouzui":"○","gake":"○","takashio":"×","jishin":"○","tsunami":"○","kaji":"×","naisui":"×","kazan":"×"}}
,{"type":"Feature","geometry":{"type":"Point","coordinates":[136.679,36.527]},"properties":{"Name":"つつじが丘児童公園","Jusho":"石川県金沢市つつじが丘202番地","kouzui":"○","gake":"×","takashio":"×","jishin":"○","tsunami":"○","kaji":"×","naisui":"×","kazan":"×"}}
,{"type":"Feature","geometry":{"type":"Point","coordinates":[136.687,36.537]},"properties":{"Name":"犀川緑地","Jusho":"石川県金沢市涌波～普正寺町","kouzui":"×","gake":"○","takashio":"×","jishin":"○","tsunami":"○","kaji":"×","naisui":"×","kazan":"×"}}
,{"type":"Feature","geometry":{"type":"Point","coordinates":[136.671,36.54]},"properties":{"Name":"西大桑町児童公園","Jusho":"石川県金沢市西大桑町715番地ほか","kouzui":"○","gake":"○","takashio":"×","jishin":"○","tsunami":"○","kaji":"×","naisui":"×","kazan":"×"}}
,{"type":"Feature","geometry":{"type":"Point","coordinates":[136.665,36.541]},"properties":{"Name":"平和町公園","Jusho":"石川県金沢市平和町2丁目164番地","kouzui":"○","gake":"○","takashio":"×","jishin":"○","tsunami":"○","kaji":"×","naisui":"×","kazan":"×"}}
,{"type":"Feature","geometry":{"type":"Point","coordinates":[136.663,36.534]},"properties":{"Name":"野田西公園","Jusho":"石川県金沢市野田4丁目173番地","kouzui":"○","gake":"○","takashio":"×","jishin":"○","tsunami":"○","kaji":"×","naisui":"×","kazan":"×"}}
,{"type":"Feature","geometry":{"type":"Point","coordinates":[136.669,36.536]},"properties":{"Name":"野田東公園","Jusho":"石川県金沢市野田2丁目120番地","kouzui":"○","gake":"○","takashio":"×","jishin":"○","tsunami":"○","kaji":"×","naisui":"×","kazan":"×"}}
,{"type":"Feature","geometry":{"type":"Point","coordinates":[136.673,36.532]},"properties":{"Name":"野田南広場","Jusho":"石川県金沢市野田1丁目45番地","kouzui":"○","gake":"○","takashio":"×","jishin":"○","tsunami":"○","kaji":"×","naisui":"×","kazan":"×"}}
,{"type":"Feature","geometry":{"type":"Point","coordinates":[136.67,36.533]},"properties":{"Name":"野田中央公園","Jusho":"石川県金沢市野田1丁目176番地","kouzui":"○","gake":"○","takashio":"×","jishin":"○","tsunami":"○","kaji":"×","naisui":"×","kazan":"×"}}
,{"type":"Feature","geometry":{"type":"Point","coordinates":[136.654,36.542]},"properties":{"Name":"金沢市立泉野小学校","Jusho":"石川県金沢市緑が丘4番64号","kouzui":"○","gake":"○","takashio":"×","jishin":"○","tsunami":"○","kaji":"×","naisui":"×","kazan":"×"}}
,{"type":"Feature","geometry":{"type":"Point","coordinates":[136.649,36.538]},"properties":{"Name":"石川県立金沢泉丘高等学校","Jusho":"石川県金沢市泉野出町3丁目10番10号","kouzui":"○","gake":"○","takashio":"×","jishin":"○","tsunami":"○","kaji":"×","naisui":"×","kazan":"×"}}
,{"type":"Feature","geometry":{"type":"Point","coordinates":[136.658,36.541]},"properties":{"Name":"石川県立金沢二水高等学校","Jusho":"石川県金沢市緑が丘20番15号","kouzui":"○","gake":"○","takashio":"×","jishin":"○","tsunami":"○","kaji":"×","naisui":"×","kazan":"×"}}
,{"type":"Feature","geometry":{"type":"Point","coordinates":[136.657,36.544]},"properties":{"Name":"金沢市営城南市民体育館","Jusho":"石川県金沢市若草町1番60号","kouzui":"○","gake":"○","takashio":"×","jishin":"○","tsunami":"○","kaji":"×","naisui":"×","kazan":"×"}}
,{"type":"Feature","geometry":{"type":"Point","coordinates":[136.65,36.54]},"properties":{"Name":"金沢市総合体育館","Jusho":"石川県金沢市泉野出町3丁目8番1号","kouzui":"○","gake":"○","takashio":"×","jishin":"○","tsunami":"○","kaji":"×","naisui":"×","kazan":"×"}}
,{"type":"Feature","geometry":{"type":"Point","coordinates":[136.651,36.537]},"properties":{"Name":"泉野出町第１公園","Jusho":"石川県金沢市泉野出町2丁目1601番地","kouzui":"○","gake":"○","takashio":"×","jishin":"○","tsunami":"○","kaji":"×","naisui":"×","kazan":"×"}}
,{"type":"Feature","geometry":{"type":"Point","coordinates":[136.656,36.539]},"properties":{"Name":"泉野出町第２児童公園","Jusho":"石川県金沢市泉野出町1丁目2107番地","kouzui":"○","gake":"○","takashio":"×","jishin":"○","tsunami":"○","kaji":"×","naisui":"×","kazan":"×"}}
,{"type":"Feature","geometry":{"type":"Point","coordinates":[136.657,36.535]},"properties":{"Name":"金沢市立長坂台小学校","Jusho":"石川県金沢市長坂3丁目14番1号","kouzui":"○","gake":"○","takashio":"×","jishin":"○","tsunami":"○","kaji":"×","naisui":"×","kazan":"×"}}
,{"type":"Feature","geometry":{"type":"Point","coordinates":[136.664,36.539]},"properties":{"Name":"金沢大学人間社会学域学校教育学類附属高等学校","Jusho":"石川県金沢市平和町1丁目1番15号","kouzui":"○","gake":"○","takashio":"×","jishin":"○","tsunami":"○","kaji":"×","naisui":"×","kazan":"×"}}
,{"type":"Feature","geometry":{"type":"Point","coordinates":[136.666,36.537]},"properties":{"Name":"金沢大学人間社会学域学校教育学類附属小学校","Jusho":"石川県金沢市平和町1丁目1番15号","kouzui":"○","gake":"○","takashio":"×","jishin":"○","tsunami":"○","kaji":"×","naisui":"×","kazan":"×"}}
,{"type":"Feature","geometry":{"type":"Point","coordinates":[136.666,36.537]},"properties":{"Name":"金沢大学人間社会学域学校教育学類附属中学校","Jusho":"石川県金沢市平和町1丁目1番15号","kouzui":"○","gake":"○","takashio":"×","jishin":"○","tsunami":"○","kaji":"×","naisui":"×","kazan":"×"}}
,{"type":"Feature","geometry":{"type":"Point","coordinates":[136.652,36.536]},"properties":{"Name":"泉野出町第３児童公園","Jusho":"石川県金沢市泉野出町4丁目1533番地","kouzui":"○","gake":"○","takashio":"×","jishin":"○","tsunami":"○","kaji":"×","naisui":"×","kazan":"×"}}
,{"type":"Feature","geometry":{"type":"Point","coordinates":[136.657,36.53]},"properties":{"Name":"大乗寺丘陵公園","Jusho":"石川県金沢市長坂町ヲ135番地","kouzui":"○","gake":"○","takashio":"×","jishin":"○","tsunami":"○","kaji":"×","naisui":"×","kazan":"×"}}
,{"type":"Feature","geometry":{"type":"Point","coordinates":[136.656,36.535]},"properties":{"Name":"長坂みはらし公園","Jusho":"石川県金沢市長坂3丁目1521番地","kouzui":"○","gake":"○","takashio":"×","jishin":"○","tsunami":"○","kaji":"×","naisui":"×","kazan":"×"}}
,{"type":"Feature","geometry":{"type":"Point","coordinates":[136.653,36.532]},"properties":{"Name":"長坂台児童公園","Jusho":"石川県金沢市長坂台136番地","kouzui":"○","gake":"○","takashio":"×","jishin":"○","tsunami":"○","kaji":"×","naisui":"×","kazan":"×"}}
,{"type":"Feature","geometry":{"type":"Point","coordinates":[136.662,36.539]},"properties":{"Name":"平和町第１児童公園","Jusho":"石川県金沢市平和町3丁目419番地","kouzui":"○","gake":"○","takashio":"×","jishin":"○","tsunami":"○","kaji":"×","naisui":"×","kazan":"×"}}
,{"type":"Feature","geometry":{"type":"Point","coordinates":[136.657,36.556]},"properties":{"Name":"金沢市立犀桜小学校（旧金沢市立新竪町小学校）","Jusho":"石川県金沢市新竪町3丁目25番地","kouzui":"○","gake":"○","takashio":"×","jishin":"○","tsunami":"○","kaji":"×","naisui":"×","kazan":"×"}}
,{"type":"Feature","geometry":{"type":"Point","coordinates":[136.662,36.556]},"properties":{"Name":"石川県立工業高等学校","Jusho":"石川県金沢市本多町2丁目3番6号","kouzui":"○","gake":"○","takashio":"×","jishin":"○","tsunami":"○","kaji":"×","naisui":"×","kazan":"×"}}
,{"type":"Feature","geometry":{"type":"Point","coordinates":[136.661,36.555]},"properties":{"Name":"遊学館高等学校","Jusho":"石川県金沢市本多町2丁目2番3号","kouzui":"○","gake":"○","takashio":"×","jishin":"○","tsunami":"○","kaji":"×","naisui":"×","kazan":"×"}}
,{"type":"Feature","geometry":{"type":"Point","coordinates":[136.657,36.556]},"properties":{"Name":"金沢市新竪町公民館","Jusho":"石川県金沢市鱗町62番地","kouzui":"○","gake":"○","takashio":"×","jishin":"○","tsunami":"○","kaji":"×","naisui":"×","kazan":"×"}}
,{"type":"Feature","geometry":{"type":"Point","coordinates":[136.656,36.563]},"properties":{"Name":"いしかわ四高記念公園","Jusho":"石川県金沢市広坂2丁目","kouzui":"○","gake":"○","takashio":"×","jishin":"○","tsunami":"○","kaji":"×","naisui":"×","kazan":"×"}}
,{"type":"Feature","geometry":{"type":"Point","coordinates":[136.662,36.558]},"properties":{"Name":"本多の森公園","Jusho":"石川県金沢市出羽町ほか","kouzui":"○","gake":"○","takashio":"×","jishin":"○","tsunami":"○","kaji":"×","naisui":"×","kazan":"×"}}
,{"type":"Feature","geometry":{"type":"Point","coordinates":[136.661,36.559]},"properties":{"Name":"本多公園","Jusho":"石川県金沢市本多町3丁目51番地1ほか","kouzui":"○","gake":"○","takashio":"×","jishin":"○","tsunami":"○","kaji":"×","naisui":"×","kazan":"×"}}
,{"type":"Feature","geometry":{"type":"Point","coordinates":[136.662,36.55]},"properties":{"Name":"旧金沢市立菊川町小学校","Jusho":"石川県金沢市菊川1丁目2番15号","kouzui":"○","gake":"○","takashio":"×","jishin":"○","tsunami":"○","kaji":"×","naisui":"×","kazan":"×"}}
,{"type":"Feature","geometry":{"type":"Point","coordinates":[136.674,36.544]},"properties":{"Name":"金沢市立城南中学校","Jusho":"石川県金沢市城南1丁目24番1号","kouzui":"○","gake":"○","takashio":"×","jishin":"○","tsunami":"○","kaji":"×","naisui":"×","kazan":"×"}}
,{"type":"Feature","geometry":{"type":"Point","coordinates":[136.66,36.551]},"properties":{"Name":"金沢市菊川町公民館","Jusho":"石川県金沢市菊川2丁目3番3号","kouzui":"○","gake":"○","takashio":"×","jishin":"○","tsunami":"○","kaji":"×","naisui":"×","kazan":"×"}}
,{"type":"Feature","geometry":{"type":"Point","coordinates":[136.668,36.567]},"properties":{"Name":"旧金沢市立材木町小学校","Jusho":"石川県金沢市材木町13番12号","kouzui":"○","gake":"○","takashio":"×","jishin":"○","tsunami":"○","kaji":"×","naisui":"×","kazan":"×"}}
,{"type":"Feature","geometry":{"type":"Point","coordinates":[136.686,36.557]},"properties":{"Name":"金沢市立杜の里小学校","Jusho":"石川県金沢市若松町3丁目282番地","kouzui":"○","gake":"○","takashio":"×","jishin":"○","tsunami":"○","kaji":"×","naisui":"×","kazan":"×"}}
,{"type":"Feature","geometry":{"type":"Point","coordinates":[136.668,36.567]},"properties":{"Name":"金沢市材木公民館","Jusho":"石川県金沢市材木町13番11号","kouzui":"○","gake":"○","takashio":"×","jishin":"○","tsunami":"○","kaji":"×","naisui":"×","kazan":"×"}}
,{"type":"Feature","geometry":{"type":"Point","coordinates":[136.676,36.566]},"properties":{"Name":"石川県青少年総合研修センター","Jusho":"石川県金沢市常盤町212番地1","kouzui":"○","gake":"×","takashio":"×","jishin":"○","tsunami":"○","kaji":"×","naisui":"×","kazan":"×"}}
,{"type":"Feature","geometry":{"type":"Point","coordinates":[136.681,36.569]},"properties":{"Name":"卯辰山公園","Jusho":"石川県金沢市末広町、卯辰町、東御影町、豊国町、常盤町、観音町3丁目、鳴和町、子来町、東長江町及び鈴見町の各一部","kouzui":"○","gake":"○","takashio":"×","jishin":"○","tsunami":"○","kaji":"×","naisui":"×","kazan":"×"}}
,{"type":"Feature","geometry":{"type":"Point","coordinates":[136.686,36.56]},"properties":{"Name":"郡家山公園","Jusho":"石川県金沢市鈴見町郡家山1000番地","kouzui":"○","gake":"×","takashio":"×","jishin":"○","tsunami":"○","kaji":"×","naisui":"×","kazan":"×"}}
,{"type":"Feature","geometry":{"type":"Point","coordinates":[136.674,36.568]},"properties":{"Name":"常盤町緑地","Jusho":"石川県金沢市東御影町163番地1ほか","kouzui":"○","gake":"×","takashio":"×","jishin":"○","tsunami":"○","kaji":"×","naisui":"×","kazan":"×"}}
,{"type":"Feature","geometry":{"type":"Point","coordinates":[136.69,36.564]},"properties":{"Name":"睦が丘公園","Jusho":"石川県金沢市鈴見台4丁目174番地ほか","kouzui":"○","gake":"○","takashio":"×","jishin":"○","tsunami":"○","kaji":"×","naisui":"×","kazan":"×"}}
,{"type":"Feature","geometry":{"type":"Point","coordinates":[136.684,36.56]},"properties":{"Name":"鈴見しょうぶ公園","Jusho":"石川県金沢市もりの里3丁目1000番地","kouzui":"○","gake":"×","takashio":"×","jishin":"○","tsunami":"○","kaji":"×","naisui":"×","kazan":"×"}}
,{"type":"Feature","geometry":{"type":"Point","coordinates":[136.687,36.562]},"properties":{"Name":"鈴見児童公園","Jusho":"石川県金沢市鈴見台2丁目356番地","kouzui":"○","gake":"○","takashio":"×","jishin":"○","tsunami":"○","kaji":"×","naisui":"×","kazan":"×"}}
,{"type":"Feature","geometry":{"type":"Point","coordinates":[136.684,36.564]},"properties":{"Name":"鈴見台第２児童公園","Jusho":"石川県金沢市鈴見台4丁目43番地","kouzui":"○","gake":"○","takashio":"×","jishin":"○","tsunami":"○","kaji":"×","naisui":"×","kazan":"×"}}
,{"type":"Feature","geometry":{"type":"Point","coordinates":[136.666,36.566]},"properties":{"Name":"金沢市立兼六小学校","Jusho":"石川県金沢市兼六元町7番15号","kouzui":"○","gake":"○","takashio":"×","jishin":"○","tsunami":"○","kaji":"×","naisui":"×","kazan":"×"}}
,{"type":"Feature","geometry":{"type":"Point","coordinates":[136.68,36.56]},"properties":{"Name":"金沢市立兼六中学校","Jusho":"石川県金沢市田井町12番12号","kouzui":"○","gake":"○","takashio":"×","jishin":"○","tsunami":"○","kaji":"×","naisui":"×","kazan":"×"}}
,{"type":"Feature","geometry":{"type":"Point","coordinates":[136.665,36.564]},"properties":{"Name":"金沢市立小将町中学校","Jusho":"石川県金沢市小将町1番15号","kouzui":"○","gake":"○","takashio":"×","jishin":"○","tsunami":"○","kaji":"×","naisui":"×","kazan":"×"}}
,{"type":"Feature","geometry":{"type":"Point","coordinates":[136.666,36.563]},"properties":{"Name":"金沢大学人間社会学域学校教育学類附属特別支援学校","Jusho":"石川県金沢市東兼六町2番10号","kouzui":"○","gake":"○","takashio":"×","jishin":"○","tsunami":"○","kaji":"×","naisui":"×","kazan":"×"}}
,{"type":"Feature","geometry":{"type":"Point","coordinates":[136.665,36.566]},"properties":{"Name":"金沢市味噌蔵町公民館","Jusho":"石川県金沢市兼六元町7番19号","kouzui":"○","gake":"○","takashio":"×","jishin":"○","tsunami":"○","kaji":"×","naisui":"×","kazan":"×"}}
,{"type":"Feature","geometry":{"type":"Point","coordinates":[136.66,36.568]},"properties":{"Name":"金沢城公園","Jusho":"石川県金沢市丸の内1番1号ほか","kouzui":"○","gake":"○","takashio":"×","jishin":"○","tsunami":"○","kaji":"×","naisui":"×","kazan":"×"}}
,{"type":"Feature","geometry":{"type":"Point","coordinates":[136.674,36.56]},"properties":{"Name":"天神町緑地","Jusho":"石川県金沢市天神町2丁目617番地1ほか","kouzui":"○","gake":"○","takashio":"×","jishin":"○","tsunami":"○","kaji":"×","naisui":"×","kazan":"×"}}
,{"type":"Feature","geometry":{"type":"Point","coordinates":[136.679,36.561]},"properties":{"Name":"田井町第１児童公園","Jusho":"石川県金沢市田井町273番地","kouzui":"○","gake":"○","takashio":"×","jishin":"○","tsunami":"○","kaji":"×","naisui":"×","kazan":"×"}}
,{"type":"Feature","geometry":{"type":"Point","coordinates":[136.677,36.558]},"properties":{"Name":"天神しらうめ公園","Jusho":"石川県金沢市天神町1丁目586番地","kouzui":"○","gake":"○","takashio":"×","jishin":"○","tsunami":"○","kaji":"×","naisui":"×","kazan":"×"}}
,{"type":"Feature","geometry":{"type":"Point","coordinates":[136.651,36.567]},"properties":{"Name":"金沢市立中央小学校","Jusho":"石川県金沢市長町1丁目10番35号","kouzui":"○","gake":"○","takashio":"×","jishin":"○","tsunami":"○","kaji":"×","naisui":"×","kazan":"×"}}
,{"type":"Feature","geometry":{"type":"Point","coordinates":[136.65,36.563]},"properties":{"Name":"金沢市中央公民館長町館","Jusho":"石川県金沢市長町2丁目2番43号","kouzui":"○","gake":"○","takashio":"×","jishin":"○","tsunami":"○","kaji":"×","naisui":"×","kazan":"×"}}
,{"type":"Feature","geometry":{"type":"Point","coordinates":[136.649,36.563]},"properties":{"Name":"金沢市長町公民館","Jusho":"石川県金沢市長町2丁目2番16号","kouzui":"○","gake":"○","takashio":"×","jishin":"○","tsunami":"○","kaji":"×","naisui":"×","kazan":"×"}}
,{"type":"Feature","geometry":{"type":"Point","coordinates":[136.65,36.563]},"properties":{"Name":"長町緑地","Jusho":"石川県金沢市長町2丁目2番43号","kouzui":"×","gake":"○","takashio":"×","jishin":"○","tsunami":"○","kaji":"×","naisui":"×","kazan":"×"}}
,{"type":"Feature","geometry":{"type":"Point","coordinates":[136.653,36.57]},"properties":{"Name":"金沢市松ヶ枝公民館","Jusho":"石川県金沢市高岡町7番23号","kouzui":"○","gake":"○","takashio":"×","jishin":"○","tsunami":"○","kaji":"×","naisui":"×","kazan":"×"}}
,{"type":"Feature","geometry":{"type":"Point","coordinates":[136.656,36.572]},"properties":{"Name":"近江町いちば館","Jusho":"石川県金沢市青草町88番地","kouzui":"○","gake":"○","takashio":"×","jishin":"○","tsunami":"○","kaji":"×","naisui":"×","kazan":"×"}}
,{"type":"Feature","geometry":{"type":"Point","coordinates":[136.652,36.567]},"properties":{"Name":"金沢市文化ホール","Jusho":"石川県金沢市高岡町15番１号","kouzui":"○","gake":"○","takashio":"×","jishin":"○","tsunami":"○","kaji":"×","naisui":"×","kazan":"×"}}
,{"type":"Feature","geometry":{"type":"Point","coordinates":[136.653,36.57]},"properties":{"Name":"松ヶ枝緑地","Jusho":"石川県金沢市高岡町188番地2ほか","kouzui":"○","gake":"○","takashio":"×","jishin":"○","tsunami":"○","kaji":"×","naisui":"×","kazan":"×"}}
,{"type":"Feature","geometry":{"type":"Point","coordinates":[136.645,36.567]},"properties":{"Name":"金沢市長土塀公民館","Jusho":"石川県金沢市長町3丁目3番3号","kouzui":"○","gake":"○","takashio":"×","jishin":"×","tsunami":"○","kaji":"×","naisui":"×","kazan":"×"}}
,{"type":"Feature","geometry":{"type":"Point","coordinates":[136.645,36.567]},"properties":{"Name":"金沢市長土塀青少年交流センター","Jusho":"石川県金沢市長町3丁目3番3号","kouzui":"○","gake":"○","takashio":"×","jishin":"○","tsunami":"○","kaji":"×","naisui":"×","kazan":"×"}}
,{"type":"Feature","geometry":{"type":"Point","coordinates":[136.639,36.569]},"properties":{"Name":"大和町防災拠点広場","Jusho":"石川県金沢市大和町1番1号","kouzui":"○","gake":"○","takashio":"×","jishin":"○","tsunami":"○","kaji":"×","naisui":"×","kazan":"×"}}
,{"type":"Feature","geometry":{"type":"Point","coordinates":[136.646,36.567]},"properties":{"Name":"金沢市営中央市民体育館","Jusho":"石川県金沢市長町3丁目3番3号","kouzui":"○","gake":"○","takashio":"×","jishin":"○","tsunami":"○","kaji":"×","naisui":"×","kazan":"×"}}
,{"type":"Feature","geometry":{"type":"Point","coordinates":[136.648,36.569]},"properties":{"Name":"穴水町児童公園","Jusho":"石川県金沢市長土塀1丁目151番地ほか","kouzui":"×","gake":"○","takashio":"×","jishin":"○","tsunami":"○","kaji":"×","naisui":"×","kazan":"×"}}
,{"type":"Feature","geometry":{"type":"Point","coordinates":[136.642,36.57]},"properties":{"Name":"神保緑地","Jusho":"石川県金沢市三社町373番地11","kouzui":"○","gake":"○","takashio":"×","jishin":"○","tsunami":"○","kaji":"×","naisui":"×","kazan":"×"}}
,{"type":"Feature","geometry":{"type":"Point","coordinates":[136.649,36.572]},"properties":{"Name":"金沢市立中央小学校芳斎分校","Jusho":"石川県金沢市芳斉2丁目3番8号","kouzui":"○","gake":"○","takashio":"×","jishin":"○","tsunami":"○","kaji":"×","naisui":"×","kazan":"×"}}
,{"type":"Feature","geometry":{"type":"Point","coordinates":[136.65,36.572]},"properties":{"Name":"デイサービスセンター玉川苑","Jusho":"石川県金沢市芳斉2丁目3番28号","kouzui":"○","gake":"○","takashio":"×","jishin":"○","tsunami":"○","kaji":"×","naisui":"×","kazan":"×"}}
,{"type":"Feature","geometry":{"type":"Point","coordinates":[136.65,36.572]},"properties":{"Name":"金沢市芳斎公民館","Jusho":"石川県金沢市芳斉2丁目3番29号","kouzui":"○","gake":"○","takashio":"×","jishin":"○","tsunami":"○","kaji":"×","naisui":"×","kazan":"×"}}
,{"type":"Feature","geometry":{"type":"Point","coordinates":[136.646,36.571]},"properties":{"Name":"金沢市女性センター","Jusho":"石川県金沢市三社町1番44号","kouzui":"○","gake":"○","takashio":"×","jishin":"○","tsunami":"○","kaji":"×","naisui":"×","kazan":"×"}}
,{"type":"Feature","geometry":{"type":"Point","coordinates":[136.651,36.569]},"properties":{"Name":"玉川公園","Jusho":"石川県金沢市玉川町11番3号","kouzui":"○","gake":"○","takashio":"×","jishin":"○","tsunami":"○","kaji":"×","naisui":"×","kazan":"×"}}
,{"type":"Feature","geometry":{"type":"Point","coordinates":[136.652,36.577]},"properties":{"Name":"金沢市此花町公民館","Jusho":"石川県金沢市此花町2番7号","kouzui":"○","gake":"○","takashio":"×","jishin":"○","tsunami":"○","kaji":"×","naisui":"×","kazan":"×"}}
,{"type":"Feature","geometry":{"type":"Point","coordinates":[136.652,36.577]},"properties":{"Name":"此花町緑地","Jusho":"石川県金沢市此花町149番地1","kouzui":"○","gake":"○","takashio":"×","jishin":"○","tsunami":"○","kaji":"×","naisui":"×","kazan":"×"}}
,{"type":"Feature","geometry":{"type":"Point","coordinates":[136.651,36.581]},"properties":{"Name":"堀川新町公園","Jusho":"石川県金沢市堀川新町70番地1ほか","kouzui":"○","gake":"○","takashio":"×","jishin":"○","tsunami":"○","kaji":"×","naisui":"×","kazan":"×"}}
,{"type":"Feature","geometry":{"type":"Point","coordinates":[136.657,36.577]},"properties":{"Name":"金沢市立明成小学校","Jusho":"石川県金沢市瓢箪町5番48号","kouzui":"○","gake":"○","takashio":"×","jishin":"○","tsunami":"○","kaji":"×","naisui":"×","kazan":"×"}}
,{"type":"Feature","geometry":{"type":"Point","coordinates":[136.657,36.576]},"properties":{"Name":"金沢市瓢箪町公民館","Jusho":"石川県金沢市彦三町2丁目10番5号","kouzui":"○","gake":"○","takashio":"×","jishin":"○","tsunami":"○","kaji":"×","naisui":"×","kazan":"×"}}
,{"type":"Feature","geometry":{"type":"Point","coordinates":[136.665,36.575]},"properties":{"Name":"金沢市立馬場小学校","Jusho":"石川県金沢市東山3丁目9番30号","kouzui":"○","gake":"○","takashio":"×","jishin":"○","tsunami":"○","kaji":"×","naisui":"×","kazan":"×"}}
,{"type":"Feature","geometry":{"type":"Point","coordinates":[136.665,36.574]},"properties":{"Name":"金沢市馬場公民館","Jusho":"石川県金沢市東山3丁目9番35号","kouzui":"○","gake":"○","takashio":"×","jishin":"○","tsunami":"○","kaji":"×","naisui":"×","kazan":"×"}}
,{"type":"Feature","geometry":{"type":"Point","coordinates":[136.672,36.572]},"properties":{"Name":"子来町さくら公園","Jusho":"石川県金沢市子来町33番地","kouzui":"○","gake":"○","takashio":"×","jishin":"○","tsunami":"○","kaji":"×","naisui":"×","kazan":"×"}}
,{"type":"Feature","geometry":{"type":"Point","coordinates":[136.669,36.573]},"properties":{"Name":"子来町緑地","Jusho":"石川県金沢市子来町2番地ほか","kouzui":"○","gake":"○","takashio":"×","jishin":"○","tsunami":"○","kaji":"×","naisui":"×","kazan":"×"}}
,{"type":"Feature","geometry":{"type":"Point","coordinates":[136.659,36.582]},"properties":{"Name":"金沢市立浅野町小学校","Jusho":"石川県金沢市京町35番1号","kouzui":"○","gake":"○","takashio":"×","jishin":"○","tsunami":"○","kaji":"×","naisui":"×","kazan":"×"}}
,{"type":"Feature","geometry":{"type":"Point","coordinates":[136.665,36.587]},"properties":{"Name":"金沢市浅野町公民館","Jusho":"石川県金沢市乙丸町甲161番地","kouzui":"○","gake":"○","takashio":"×","jishin":"○","tsunami":"○","kaji":"×","naisui":"×","kazan":"×"}}
,{"type":"Feature","geometry":{"type":"Point","coordinates":[136.663,36.581]},"properties":{"Name":"元町第３児童公園","Jusho":"石川県金沢市元町2丁目137番地ほか","kouzui":"×","gake":"○","takashio":"×","jishin":"○","tsunami":"○","kaji":"×","naisui":"×","kazan":"×"}}
,{"type":"Feature","geometry":{"type":"Point","coordinates":[136.661,36.584]},"properties":{"Name":"浅野本町第２児童公園","Jusho":"石川県金沢市浅野本町2丁目125番地","kouzui":"×","gake":"○","takashio":"×","jishin":"○","tsunami":"○","kaji":"×","naisui":"×","kazan":"×"}}
,{"type":"Feature","geometry":{"type":"Point","coordinates":[136.658,36.584]},"properties":{"Name":"浅野本町第３児童公園","Jusho":"石川県金沢市京町59番地","kouzui":"×","gake":"○","takashio":"×","jishin":"○","tsunami":"○","kaji":"×","naisui":"×","kazan":"×"}}
,{"type":"Feature","geometry":{"type":"Point","coordinates":[136.66,36.588]},"properties":{"Name":"金沢市立森山町小学校","Jusho":"石川県金沢市森山2丁目13番50号","kouzui":"○","gake":"○","takashio":"×","jishin":"○","tsunami":"○","kaji":"×","naisui":"×","kazan":"×"}}
,{"type":"Feature","geometry":{"type":"Point","coordinates":[136.679,36.583]},"properties":{"Name":"石川県立金沢桜丘高等学校","Jusho":"石川県金沢市大樋町16番1号","kouzui":"○","gake":"○","takashio":"×","jishin":"○","tsunami":"○","kaji":"×","naisui":"×","kazan":"×"}}
,{"type":"Feature","geometry":{"type":"Point","coordinates":[136.671,36.587]},"properties":{"Name":"金沢市立鳴和中学校","Jusho":"石川県金沢市鳴和2丁目10番60号","kouzui":"○","gake":"○","takashio":"×","jishin":"○","tsunami":"○","kaji":"×","naisui":"×","kazan":"×"}}
,{"type":"Feature","geometry":{"type":"Point","coordinates":[136.67,36.587]},"properties":{"Name":"金沢市営城北市民体育館","Jusho":"石川県金沢市鳴和2丁目10番44号","kouzui":"○","gake":"○","takashio":"×","jishin":"○","tsunami":"○","kaji":"×","naisui":"×","kazan":"×"}}
,{"type":"Feature","geometry":{"type":"Point","coordinates":[136.669,36.579]},"properties":{"Name":"金沢市森山公民館","Jusho":"石川県金沢市森山2丁目11番13号","kouzui":"○","gake":"○","takashio":"×","jishin":"○","tsunami":"○","kaji":"×","naisui":"×","kazan":"×"}}
,{"type":"Feature","geometry":{"type":"Point","coordinates":[136.679,36.577]},"properties":{"Name":"金沢市鳴和台市民体育会館","Jusho":"石川県金沢市鳴和台285番地","kouzui":"○","gake":"×","takashio":"×","jishin":"○","tsunami":"○","kaji":"×","naisui":"×","kazan":"×"}}
,{"type":"Feature","geometry":{"type":"Point","coordinates":[136.671,36.583]},"properties":{"Name":"小金町公園","Jusho":"石川県金沢市小金町183番地ほか","kouzui":"○","gake":"○","takashio":"×","jishin":"○","tsunami":"○","kaji":"×","naisui":"×","kazan":"×"}}
,{"type":"Feature","geometry":{"type":"Point","coordinates":[136.678,36.58]},"properties":{"Name":"鳴和憩いの広場","Jusho":"石川県金沢市鳴和町タ175番地ほか","kouzui":"○","gake":"×","takashio":"×","jishin":"○","tsunami":"○","kaji":"×","naisui":"×","kazan":"×"}}
,{"type":"Feature","geometry":{"type":"Point","coordinates":[136.679,36.581]},"properties":{"Name":"鳴和台桜丘公園","Jusho":"石川県金沢市鳴和台20番地","kouzui":"○","gake":"×","takashio":"×","jishin":"○","tsunami":"○","kaji":"×","naisui":"×","kazan":"×"}}
,{"type":"Feature","geometry":{"type":"Point","coordinates":[136.68,36.577]},"properties":{"Name":"鳴和台市民公園","Jusho":"石川県金沢市鳴和台285番地ほか","kouzui":"○","gake":"×","takashio":"×","jishin":"○","tsunami":"○","kaji":"×","naisui":"×","kazan":"×"}}
,{"type":"Feature","geometry":{"type":"Point","coordinates":[136.678,36.59]},"properties":{"Name":"金沢市立小坂小学校","Jusho":"石川県金沢市小坂町中142番地","kouzui":"○","gake":"○","takashio":"×","jishin":"○","tsunami":"○","kaji":"×","naisui":"×","kazan":"×"}}
,{"type":"Feature","geometry":{"type":"Point","coordinates":[136.682,36.585]},"properties":{"Name":"星稜高等学校","Jusho":"石川県金沢市御所町丑10番地1","kouzui":"○","gake":"×","takashio":"×","jishin":"○","tsunami":"○","kaji":"×","naisui":"×","kazan":"×"}}
,{"type":"Feature","geometry":{"type":"Point","coordinates":[136.676,36.595]},"properties":{"Name":"金沢市立北鳴中学校","Jusho":"石川県金沢市小坂町北95番地","kouzui":"○","gake":"○","takashio":"×","jishin":"○","tsunami":"○","kaji":"×","naisui":"×","kazan":"×"}}
,{"type":"Feature","geometry":{"type":"Point","coordinates":[136.682,36.584]},"properties":{"Name":"金沢星稜大学","Jusho":"石川県金沢市御所町丑10番地1","kouzui":"○","gake":"×","takashio":"×","jishin":"○","tsunami":"○","kaji":"×","naisui":"×","kazan":"×"}}
,{"type":"Feature","geometry":{"type":"Point","coordinates":[136.676,36.593]},"properties":{"Name":"金沢市小坂公民館","Jusho":"石川県金沢市小坂町北312番地","kouzui":"○","gake":"○","takashio":"×","jishin":"○","tsunami":"○","kaji":"×","naisui":"×","kazan":"×"}}
,{"type":"Feature","geometry":{"type":"Point","coordinates":[136.671,36.594]},"properties":{"Name":"金沢市営東金沢スポーツ広場","Jusho":"石川県金沢市三池町240番地1","kouzui":"×","gake":"○","takashio":"×","jishin":"○","tsunami":"○","kaji":"×","naisui":"×","kazan":"×"}}
,{"type":"Feature","geometry":{"type":"Point","coordinates":[136.673,36.596]},"properties":{"Name":"三池はすのみ公園","Jusho":"石川県金沢市三池栄町201番地","kouzui":"×","gake":"○","takashio":"×","jishin":"○","tsunami":"○","kaji":"×","naisui":"×","kazan":"×"}}
,{"type":"Feature","geometry":{"type":"Point","coordinates":[136.669,36.597]},"properties":{"Name":"三池はすの里公園","Jusho":"石川県金沢市三池栄町346番地","kouzui":"×","gake":"○","takashio":"×","jishin":"○","tsunami":"○","kaji":"×","naisui":"×","kazan":"×"}}
,{"type":"Feature","geometry":{"type":"Point","coordinates":[136.671,36.593]},"properties":{"Name":"東金沢駅前かがやき公園","Jusho":"石川県金沢市三池町197番地53","kouzui":"×","gake":"○","takashio":"×","jishin":"○","tsunami":"○","kaji":"×","naisui":"×","kazan":"×"}}
,{"type":"Feature","geometry":{"type":"Point","coordinates":[136.679,36.586]},"properties":{"Name":"小坂白蓮公園","Jusho":"石川県金沢市小坂町南589番地","kouzui":"×","gake":"○","takashio":"×","jishin":"○","tsunami":"○","kaji":"×","naisui":"×","kazan":"×"}}
,{"type":"Feature","geometry":{"type":"Point","coordinates":[136.674,36.59]},"properties":{"Name":"城北中央公園","Jusho":"石川県金沢市小坂町西8番地6ほか","kouzui":"×","gake":"○","takashio":"×","jishin":"○","tsunami":"○","kaji":"×","naisui":"×","kazan":"×"}}
,{"type":"Feature","geometry":{"type":"Point","coordinates":[136.666,36.587]},"properties":{"Name":"神宮寺運動公園","Jusho":"石川県金沢市神宮寺3丁目123番地ほか","kouzui":"×","gake":"○","takashio":"×","jishin":"○","tsunami":"○","kaji":"×","naisui":"×","kazan":"×"}}
,{"type":"Feature","geometry":{"type":"Point","coordinates":[136.668,36.587]},"properties":{"Name":"神宮寺桜児童公園","Jusho":"石川県金沢市神宮寺2丁目326番地ほか","kouzui":"×","gake":"○","takashio":"×","jishin":"○","tsunami":"○","kaji":"×","naisui":"×","kazan":"×"}}
,{"type":"Feature","geometry":{"type":"Point","coordinates":[136.689,36.599]},"properties":{"Name":"神谷内児童公園","Jusho":"石川県金沢市神谷内町チ204番地1","kouzui":"○","gake":"×","takashio":"×","jishin":"○","tsunami":"○","kaji":"×","naisui":"×","kazan":"×"}}
,{"type":"Feature","geometry":{"type":"Point","coordinates":[136.675,36.606]},"properties":{"Name":"金沢市立千坂小学校","Jusho":"石川県金沢市千木1丁目125番地","kouzui":"○","gake":"○","takashio":"×","jishin":"○","tsunami":"○","kaji":"×","naisui":"×","kazan":"×"}}
,{"type":"Feature","geometry":{"type":"Point","coordinates":[136.674,36.606]},"properties":{"Name":"金沢市千坂公民館","Jusho":"石川県金沢市千木1丁目119番地","kouzui":"○","gake":"○","takashio":"×","jishin":"○","tsunami":"○","kaji":"×","naisui":"×","kazan":"×"}}
,{"type":"Feature","geometry":{"type":"Point","coordinates":[136.678,36.607]},"properties":{"Name":"横枕はすの里公園","Jusho":"石川県金沢市横枕町ハ80番地1","kouzui":"×","gake":"○","takashio":"×","jishin":"○","tsunami":"○","kaji":"×","naisui":"×","kazan":"×"}}
,{"type":"Feature","geometry":{"type":"Point","coordinates":[136.682,36.611]},"properties":{"Name":"金市やすらぎ公園","Jusho":"石川県金沢市金市町ニ12番地1","kouzui":"○","gake":"○","takashio":"×","jishin":"○","tsunami":"○","kaji":"×","naisui":"×","kazan":"×"}}
,{"type":"Feature","geometry":{"type":"Point","coordinates":[136.685,36.616]},"properties":{"Name":"荒屋八幡公園","Jusho":"石川県金沢市荒屋1丁目96番地","kouzui":"×","gake":"○","takashio":"×","jishin":"○","tsunami":"○","kaji":"×","naisui":"×","kazan":"×"}}
,{"type":"Feature","geometry":{"type":"Point","coordinates":[136.668,36.611]},"properties":{"Name":"千木日吉の森公園","Jusho":"石川県金沢市千木町カ66番地ほか","kouzui":"○","gake":"○","takashio":"×","jishin":"○","tsunami":"○","kaji":"×","naisui":"×","kazan":"×"}}
,{"type":"Feature","geometry":{"type":"Point","coordinates":[136.673,36.605]},"properties":{"Name":"東インター公園","Jusho":"石川県金沢市疋田3丁目65番地","kouzui":"×","gake":"○","takashio":"×","jishin":"○","tsunami":"○","kaji":"×","naisui":"×","kazan":"×"}}
,{"type":"Feature","geometry":{"type":"Point","coordinates":[136.673,36.602]},"properties":{"Name":"疋田中央公園","Jusho":"石川県金沢市疋田1丁目187番地","kouzui":"×","gake":"○","takashio":"×","jishin":"○","tsunami":"○","kaji":"×","naisui":"×","kazan":"×"}}
,{"type":"Feature","geometry":{"type":"Point","coordinates":[136.682,36.619]},"properties":{"Name":"福久かねと公園","Jusho":"石川県金沢市福久2丁目131番地","kouzui":"×","gake":"○","takashio":"×","jishin":"○","tsunami":"○","kaji":"×","naisui":"×","kazan":"×"}}
,{"type":"Feature","geometry":{"type":"Point","coordinates":[136.679,36.614]},"properties":{"Name":"福久町わんぱく公園","Jusho":"石川県金沢市福久町ヲ121番地ほか","kouzui":"×","gake":"○","takashio":"×","jishin":"○","tsunami":"○","kaji":"×","naisui":"×","kazan":"×"}}
,{"type":"Feature","geometry":{"type":"Point","coordinates":[136.679,36.617]},"properties":{"Name":"福久中央公園","Jusho":"石川県金沢市福久1丁目78番地","kouzui":"×","gake":"○","takashio":"×","jishin":"○","tsunami":"○","kaji":"×","naisui":"×","kazan":"×"}}
,{"type":"Feature","geometry":{"type":"Point","coordinates":[136.679,36.611]},"properties":{"Name":"福久南ほたる公園","Jusho":"石川県金沢市福久町ヘ47番地1","kouzui":"○","gake":"○","takashio":"×","jishin":"○","tsunami":"○","kaji":"×","naisui":"×","kazan":"×"}}
,{"type":"Feature","geometry":{"type":"Point","coordinates":[136.682,36.605]},"properties":{"Name":"法光寺ふれあい公園","Jusho":"石川県金沢市法光寺町124番地1ほか","kouzui":"○","gake":"○","takashio":"×","jishin":"○","tsunami":"○","kaji":"×","naisui":"×","kazan":"×"}}
,{"type":"Feature","geometry":{"type":"Point","coordinates":[136.685,36.602]},"properties":{"Name":"金沢市営法光寺運動広場","Jusho":"石川県金沢市法光寺町ト11番地2","kouzui":"○","gake":"○","takashio":"×","jishin":"○","tsunami":"○","kaji":"×","naisui":"×","kazan":"×"}}
,{"type":"Feature","geometry":{"type":"Point","coordinates":[136.692,36.578]},"properties":{"Name":"金沢市立夕日寺小学校","Jusho":"石川県金沢市東長江町に17番地","kouzui":"○","gake":"×","takashio":"×","jishin":"○","tsunami":"○","kaji":"×","naisui":"×","kazan":"×"}}
,{"type":"Feature","geometry":{"type":"Point","coordinates":[136.689,36.568]},"properties":{"Name":"卯辰山公園健康交流センター千寿閣","Jusho":"石川県金沢市東長江町辺2番地1","kouzui":"○","gake":"○","takashio":"×","jishin":"○","tsunami":"○","kaji":"×","naisui":"×","kazan":"×"}}
,{"type":"Feature","geometry":{"type":"Point","coordinates":[136.706,36.573]},"properties":{"Name":"金沢市夕日寺公民館","Jusho":"石川県金沢市夕日寺町ロ35番地","kouzui":"○","gake":"○","takashio":"×","jishin":"○","tsunami":"○","kaji":"×","naisui":"×","kazan":"×"}}
,{"type":"Feature","geometry":{"type":"Point","coordinates":[136.698,36.56]},"properties":{"Name":"奥卯辰山健民公園","Jusho":"石川県金沢市若松町、東長江町ほか","kouzui":"○","gake":"○","takashio":"×","jishin":"○","tsunami":"○","kaji":"×","naisui":"×","kazan":"×"}}
,{"type":"Feature","geometry":{"type":"Point","coordinates":[136.692,36.581]},"properties":{"Name":"御所かつら公園","Jusho":"石川県金沢市御所町1丁目42番地","kouzui":"○","gake":"○","takashio":"×","jishin":"○","tsunami":"○","kaji":"×","naisui":"×","kazan":"×"}}
,{"type":"Feature","geometry":{"type":"Point","coordinates":[136.697,36.58]},"properties":{"Name":"御所さくら公園","Jusho":"石川県金沢市御所町1丁目407番地","kouzui":"○","gake":"○","takashio":"×","jishin":"○","tsunami":"○","kaji":"×","naisui":"×","kazan":"×"}}
,{"type":"Feature","geometry":{"type":"Point","coordinates":[136.697,36.582]},"properties":{"Name":"御所にし公園","Jusho":"石川県金沢市御所町2丁目189番地","kouzui":"○","gake":"○","takashio":"×","jishin":"○","tsunami":"○","kaji":"×","naisui":"×","kazan":"×"}}
,{"type":"Feature","geometry":{"type":"Point","coordinates":[136.7,36.581]},"properties":{"Name":"御所ひがし公園","Jusho":"石川県金沢市御所町2丁目172番地","kouzui":"○","gake":"○","takashio":"×","jishin":"○","tsunami":"○","kaji":"×","naisui":"×","kazan":"×"}}
,{"type":"Feature","geometry":{"type":"Point","coordinates":[136.697,36.576]},"properties":{"Name":"山王町第２児童公園","Jusho":"石川県金沢市山王町2丁目168番地ほか","kouzui":"○","gake":"○","takashio":"×","jishin":"○","tsunami":"○","kaji":"×","naisui":"×","kazan":"×"}}
,{"type":"Feature","geometry":{"type":"Point","coordinates":[136.704,36.573]},"properties":{"Name":"山王町第４児童公園","Jusho":"石川県金沢市山王町1丁目394番地","kouzui":"○","gake":"○","takashio":"×","jishin":"○","tsunami":"○","kaji":"×","naisui":"×","kazan":"×"}}
,{"type":"Feature","geometry":{"type":"Point","coordinates":[136.648,36.589]},"properties":{"Name":"金沢市立諸江町小学校","Jusho":"石川県金沢市北安江2丁目25番1号","kouzui":"○","gake":"○","takashio":"×","jishin":"○","tsunami":"○","kaji":"×","naisui":"×","kazan":"×"}}
,{"type":"Feature","geometry":{"type":"Point","coordinates":[136.649,36.603]},"properties":{"Name":"金沢市立浅野川中学校","Jusho":"石川県金沢市諸江町下丁388番地","kouzui":"○","gake":"○","takashio":"×","jishin":"○","tsunami":"○","kaji":"×","naisui":"×","kazan":"×"}}
,{"type":"Feature","geometry":{"type":"Point","coordinates":[136.647,36.583]},"properties":{"Name":"金沢勤労者プラザ","Jusho":"石川県金沢市北安江3丁目2番20号","kouzui":"○","gake":"○","takashio":"×","jishin":"○","tsunami":"○","kaji":"×","naisui":"×","kazan":"×"}}
,{"type":"Feature","geometry":{"type":"Point","coordinates":[136.642,36.591]},"properties":{"Name":"金沢市諸江公民館","Jusho":"石川県金沢市諸江町29番1号","kouzui":"○","gake":"○","takashio":"×","jishin":"○","tsunami":"○","kaji":"×","naisui":"×","kazan":"×"}}
,{"type":"Feature","geometry":{"type":"Point","coordinates":[136.647,36.585]},"properties":{"Name":"駅西第２児童公園","Jusho":"石川県金沢市北安江3丁目1201番地","kouzui":"×","gake":"○","takashio":"×","jishin":"○","tsunami":"○","kaji":"×","naisui":"×","kazan":"×"}}
,{"type":"Feature","geometry":{"type":"Point","coordinates":[136.64,36.603]},"properties":{"Name":"割出町公園","Jusho":"石川県金沢市割出町418番地","kouzui":"×","gake":"○","takashio":"×","jishin":"○","tsunami":"○","kaji":"×","naisui":"×","kazan":"×"}}
,{"type":"Feature","geometry":{"type":"Point","coordinates":[136.642,36.593]},"properties":{"Name":"諸江児童公園","Jusho":"石川県金沢市諸江町2815番地","kouzui":"×","gake":"○","takashio":"×","jishin":"○","tsunami":"○","kaji":"×","naisui":"×","kazan":"×"}}
,{"type":"Feature","geometry":{"type":"Point","coordinates":[136.647,36.6]},"properties":{"Name":"諸江町下丁ふれあい公園","Jusho":"石川県金沢市諸江町下丁263番地1","kouzui":"×","gake":"○","takashio":"×","jishin":"○","tsunami":"○","kaji":"×","naisui":"×","kazan":"×"}}
,{"type":"Feature","geometry":{"type":"Point","coordinates":[136.648,36.594]},"properties":{"Name":"諸江町上丁ゆうあい公園","Jusho":"石川県金沢市諸江町上丁524番地1","kouzui":"×","gake":"○","takashio":"×","jishin":"○","tsunami":"○","kaji":"×","naisui":"×","kazan":"×"}}
,{"type":"Feature","geometry":{"type":"Point","coordinates":[136.649,36.586]},"properties":{"Name":"北安江２丁目公園","Jusho":"石川県金沢市北安江2丁目1408番地","kouzui":"×","gake":"○","takashio":"×","jishin":"○","tsunami":"○","kaji":"×","naisui":"×","kazan":"×"}}
,{"type":"Feature","geometry":{"type":"Point","coordinates":[136.639,36.608]},"properties":{"Name":"問屋児童公園","Jusho":"石川県金沢市問屋町2丁目117番地1ほか","kouzui":"×","gake":"○","takashio":"×","jishin":"○","tsunami":"○","kaji":"×","naisui":"×","kazan":"×"}}
,{"type":"Feature","geometry":{"type":"Point","coordinates":[136.638,36.606]},"properties":{"Name":"問屋町緑地","Jusho":"石川県金沢市問屋町1丁目61番地","kouzui":"×","gake":"○","takashio":"×","jishin":"○","tsunami":"○","kaji":"×","naisui":"×","kazan":"×"}}
,{"type":"Feature","geometry":{"type":"Point","coordinates":[136.642,36.621]},"properties":{"Name":"金沢市立浅野川小学校","Jusho":"石川県金沢市須崎町チ42番地","kouzui":"○","gake":"○","takashio":"×","jishin":"○","tsunami":"○","kaji":"×","naisui":"×","kazan":"×"}}
,{"type":"Feature","geometry":{"type":"Point","coordinates":[136.64,36.615]},"properties":{"Name":"金沢市浅野川公民館","Jusho":"石川県金沢市大河端町西1丁目96番地","kouzui":"○","gake":"○","takashio":"×","jishin":"○","tsunami":"○","kaji":"×","naisui":"×","kazan":"×"}}
,{"type":"Feature","geometry":{"type":"Point","coordinates":[136.64,36.615]},"properties":{"Name":"金沢市営浅野川市民体育館","Jusho":"石川県金沢市大河端町西80番地1","kouzui":"×","gake":"○","takashio":"×","jishin":"○","tsunami":"○","kaji":"×","naisui":"×","kazan":"×"}}
,{"type":"Feature","geometry":{"type":"Point","coordinates":[136.64,36.611]},"properties":{"Name":"弓取町児童公園","Jusho":"石川県金沢市弓取町172番地","kouzui":"×","gake":"○","takashio":"×","jishin":"○","tsunami":"○","kaji":"×","naisui":"×","kazan":"×"}}
,{"type":"Feature","geometry":{"type":"Point","coordinates":[136.64,36.608]},"properties":{"Name":"三口町第１児童公園","Jusho":"石川県金沢市三口町火237番地","kouzui":"×","gake":"○","takashio":"×","jishin":"○","tsunami":"○","kaji":"×","naisui":"×","kazan":"×"}}
,{"type":"Feature","geometry":{"type":"Point","coordinates":[136.635,36.622]},"properties":{"Name":"北間町公園","Jusho":"石川県金沢市北間町ホ161番地","kouzui":"×","gake":"○","takashio":"×","jishin":"○","tsunami":"○","kaji":"×","naisui":"×","kazan":"×"}}
,{"type":"Feature","geometry":{"type":"Point","coordinates":[136.638,36.621]},"properties":{"Name":"北間町西公園","Jusho":"石川県金沢市北間町ハ93番地1","kouzui":"×","gake":"○","takashio":"×","jishin":"○","tsunami":"○","kaji":"×","naisui":"×","kazan":"×"}}
,{"type":"Feature","geometry":{"type":"Point","coordinates":[136.64,36.614]},"properties":{"Name":"大河端西鷹狩り公園","Jusho":"石川県金沢市大河端西1丁目57番地","kouzui":"×","gake":"○","takashio":"×","jishin":"○","tsunami":"○","kaji":"×","naisui":"×","kazan":"×"}}
,{"type":"Feature","geometry":{"type":"Point","coordinates":[136.647,36.635]},"properties":{"Name":"湊２丁目釣公園","Jusho":"石川県金沢市湊2丁目34番地1","kouzui":"×","gake":"○","takashio":"×","jishin":"○","tsunami":"○","kaji":"×","naisui":"×","kazan":"×"}}
,{"type":"Feature","geometry":{"type":"Point","coordinates":[136.647,36.633]},"properties":{"Name":"湊運動公園","Jusho":"石川県金沢市湊2丁目86番地","kouzui":"×","gake":"○","takashio":"×","jishin":"○","tsunami":"○","kaji":"×","naisui":"×","kazan":"×"}}
,{"type":"Feature","geometry":{"type":"Point","coordinates":[136.633,36.602]},"properties":{"Name":"金沢市立鞍月小学校","Jusho":"石川県金沢市南新保町リ27番地1","kouzui":"○","gake":"○","takashio":"×","jishin":"○","tsunami":"○","kaji":"×","naisui":"×","kazan":"×"}}
,{"type":"Feature","geometry":{"type":"Point","coordinates":[136.628,36.61]},"properties":{"Name":"金沢市立港中学校","Jusho":"石川県金沢市近岡町217番地","kouzui":"○","gake":"○","takashio":"×","jishin":"○","tsunami":"○","kaji":"×","naisui":"×","kazan":"×"}}
,{"type":"Feature","geometry":{"type":"Point","coordinates":[136.633,36.603]},"properties":{"Name":"金沢市鞍月公民館","Jusho":"石川県金沢市直江南１丁目１番地","kouzui":"○","gake":"○","takashio":"×","jishin":"○","tsunami":"○","kaji":"×","naisui":"×","kazan":"×"}}
,{"type":"Feature","geometry":{"type":"Point","coordinates":[136.625,36.592]},"properties":{"Name":"鞍月セントラルパーク","Jusho":"石川県金沢市鞍月1丁目8番地","kouzui":"○","gake":"○","takashio":"×","jishin":"○","tsunami":"○","kaji":"×","naisui":"×","kazan":"×"}}
,{"type":"Feature","geometry":{"type":"Point","coordinates":[136.622,36.597]},"properties":{"Name":"鞍月磯のひろば公園","Jusho":"石川県金沢市鞍月4丁目53番地","kouzui":"○","gake":"○","takashio":"×","jishin":"○","tsunami":"○","kaji":"×","naisui":"×","kazan":"×"}}
,{"type":"Feature","geometry":{"type":"Point","coordinates":[136.621,36.599]},"properties":{"Name":"鞍月広場","Jusho":"石川県金沢市鞍月4丁目21番地","kouzui":"×","gake":"○","takashio":"×","jishin":"○","tsunami":"○","kaji":"×","naisui":"×","kazan":"×"}}
,{"type":"Feature","geometry":{"type":"Point","coordinates":[136.635,36.611]},"properties":{"Name":"鞍月中央公園","Jusho":"石川県金沢市直江西１丁目201番地","kouzui":"×","gake":"○","takashio":"×","jishin":"○","tsunami":"○","kaji":"×","naisui":"×","kazan":"×"}}
,{"type":"Feature","geometry":{"type":"Point","coordinates":[136.624,36.608]},"properties":{"Name":"戸水公園","Jusho":"石川県金沢市湊4丁目62番地","kouzui":"×","gake":"○","takashio":"×","jishin":"○","tsunami":"○","kaji":"×","naisui":"×","kazan":"×"}}
,{"type":"Feature","geometry":{"type":"Point","coordinates":[136.621,36.603]},"properties":{"Name":"戸水船のひろば公園","Jusho":"石川県金沢市戸水1丁目400番地","kouzui":"×","gake":"○","takashio":"×","jishin":"○","tsunami":"○","kaji":"×","naisui":"×","kazan":"×"}}
,{"type":"Feature","geometry":{"type":"Point","coordinates":[136.626,36.6]},"properties":{"Name":"大友なぎさ公園","Jusho":"石川県金沢市大友1丁目148番地","kouzui":"○","gake":"○","takashio":"×","jishin":"○","tsunami":"○","kaji":"×","naisui":"×","kazan":"×"}}
,{"type":"Feature","geometry":{"type":"Point","coordinates":[136.634,36.615]},"properties":{"Name":"直江北公園","Jusho":"石川県金沢市直江北1丁目176番地","kouzui":"×","gake":"○","takashio":"×","jishin":"○","tsunami":"○","kaji":"×","naisui":"×","kazan":"×"}}
,{"type":"Feature","geometry":{"type":"Point","coordinates":[136.636,36.625]},"properties":{"Name":"湊３丁目公園","Jusho":"石川県金沢市湊3丁目19番地1","kouzui":"×","gake":"○","takashio":"×","jishin":"○","tsunami":"○","kaji":"×","naisui":"×","kazan":"×"}}
,{"type":"Feature","geometry":{"type":"Point","coordinates":[136.625,36.621]},"properties":{"Name":"金沢市立粟崎小学校","Jusho":"石川県金沢市粟崎町ヘ78番地","kouzui":"○","gake":"○","takashio":"×","jishin":"○","tsunami":"○","kaji":"×","naisui":"×","kazan":"×"}}
,{"type":"Feature","geometry":{"type":"Point","coordinates":[136.62,36.629]},"properties":{"Name":"金沢市ものづくり会館","Jusho":"石川県金沢市粟崎町4丁目80番地1","kouzui":"○","gake":"○","takashio":"×","jishin":"○","tsunami":"○","kaji":"×","naisui":"×","kazan":"×"}}
,{"type":"Feature","geometry":{"type":"Point","coordinates":[136.628,36.626]},"properties":{"Name":"金沢市粟崎公民館","Jusho":"石川県金沢市粟崎町1丁目3番地","kouzui":"○","gake":"○","takashio":"×","jishin":"○","tsunami":"○","kaji":"×","naisui":"×","kazan":"×"}}
,{"type":"Feature","geometry":{"type":"Point","coordinates":[136.621,36.627]},"properties":{"Name":"粟崎第１公園","Jusho":"石川県金沢市粟崎町3丁目242番地","kouzui":"○","gake":"○","takashio":"×","jishin":"○","tsunami":"○","kaji":"×","naisui":"×","kazan":"×"}}
,{"type":"Feature","geometry":{"type":"Point","coordinates":[136.626,36.628]},"properties":{"Name":"粟崎中央公園","Jusho":"石川県金沢市粟崎町2丁目247番地","kouzui":"○","gake":"○","takashio":"×","jishin":"○","tsunami":"○","kaji":"×","naisui":"×","kazan":"×"}}
,{"type":"Feature","geometry":{"type":"Point","coordinates":[136.622,36.634]},"properties":{"Name":"粟崎町４丁目児童公園","Jusho":"石川県金沢市粟崎町4丁目6番地ほか","kouzui":"○","gake":"○","takashio":"×","jishin":"○","tsunami":"○","kaji":"×","naisui":"×","kazan":"×"}}
,{"type":"Feature","geometry":{"type":"Point","coordinates":[136.631,36.626]},"properties":{"Name":"木谷公園","Jusho":"石川県金沢市粟崎町リ1番地1ほか","kouzui":"○","gake":"○","takashio":"×","jishin":"○","tsunami":"×","kaji":"×","naisui":"×","kazan":"×"}}
,{"type":"Feature","geometry":{"type":"Point","coordinates":[136.652,36.604]},"properties":{"Name":"金沢市松寺公民館","Jusho":"石川県金沢市松寺町丑42番地","kouzui":"○","gake":"○","takashio":"×","jishin":"○","tsunami":"○","kaji":"×","naisui":"×","kazan":"×"}}
,{"type":"Feature","geometry":{"type":"Point","coordinates":[136.66,36.597]},"properties":{"Name":"金沢プール","Jusho":"石川県金沢市磯部町ハ55番地","kouzui":"○","gake":"○","takashio":"×","jishin":"○","tsunami":"○","kaji":"×","naisui":"×","kazan":"×"}}
,{"type":"Feature","geometry":{"type":"Point","coordinates":[136.656,36.602]},"properties":{"Name":"金沢市営城北市民テニスコート","Jusho":"石川県金沢市松寺町酉90番地1","kouzui":"×","gake":"○","takashio":"×","jishin":"○","tsunami":"○","kaji":"×","naisui":"×","kazan":"×"}}
,{"type":"Feature","geometry":{"type":"Point","coordinates":[136.658,36.598]},"properties":{"Name":"金沢市城北市民運動公園","Jusho":"石川県金沢市磯部町ニ25番地1ほか","kouzui":"×","gake":"○","takashio":"×","jishin":"○","tsunami":"○","kaji":"×","naisui":"×","kazan":"×"}}
,{"type":"Feature","geometry":{"type":"Point","coordinates":[136.652,36.602]},"properties":{"Name":"松寺中央公園","Jusho":"石川県金沢市松寺町子83番地1","kouzui":"×","gake":"○","takashio":"×","jishin":"○","tsunami":"○","kaji":"×","naisui":"×","kazan":"×"}}
,{"type":"Feature","geometry":{"type":"Point","coordinates":[136.653,36.623]},"properties":{"Name":"金沢市立大浦小学校","Jusho":"石川県金沢市大浦町ヌ87番地","kouzui":"○","gake":"○","takashio":"×","jishin":"○","tsunami":"○","kaji":"×","naisui":"×","kazan":"×"}}
,{"type":"Feature","geometry":{"type":"Point","coordinates":[136.653,36.624]},"properties":{"Name":"金沢市大浦公民館","Jusho":"石川県金沢市大浦町ヌ93番地１","kouzui":"×","gake":"○","takashio":"×","jishin":"○","tsunami":"○","kaji":"×","naisui":"×","kazan":"×"}}
,{"type":"Feature","geometry":{"type":"Point","coordinates":[136.664,36.633]},"properties":{"Name":"こなん水辺公園","Jusho":"石川県金沢市東蚊爪町マ33番1ほか","kouzui":"×","gake":"○","takashio":"×","jishin":"○","tsunami":"○","kaji":"×","naisui":"×","kazan":"×"}}
,{"type":"Feature","geometry":{"type":"Point","coordinates":[136.649,36.635]},"properties":{"Name":"みなと新婚の森","Jusho":"石川県金沢市湊2丁目123番地","kouzui":"×","gake":"○","takashio":"×","jishin":"○","tsunami":"○","kaji":"×","naisui":"×","kazan":"×"}}
,{"type":"Feature","geometry":{"type":"Point","coordinates":[136.667,36.623]},"properties":{"Name":"瑞樹西公園","Jusho":"石川県金沢市みずき2丁目247番地","kouzui":"×","gake":"○","takashio":"×","jishin":"○","tsunami":"○","kaji":"×","naisui":"×","kazan":"×"}}
,{"type":"Feature","geometry":{"type":"Point","coordinates":[136.672,36.622]},"properties":{"Name":"瑞樹中央公園","Jusho":"石川県金沢市みずき2丁目262番地","kouzui":"○","gake":"○","takashio":"×","jishin":"○","tsunami":"○","kaji":"×","naisui":"×","kazan":"×"}}
,{"type":"Feature","geometry":{"type":"Point","coordinates":[136.658,36.64]},"properties":{"Name":"湊１丁目公園","Jusho":"石川県金沢市湊1丁目118番地1","kouzui":"×","gake":"○","takashio":"×","jishin":"○","tsunami":"○","kaji":"×","naisui":"×","kazan":"×"}}
,{"type":"Feature","geometry":{"type":"Point","coordinates":[136.648,36.636]},"properties":{"Name":"湊２丁目水鳥公園","Jusho":"石川県金沢市湊2丁目90番地1ほか","kouzui":"×","gake":"○","takashio":"×","jishin":"○","tsunami":"○","kaji":"×","naisui":"×","kazan":"×"}}
,{"type":"Feature","geometry":{"type":"Point","coordinates":[136.667,36.618]},"properties":{"Name":"木越運動公園","Jusho":"石川県金沢市木越3丁目99番地","kouzui":"○","gake":"○","takashio":"×","jishin":"○","tsunami":"○","kaji":"×","naisui":"×","kazan":"×"}}
,{"type":"Feature","geometry":{"type":"Point","coordinates":[136.669,36.617]},"properties":{"Name":"木越中央公園","Jusho":"石川県金沢市木越2丁目1番地","kouzui":"×","gake":"○","takashio":"×","jishin":"○","tsunami":"○","kaji":"×","naisui":"×","kazan":"×"}}
,{"type":"Feature","geometry":{"type":"Point","coordinates":[136.62,36.566]},"properties":{"Name":"金沢市立米丸小学校","Jusho":"石川県金沢市東力町ニ155番地","kouzui":"○","gake":"○","takashio":"×","jishin":"○","tsunami":"○","kaji":"×","naisui":"×","kazan":"×"}}
,{"type":"Feature","geometry":{"type":"Point","coordinates":[136.619,36.563]},"properties":{"Name":"金沢市西部市民憩いの家","Jusho":"石川県金沢市東力町ハ256番地","kouzui":"○","gake":"○","takashio":"×","jishin":"○","tsunami":"○","kaji":"×","naisui":"×","kazan":"×"}}
,{"type":"Feature","geometry":{"type":"Point","coordinates":[136.62,36.563]},"properties":{"Name":"金沢市営西部市民体育会館","Jusho":"石川県金沢市東力町ハ250番地","kouzui":"○","gake":"○","takashio":"×","jishin":"○","tsunami":"○","kaji":"×","naisui":"×","kazan":"×"}}
,{"type":"Feature","geometry":{"type":"Point","coordinates":[136.618,36.565]},"properties":{"Name":"金沢市米丸公民館","Jusho":"石川県金沢市間明町2丁目72番地","kouzui":"○","gake":"○","takashio":"×","jishin":"○","tsunami":"○","kaji":"×","naisui":"×","kazan":"×"}}
,{"type":"Feature","geometry":{"type":"Point","coordinates":[136.624,36.563]},"properties":{"Name":"あすなろの森","Jusho":"石川県金沢市東力4丁目90番地","kouzui":"×","gake":"○","takashio":"×","jishin":"○","tsunami":"○","kaji":"×","naisui":"×","kazan":"×"}}
,{"type":"Feature","geometry":{"type":"Point","coordinates":[136.623,36.574]},"properties":{"Name":"玉鉾公園","Jusho":"石川県金沢市玉鉾2丁目361番地","kouzui":"×","gake":"○","takashio":"×","jishin":"○","tsunami":"○","kaji":"×","naisui":"×","kazan":"×"}}
,{"type":"Feature","geometry":{"type":"Point","coordinates":[136.613,36.571]},"properties":{"Name":"高畠第２児童公園","Jusho":"石川県金沢市高畠1丁目262番地","kouzui":"×","gake":"○","takashio":"×","jishin":"○","tsunami":"○","kaji":"×","naisui":"×","kazan":"×"}}
,{"type":"Feature","geometry":{"type":"Point","coordinates":[136.616,36.561]},"properties":{"Name":"黒田児童公園","Jusho":"石川県金沢市黒田1丁目9番地","kouzui":"×","gake":"○","takashio":"×","jishin":"○","tsunami":"○","kaji":"×","naisui":"×","kazan":"×"}}
,{"type":"Feature","geometry":{"type":"Point","coordinates":[136.618,36.563]},"properties":{"Name":"伏見川中央公園","Jusho":"石川県金沢市東力町ハ273番地","kouzui":"×","gake":"○","takashio":"×","jishin":"○","tsunami":"○","kaji":"×","naisui":"×","kazan":"×"}}
,{"type":"Feature","geometry":{"type":"Point","coordinates":[136.616,36.57]},"properties":{"Name":"米丸中央公園","Jusho":"石川県金沢市高畠1丁目382番地ほか","kouzui":"×","gake":"○","takashio":"×","jishin":"○","tsunami":"○","kaji":"×","naisui":"×","kazan":"×"}}
,{"type":"Feature","geometry":{"type":"Point","coordinates":[136.621,36.558]},"properties":{"Name":"保古東公園","Jusho":"石川県金沢市保古1丁目120番地","kouzui":"×","gake":"○","takashio":"×","jishin":"○","tsunami":"○","kaji":"×","naisui":"×","kazan":"×"}}
,{"type":"Feature","geometry":{"type":"Point","coordinates":[136.618,36.561]},"properties":{"Name":"米丸交流広場","Jusho":"石川県金沢市東力ハ284番地","kouzui":"×","gake":"○","takashio":"×","jishin":"○","tsunami":"○","kaji":"×","naisui":"×","kazan":"×"}}
,{"type":"Feature","geometry":{"type":"Point","coordinates":[136.635,36.565]},"properties":{"Name":"金沢市立新神田小学校","Jusho":"石川県金沢市新神田1丁目10番58号","kouzui":"○","gake":"○","takashio":"×","jishin":"○","tsunami":"○","kaji":"×","naisui":"×","kazan":"×"}}
,{"type":"Feature","geometry":{"type":"Point","coordinates":[136.636,36.565]},"properties":{"Name":"金沢市立高岡中学校","Jusho":"石川県金沢市新神田1丁目10番1号","kouzui":"○","gake":"○","takashio":"×","jishin":"○","tsunami":"○","kaji":"×","naisui":"×","kazan":"×"}}
,{"type":"Feature","geometry":{"type":"Point","coordinates":[136.636,36.564]},"properties":{"Name":"金沢市新神田公民館","Jusho":"石川県金沢市新神田1丁目1番18号","kouzui":"○","gake":"○","takashio":"×","jishin":"○","tsunami":"○","kaji":"×","naisui":"×","kazan":"×"}}
,{"type":"Feature","geometry":{"type":"Point","coordinates":[136.623,36.559]},"properties":{"Name":"糸田第２児童公園","Jusho":"石川県金沢市糸田2丁目207番地","kouzui":"×","gake":"○","takashio":"×","jishin":"○","tsunami":"○","kaji":"×","naisui":"×","kazan":"×"}}
,{"type":"Feature","geometry":{"type":"Point","coordinates":[136.631,36.561]},"properties":{"Name":"神田交通公園","Jusho":"石川県金沢市新神田3丁目113番地","kouzui":"○","gake":"○","takashio":"×","jishin":"○","tsunami":"○","kaji":"×","naisui":"×","kazan":"×"}}
,{"type":"Feature","geometry":{"type":"Point","coordinates":[136.627,36.566]},"properties":{"Name":"入江第１児童公園","Jusho":"石川県金沢市入江2丁目250番地","kouzui":"○","gake":"○","takashio":"×","jishin":"○","tsunami":"○","kaji":"×","naisui":"×","kazan":"×"}}
,{"type":"Feature","geometry":{"type":"Point","coordinates":[136.609,36.546]},"properties":{"Name":"金沢市立押野小学校","Jusho":"石川県金沢市八日市1丁目175番地","kouzui":"○","gake":"○","takashio":"×","jishin":"○","tsunami":"○","kaji":"×","naisui":"×","kazan":"×"}}
,{"type":"Feature","geometry":{"type":"Point","coordinates":[136.609,36.546]},"properties":{"Name":"金沢市押野公民館","Jusho":"石川県金沢市八日市2丁目464番地","kouzui":"○","gake":"○","takashio":"×","jishin":"○","tsunami":"○","kaji":"×","naisui":"×","kazan":"×"}}
,{"type":"Feature","geometry":{"type":"Point","coordinates":[136.614,36.548]},"properties":{"Name":"押野松の木公園","Jusho":"石川県金沢市押野3丁目525番地","kouzui":"○","gake":"○","takashio":"×","jishin":"○","tsunami":"○","kaji":"×","naisui":"×","kazan":"×"}}
,{"type":"Feature","geometry":{"type":"Point","coordinates":[136.61,36.548]},"properties":{"Name":"八日市アメリカフウ児童公園","Jusho":"石川県金沢市八日市5丁目296番地","kouzui":"○","gake":"○","takashio":"×","jishin":"○","tsunami":"○","kaji":"×","naisui":"×","kazan":"×"}}
,{"type":"Feature","geometry":{"type":"Point","coordinates":[136.61,36.551]},"properties":{"Name":"八日市ケヤキ児童公園","Jusho":"石川県金沢市八日市5丁目455番地","kouzui":"○","gake":"○","takashio":"×","jishin":"○","tsunami":"○","kaji":"×","naisui":"×","kazan":"×"}}
,{"type":"Feature","geometry":{"type":"Point","coordinates":[136.608,36.544]},"properties":{"Name":"八日市住吉中央公園","Jusho":"石川県金沢市八日市2丁目608番地","kouzui":"○","gake":"○","takashio":"×","jishin":"○","tsunami":"○","kaji":"×","naisui":"×","kazan":"×"}}
,{"type":"Feature","geometry":{"type":"Point","coordinates":[136.608,36.556]},"properties":{"Name":"金沢市立西南部小学校","Jusho":"石川県金沢市八日市出町304番地","kouzui":"○","gake":"○","takashio":"×","jishin":"○","tsunami":"○","kaji":"×","naisui":"×","kazan":"×"}}
,{"type":"Feature","geometry":{"type":"Point","coordinates":[136.606,36.553]},"properties":{"Name":"金沢市立西南部中学校","Jusho":"石川県金沢市新保本1丁目149番地","kouzui":"○","gake":"○","takashio":"×","jishin":"○","tsunami":"○","kaji":"×","naisui":"×","kazan":"×"}}
,{"type":"Feature","geometry":{"type":"Point","coordinates":[136.611,36.555]},"properties":{"Name":"金沢市営西金沢テニスコート","Jusho":"石川県金沢市西金沢3丁目684番地","kouzui":"○","gake":"○","takashio":"×","jishin":"○","tsunami":"○","kaji":"×","naisui":"×","kazan":"×"}}
,{"type":"Feature","geometry":{"type":"Point","coordinates":[136.612,36.555]},"properties":{"Name":"金沢市西南部公民館","Jusho":"石川県金沢市西金沢3丁目684番地","kouzui":"○","gake":"○","takashio":"×","jishin":"○","tsunami":"○","kaji":"×","naisui":"×","kazan":"×"}}
,{"type":"Feature","geometry":{"type":"Point","coordinates":[136.605,36.556]},"properties":{"Name":"チカモリ遺跡公園","Jusho":"石川県金沢市新保本5丁目47番地","kouzui":"○","gake":"○","takashio":"×","jishin":"○","tsunami":"○","kaji":"×","naisui":"×","kazan":"×"}}
,{"type":"Feature","geometry":{"type":"Point","coordinates":[136.611,36.56]},"properties":{"Name":"古府町第１児童公園","Jusho":"石川県金沢市古府町南851番地","kouzui":"○","gake":"○","takashio":"×","jishin":"○","tsunami":"○","kaji":"×","naisui":"×","kazan":"×"}}
,{"type":"Feature","geometry":{"type":"Point","coordinates":[136.603,36.559]},"properties":{"Name":"新保本町ふれあい公園","Jusho":"石川県金沢市新保本4丁目70番地","kouzui":"○","gake":"○","takashio":"×","jishin":"○","tsunami":"○","kaji":"×","naisui":"×","kazan":"×"}}
,{"type":"Feature","geometry":{"type":"Point","coordinates":[136.602,36.552]},"properties":{"Name":"新保本町中央公園","Jusho":"石川県金沢市新保本2丁目502番地","kouzui":"○","gake":"○","takashio":"×","jishin":"○","tsunami":"○","kaji":"×","naisui":"×","kazan":"×"}}
,{"type":"Feature","geometry":{"type":"Point","coordinates":[136.615,36.554]},"properties":{"Name":"西金児童公園","Jusho":"石川県金沢市西金沢新町256番地ほか","kouzui":"○","gake":"○","takashio":"×","jishin":"○","tsunami":"○","kaji":"×","naisui":"×","kazan":"×"}}
,{"type":"Feature","geometry":{"type":"Point","coordinates":[136.616,36.557]},"properties":{"Name":"西部中央公園","Jusho":"石川県金沢市西金沢5丁目286番地ほか","kouzui":"×","gake":"○","takashio":"×","jishin":"○","tsunami":"○","kaji":"×","naisui":"×","kazan":"×"}}
,{"type":"Feature","geometry":{"type":"Point","coordinates":[136.608,36.553]},"properties":{"Name":"八日市出町ふるみや公園","Jusho":"石川県金沢市八日市出町718番地","kouzui":"○","gake":"○","takashio":"×","jishin":"○","tsunami":"○","kaji":"×","naisui":"×","kazan":"×"}}
,{"type":"Feature","geometry":{"type":"Point","coordinates":[136.597,36.558]},"properties":{"Name":"金沢市立三和小学校","Jusho":"石川県金沢市矢木1丁目74番地","kouzui":"○","gake":"○","takashio":"×","jishin":"○","tsunami":"○","kaji":"×","naisui":"×","kazan":"×"}}
,{"type":"Feature","geometry":{"type":"Point","coordinates":[136.593,36.554]},"properties":{"Name":"金沢市三和公民館","Jusho":"石川県金沢市上荒屋4丁目82番地","kouzui":"○","gake":"○","takashio":"×","jishin":"○","tsunami":"○","kaji":"×","naisui":"×","kazan":"×"}}
,{"type":"Feature","geometry":{"type":"Point","coordinates":[136.583,36.552]},"properties":{"Name":"いなほふれあい公園","Jusho":"石川県金沢市いなほ1丁目8番地","kouzui":"○","gake":"○","takashio":"×","jishin":"○","tsunami":"○","kaji":"×","naisui":"×","kazan":"×"}}
,{"type":"Feature","geometry":{"type":"Point","coordinates":[136.592,36.548]},"properties":{"Name":"上荒屋１丁目くすのき公園","Jusho":"石川県金沢市上荒屋1丁目346番地","kouzui":"○","gake":"○","takashio":"×","jishin":"○","tsunami":"○","kaji":"×","naisui":"×","kazan":"×"}}
,{"type":"Feature","geometry":{"type":"Point","coordinates":[136.59,36.55]},"properties":{"Name":"上荒屋つばき公園","Jusho":"石川県金沢市上荒屋8丁目43番地","kouzui":"○","gake":"○","takashio":"×","jishin":"○","tsunami":"○","kaji":"×","naisui":"×","kazan":"×"}}
,{"type":"Feature","geometry":{"type":"Point","coordinates":[136.589,36.557]},"properties":{"Name":"上荒屋にれの木公園","Jusho":"石川県金沢市上荒屋5丁目453番地","kouzui":"○","gake":"○","takashio":"×","jishin":"○","tsunami":"○","kaji":"×","naisui":"×","kazan":"×"}}
,{"type":"Feature","geometry":{"type":"Point","coordinates":[136.589,36.553]},"properties":{"Name":"上荒屋もくれん公園","Jusho":"石川県金沢市上荒屋6丁目446番地","kouzui":"○","gake":"○","takashio":"×","jishin":"○","tsunami":"○","kaji":"×","naisui":"×","kazan":"×"}}
,{"type":"Feature","geometry":{"type":"Point","coordinates":[136.6,36.564]},"properties":{"Name":"神野東公園","Jusho":"石川県金沢市神野町東107番地2","kouzui":"×","gake":"○","takashio":"×","jishin":"○","tsunami":"○","kaji":"×","naisui":"×","kazan":"×"}}
,{"type":"Feature","geometry":{"type":"Point","coordinates":[136.593,36.56]},"properties":{"Name":"矢木第１児童公園","Jusho":"石川県金沢市矢木3丁目308番地","kouzui":"○","gake":"○","takashio":"×","jishin":"○","tsunami":"○","kaji":"×","naisui":"×","kazan":"×"}}
,{"type":"Feature","geometry":{"type":"Point","coordinates":[136.634,36.544]},"properties":{"Name":"金沢市立三馬小学校","Jusho":"石川県金沢市久安6丁目154番地","kouzui":"○","gake":"○","takashio":"×","jishin":"○","tsunami":"○","kaji":"×","naisui":"×","kazan":"×"}}
,{"type":"Feature","geometry":{"type":"Point","coordinates":[136.635,36.551]},"properties":{"Name":"金沢高等学校","Jusho":"石川県金沢市泉本町3丁目111番地","kouzui":"○","gake":"○","takashio":"×","jishin":"○","tsunami":"○","kaji":"×","naisui":"×","kazan":"×"}}
,{"type":"Feature","geometry":{"type":"Point","coordinates":[136.636,36.548]},"properties":{"Name":"金沢市立清泉中学校","Jusho":"石川県金沢市泉本町3丁目3番地","kouzui":"○","gake":"○","takashio":"×","jishin":"○","tsunami":"○","kaji":"×","naisui":"×","kazan":"×"}}
,{"type":"Feature","geometry":{"type":"Point","coordinates":[136.635,36.542]},"properties":{"Name":"金沢市三馬公民館","Jusho":"石川県金沢市久安6丁目59番地1","kouzui":"○","gake":"○","takashio":"×","jishin":"○","tsunami":"○","kaji":"×","naisui":"×","kazan":"×"}}
,{"type":"Feature","geometry":{"type":"Point","coordinates":[136.63,36.539]},"properties":{"Name":"横川児童公園","Jusho":"石川県金沢市横川4丁目2番地","kouzui":"×","gake":"○","takashio":"×","jishin":"○","tsunami":"○","kaji":"×","naisui":"×","kazan":"×"}}
,{"type":"Feature","geometry":{"type":"Point","coordinates":[136.636,36.547]},"properties":{"Name":"清泉公園","Jusho":"石川県金沢市泉本町1丁目160番地6ほか","kouzui":"○","gake":"○","takashio":"×","jishin":"○","tsunami":"○","kaji":"×","naisui":"×","kazan":"×"}}
,{"type":"Feature","geometry":{"type":"Point","coordinates":[136.64,36.541]},"properties":{"Name":"有松たつあがり公園","Jusho":"石川県金沢市有松3丁目33番地","kouzui":"○","gake":"○","takashio":"×","jishin":"○","tsunami":"○","kaji":"×","naisui":"×","kazan":"×"}}
,{"type":"Feature","geometry":{"type":"Point","coordinates":[136.637,36.54]},"properties":{"Name":"有松児童遊園","Jusho":"石川県金沢市有松4丁目155番地","kouzui":"○","gake":"○","takashio":"×","jishin":"○","tsunami":"○","kaji":"×","naisui":"×","kazan":"×"}}
,{"type":"Feature","geometry":{"type":"Point","coordinates":[136.628,36.546]},"properties":{"Name":"金沢市立米泉小学校","Jusho":"石川県金沢市米泉町4丁目133番地2","kouzui":"○","gake":"○","takashio":"×","jishin":"○","tsunami":"○","kaji":"×","naisui":"×","kazan":"×"}}
,{"type":"Feature","geometry":{"type":"Point","coordinates":[136.628,36.549]},"properties":{"Name":"石川県立金沢伏見高等学校","Jusho":"石川県金沢市米泉町5丁目85番地","kouzui":"○","gake":"○","takashio":"×","jishin":"○","tsunami":"○","kaji":"×","naisui":"×","kazan":"×"}}
,{"type":"Feature","geometry":{"type":"Point","coordinates":[136.626,36.551]},"properties":{"Name":"金沢市米泉公民館","Jusho":"石川県金沢市米泉町8丁目126番地","kouzui":"○","gake":"○","takashio":"×","jishin":"○","tsunami":"○","kaji":"×","naisui":"×","kazan":"×"}}
,{"type":"Feature","geometry":{"type":"Point","coordinates":[136.646,36.53]},"properties":{"Name":"金沢市立富樫小学校","Jusho":"石川県金沢市山科3丁目6番60号","kouzui":"○","gake":"○","takashio":"×","jishin":"○","tsunami":"○","kaji":"×","naisui":"×","kazan":"×"}}
,{"type":"Feature","geometry":{"type":"Point","coordinates":[136.641,36.53]},"properties":{"Name":"石川県立金沢錦丘高等学校・中学校","Jusho":"石川県金沢市窪6丁目128番地","kouzui":"○","gake":"○","takashio":"×","jishin":"○","tsunami":"○","kaji":"×","naisui":"×","kazan":"×"}}
,{"type":"Feature","geometry":{"type":"Point","coordinates":[136.643,36.539]},"properties":{"Name":"金沢南総合運動公園","Jusho":"石川県金沢市富樫3丁目8番30号","kouzui":"○","gake":"○","takashio":"×","jishin":"○","tsunami":"○","kaji":"×","naisui":"×","kazan":"×"}}
,{"type":"Feature","geometry":{"type":"Point","coordinates":[136.647,36.528]},"properties":{"Name":"金沢市富樫公民館","Jusho":"石川県金沢市山科1丁目6番8号","kouzui":"○","gake":"○","takashio":"×","jishin":"○","tsunami":"○","kaji":"×","naisui":"×","kazan":"×"}}
,{"type":"Feature","geometry":{"type":"Point","coordinates":[136.636,36.537]},"properties":{"Name":"寺地いなほ公園","Jusho":"石川県金沢市寺地2丁目69番地","kouzui":"○","gake":"○","takashio":"×","jishin":"○","tsunami":"○","kaji":"×","naisui":"×","kazan":"×"}}
,{"type":"Feature","geometry":{"type":"Point","coordinates":[136.638,36.534]},"properties":{"Name":"寺地なかよし公園","Jusho":"石川県金沢市伏見台2丁目72番地ほか","kouzui":"○","gake":"○","takashio":"×","jishin":"○","tsunami":"○","kaji":"×","naisui":"×","kazan":"×"}}
,{"type":"Feature","geometry":{"type":"Point","coordinates":[136.644,36.536]},"properties":{"Name":"寺地みんなの広場","Jusho":"石川県金沢市寺地1丁目39番地","kouzui":"○","gake":"○","takashio":"×","jishin":"○","tsunami":"○","kaji":"×","naisui":"×","kazan":"×"}}
,{"type":"Feature","geometry":{"type":"Point","coordinates":[136.638,36.527]},"properties":{"Name":"金沢市立伏見台小学校","Jusho":"石川県金沢市窪5丁目335番地","kouzui":"○","gake":"○","takashio":"×","jishin":"○","tsunami":"○","kaji":"×","naisui":"×","kazan":"×"}}
,{"type":"Feature","geometry":{"type":"Point","coordinates":[136.634,36.523]},"properties":{"Name":"金沢市立高尾台中学校","Jusho":"石川県金沢市高尾台1丁目128番地","kouzui":"○","gake":"○","takashio":"×","jishin":"○","tsunami":"○","kaji":"×","naisui":"×","kazan":"×"}}
,{"type":"Feature","geometry":{"type":"Point","coordinates":[136.628,36.532]},"properties":{"Name":"国際高等専門学校（７号館）","Jusho":"石川県金沢市久安2丁目270番地","kouzui":"○","gake":"○","takashio":"×","jishin":"○","tsunami":"○","kaji":"×","naisui":"×","kazan":"×"}}
,{"type":"Feature","geometry":{"type":"Point","coordinates":[136.638,36.526]},"properties":{"Name":"金沢市伏見台公民館","Jusho":"石川県金沢市窪5丁目675番地","kouzui":"○","gake":"○","takashio":"×","jishin":"○","tsunami":"○","kaji":"×","naisui":"×","kazan":"×"}}
,{"type":"Feature","geometry":{"type":"Point","coordinates":[136.635,36.532]},"properties":{"Name":"円光寺第２公園","Jusho":"石川県金沢市伏見台3丁目58番地ほか","kouzui":"×","gake":"○","takashio":"×","jishin":"○","tsunami":"○","kaji":"×","naisui":"×","kazan":"×"}}
,{"type":"Feature","geometry":{"type":"Point","coordinates":[136.623,36.535]},"properties":{"Name":"横川日吉児童公園","Jusho":"石川県金沢市横川1丁目68番地","kouzui":"○","gake":"○","takashio":"×","jishin":"○","tsunami":"○","kaji":"×","naisui":"×","kazan":"×"}}
,{"type":"Feature","geometry":{"type":"Point","coordinates":[136.631,36.533]},"properties":{"Name":"久安殿屋敷公園","Jusho":"石川県金沢市久安2丁目281番地","kouzui":"×","gake":"○","takashio":"×","jishin":"○","tsunami":"○","kaji":"×","naisui":"×","kazan":"×"}}
,{"type":"Feature","geometry":{"type":"Point","coordinates":[136.632,36.533]},"properties":{"Name":"久安伏見公園","Jusho":"石川県金沢市久安1丁目489番地","kouzui":"×","gake":"○","takashio":"×","jishin":"○","tsunami":"○","kaji":"×","naisui":"×","kazan":"×"}}
,{"type":"Feature","geometry":{"type":"Point","coordinates":[136.639,36.531]},"properties":{"Name":"窪錦丘公園","Jusho":"石川県金沢市窪7丁目309番地","kouzui":"×","gake":"○","takashio":"×","jishin":"○","tsunami":"○","kaji":"×","naisui":"×","kazan":"×"}}
,{"type":"Feature","geometry":{"type":"Point","coordinates":[136.64,36.527]},"properties":{"Name":"窪伏見台公園","Jusho":"石川県金沢市窪4丁目547番地","kouzui":"○","gake":"○","takashio":"×","jishin":"○","tsunami":"○","kaji":"×","naisui":"×","kazan":"×"}}
,{"type":"Feature","geometry":{"type":"Point","coordinates":[136.63,36.521]},"properties":{"Name":"高尾中央公園","Jusho":"石川県金沢市高尾台3丁目143番地","kouzui":"○","gake":"○","takashio":"×","jishin":"○","tsunami":"○","kaji":"×","naisui":"×","kazan":"×"}}
,{"type":"Feature","geometry":{"type":"Point","coordinates":[136.632,36.528]},"properties":{"Name":"三馬第１児童公園","Jusho":"石川県金沢市三馬3丁目150番地","kouzui":"○","gake":"○","takashio":"×","jishin":"○","tsunami":"○","kaji":"×","naisui":"×","kazan":"×"}}
,{"type":"Feature","geometry":{"type":"Point","coordinates":[136.631,36.525]},"properties":{"Name":"三馬第２児童公園","Jusho":"石川県金沢市三馬1丁目229番地","kouzui":"○","gake":"○","takashio":"×","jishin":"○","tsunami":"○","kaji":"×","naisui":"×","kazan":"×"}}
,{"type":"Feature","geometry":{"type":"Point","coordinates":[136.635,36.527]},"properties":{"Name":"三馬第３児童公園","Jusho":"石川県金沢市三馬1丁目73番地","kouzui":"○","gake":"○","takashio":"×","jishin":"○","tsunami":"○","kaji":"×","naisui":"×","kazan":"×"}}
,{"type":"Feature","geometry":{"type":"Point","coordinates":[136.631,36.527]},"properties":{"Name":"三馬第４児童公園","Jusho":"石川県金沢市三馬3丁目325番地","kouzui":"○","gake":"○","takashio":"×","jishin":"○","tsunami":"○","kaji":"×","naisui":"×","kazan":"×"}}
,{"type":"Feature","geometry":{"type":"Point","coordinates":[136.636,36.522]},"properties":{"Name":"的場公園","Jusho":"石川県金沢市高尾台1丁目354番地","kouzui":"○","gake":"○","takashio":"×","jishin":"○","tsunami":"○","kaji":"×","naisui":"×","kazan":"×"}}
,{"type":"Feature","geometry":{"type":"Point","coordinates":[136.622,36.51]},"properties":{"Name":"金沢市立額小学校","Jusho":"石川県金沢市額乙丸町イ55番地","kouzui":"○","gake":"○","takashio":"×","jishin":"○","tsunami":"○","kaji":"×","naisui":"×","kazan":"×"}}
,{"type":"Feature","geometry":{"type":"Point","coordinates":[136.623,36.511]},"properties":{"Name":"金沢市立額中学校","Jusho":"石川県金沢市額乙丸町イ1番地","kouzui":"○","gake":"○","takashio":"×","jishin":"○","tsunami":"○","kaji":"×","naisui":"×","kazan":"×"}}
,{"type":"Feature","geometry":{"type":"Point","coordinates":[136.624,36.511]},"properties":{"Name":"金沢市額公民館","Jusho":"石川県金沢市額谷3丁目1番地1","kouzui":"○","gake":"○","takashio":"×","jishin":"○","tsunami":"○","kaji":"×","naisui":"×","kazan":"×"}}
,{"type":"Feature","geometry":{"type":"Point","coordinates":[136.63,36.509]},"properties":{"Name":"金沢市額谷ふれあい体育館","Jusho":"石川県金沢市額谷町ヌ16番地","kouzui":"○","gake":"×","takashio":"×","jishin":"○","tsunami":"○","kaji":"×","naisui":"×","kazan":"×"}}
,{"type":"Feature","geometry":{"type":"Point","coordinates":[136.629,36.51]},"properties":{"Name":"金沢市老人福祉センター鶴寿園","Jusho":"石川県金沢市額谷町ヌ1番地","kouzui":"○","gake":"○","takashio":"×","jishin":"○","tsunami":"○","kaji":"×","naisui":"×","kazan":"×"}}
,{"type":"Feature","geometry":{"type":"Point","coordinates":[136.626,36.512]},"properties":{"Name":"額せせらぎ公園","Jusho":"石川県金沢市額谷1丁目1番地ほか","kouzui":"○","gake":"○","takashio":"×","jishin":"○","tsunami":"○","kaji":"×","naisui":"×","kazan":"×"}}
,{"type":"Feature","geometry":{"type":"Point","coordinates":[136.618,36.511]},"properties":{"Name":"額乙丸児童公園","Jusho":"石川県金沢市額乙丸町ハ151番地","kouzui":"×","gake":"○","takashio":"×","jishin":"○","tsunami":"○","kaji":"×","naisui":"×","kazan":"×"}}
,{"type":"Feature","geometry":{"type":"Point","coordinates":[136.616,36.516]},"properties":{"Name":"額新保中央公園","Jusho":"石川県金沢市額新保2丁目350番地","kouzui":"○","gake":"○","takashio":"×","jishin":"○","tsunami":"○","kaji":"×","naisui":"×","kazan":"×"}}
,{"type":"Feature","geometry":{"type":"Point","coordinates":[136.63,36.509]},"properties":{"Name":"額谷ふれあい公園","Jusho":"石川県金沢市額谷町ヌ16番地ほか","kouzui":"○","gake":"○","takashio":"×","jishin":"○","tsunami":"○","kaji":"×","naisui":"×","kazan":"×"}}
,{"type":"Feature","geometry":{"type":"Point","coordinates":[136.629,36.509]},"properties":{"Name":"金沢市営額谷運動広場","Jusho":"石川県金沢市額谷町ホ2番地3","kouzui":"○","gake":"○","takashio":"×","jishin":"○","tsunami":"○","kaji":"×","naisui":"×","kazan":"×"}}
,{"type":"Feature","geometry":{"type":"Point","coordinates":[136.626,36.509]},"properties":{"Name":"額谷第１児童公園","Jusho":"石川県金沢市額谷2丁目49番地","kouzui":"○","gake":"○","takashio":"×","jishin":"○","tsunami":"○","kaji":"×","naisui":"×","kazan":"×"}}
,{"type":"Feature","geometry":{"type":"Point","coordinates":[136.627,36.513]},"properties":{"Name":"光が丘３丁目児童公園","Jusho":"石川県金沢市光が丘3丁目19番地","kouzui":"○","gake":"○","takashio":"×","jishin":"○","tsunami":"○","kaji":"×","naisui":"×","kazan":"×"}}
,{"type":"Feature","geometry":{"type":"Point","coordinates":[136.628,36.516]},"properties":{"Name":"光が丘中央公園","Jusho":"石川県金沢市光が丘2丁目105番地","kouzui":"○","gake":"○","takashio":"×","jishin":"○","tsunami":"○","kaji":"×","naisui":"×","kazan":"×"}}
,{"type":"Feature","geometry":{"type":"Point","coordinates":[136.619,36.514]},"properties":{"Name":"大額１丁目公園","Jusho":"石川県金沢市大額1丁目378番地","kouzui":"○","gake":"○","takashio":"×","jishin":"○","tsunami":"○","kaji":"×","naisui":"×","kazan":"×"}}
,{"type":"Feature","geometry":{"type":"Point","coordinates":[136.624,36.517]},"properties":{"Name":"大額２丁目公園","Jusho":"石川県金沢市大額2丁目132番地","kouzui":"○","gake":"○","takashio":"×","jishin":"○","tsunami":"○","kaji":"×","naisui":"×","kazan":"×"}}
,{"type":"Feature","geometry":{"type":"Point","coordinates":[136.618,36.503]},"properties":{"Name":"金沢市立四十万小学校","Jusho":"石川県金沢市四十万3丁目186番地","kouzui":"○","gake":"○","takashio":"×","jishin":"○","tsunami":"○","kaji":"×","naisui":"×","kazan":"×"}}
,{"type":"Feature","geometry":{"type":"Point","coordinates":[136.619,36.508]},"properties":{"Name":"三十苅児童公園","Jusho":"石川県金沢市三十苅町丙184番地","kouzui":"×","gake":"○","takashio":"×","jishin":"○","tsunami":"○","kaji":"×","naisui":"×","kazan":"×"}}
,{"type":"Feature","geometry":{"type":"Point","coordinates":[136.615,36.507]},"properties":{"Name":"三十苅中央公園","Jusho":"石川県金沢市三十苅町丁154番地","kouzui":"×","gake":"○","takashio":"×","jishin":"○","tsunami":"○","kaji":"×","naisui":"×","kazan":"×"}}
,{"type":"Feature","geometry":{"type":"Point","coordinates":[136.619,36.498]},"properties":{"Name":"四十万あいぞめ公園","Jusho":"石川県金沢市南四十万1丁目221番地","kouzui":"○","gake":"○","takashio":"×","jishin":"○","tsunami":"○","kaji":"×","naisui":"×","kazan":"×"}}
,{"type":"Feature","geometry":{"type":"Point","coordinates":[136.624,36.507]},"properties":{"Name":"四十万きずな広場","Jusho":"石川県金沢市四十万町北チ54番地3","kouzui":"○","gake":"○","takashio":"×","jishin":"○","tsunami":"○","kaji":"×","naisui":"×","kazan":"×"}}
,{"type":"Feature","geometry":{"type":"Point","coordinates":[136.618,36.503]},"properties":{"Name":"四十万中央公園","Jusho":"石川県金沢市四十万町3丁目185番地","kouzui":"○","gake":"○","takashio":"×","jishin":"○","tsunami":"○","kaji":"×","naisui":"×","kazan":"×"}}
,{"type":"Feature","geometry":{"type":"Point","coordinates":[136.621,36.5]},"properties":{"Name":"中四十万児童公園","Jusho":"石川県金沢市四十万町リ407番地","kouzui":"○","gake":"×","takashio":"×","jishin":"○","tsunami":"○","kaji":"×","naisui":"×","kazan":"×"}}
,{"type":"Feature","geometry":{"type":"Point","coordinates":[136.625,36.523]},"properties":{"Name":"金沢市立扇台小学校","Jusho":"石川県金沢市馬替1丁目34番地","kouzui":"○","gake":"○","takashio":"×","jishin":"○","tsunami":"○","kaji":"×","naisui":"×","kazan":"×"}}
,{"type":"Feature","geometry":{"type":"Point","coordinates":[136.624,36.522]},"properties":{"Name":"金沢市扇台公民館","Jusho":"石川県金沢市馬替1丁目29番地1","kouzui":"○","gake":"○","takashio":"×","jishin":"○","tsunami":"○","kaji":"×","naisui":"×","kazan":"×"}}
,{"type":"Feature","geometry":{"type":"Point","coordinates":[136.62,36.518]},"properties":{"Name":"あすなろ公園","Jusho":"石川県金沢市額新町1丁目26番地ほか","kouzui":"○","gake":"○","takashio":"×","jishin":"○","tsunami":"○","kaji":"×","naisui":"×","kazan":"×"}}
,{"type":"Feature","geometry":{"type":"Point","coordinates":[136.621,36.519]},"properties":{"Name":"額新町１丁目緑地","Jusho":"石川県金沢市額新町1丁目183番地ほか","kouzui":"○","gake":"○","takashio":"×","jishin":"○","tsunami":"○","kaji":"×","naisui":"×","kazan":"×"}}
,{"type":"Feature","geometry":{"type":"Point","coordinates":[136.62,36.516]},"properties":{"Name":"額新町２丁目緑地","Jusho":"石川県金沢市額新町2丁目49番地ほか","kouzui":"○","gake":"○","takashio":"×","jishin":"○","tsunami":"○","kaji":"×","naisui":"×","kazan":"×"}}
,{"type":"Feature","geometry":{"type":"Point","coordinates":[136.624,36.519]},"properties":{"Name":"額新町第２公園","Jusho":"石川県金沢市額新町1丁目217番地ほか","kouzui":"○","gake":"○","takashio":"×","jishin":"○","tsunami":"○","kaji":"×","naisui":"×","kazan":"×"}}
,{"type":"Feature","geometry":{"type":"Point","coordinates":[136.62,36.517]},"properties":{"Name":"額新町第３児童公園","Jusho":"石川県金沢市額新町2丁目77番地1","kouzui":"○","gake":"○","takashio":"×","jishin":"○","tsunami":"○","kaji":"×","naisui":"×","kazan":"×"}}
,{"type":"Feature","geometry":{"type":"Point","coordinates":[136.626,36.521]},"properties":{"Name":"光が丘１丁目児童公園","Jusho":"石川県金沢市光が丘1丁目67番地ほか","kouzui":"○","gake":"○","takashio":"×","jishin":"○","tsunami":"○","kaji":"×","naisui":"×","kazan":"×"}}
,{"type":"Feature","geometry":{"type":"Point","coordinates":[136.634,36.515]},"properties":{"Name":"高尾第３児童公園","Jusho":"石川県金沢市高尾南1丁目165番地","kouzui":"○","gake":"×","takashio":"×","jishin":"○","tsunami":"○","kaji":"×","naisui":"×","kazan":"×"}}
,{"type":"Feature","geometry":{"type":"Point","coordinates":[136.631,36.517]},"properties":{"Name":"高尾南ゆうあい公園","Jusho":"石川県金沢市高尾南2丁目119番地","kouzui":"○","gake":"○","takashio":"×","jishin":"○","tsunami":"○","kaji":"×","naisui":"×","kazan":"×"}}
,{"type":"Feature","geometry":{"type":"Point","coordinates":[136.627,36.523]},"properties":{"Name":"城谷公園","Jusho":"石川県金沢市高尾台4丁目57番地","kouzui":"○","gake":"○","takashio":"×","jishin":"○","tsunami":"○","kaji":"×","naisui":"×","kazan":"×"}}
,{"type":"Feature","geometry":{"type":"Point","coordinates":[136.622,36.523]},"properties":{"Name":"馬替児童公園","Jusho":"石川県金沢市馬替2丁目39番地ほか","kouzui":"○","gake":"○","takashio":"×","jishin":"○","tsunami":"○","kaji":"×","naisui":"×","kazan":"×"}}
,{"type":"Feature","geometry":{"type":"Point","coordinates":[136.642,36.575]},"properties":{"Name":"金沢市立長田町小学校","Jusho":"石川県金沢市長田1丁目5番40号","kouzui":"○","gake":"○","takashio":"×","jishin":"○","tsunami":"○","kaji":"×","naisui":"×","kazan":"×"}}
,{"type":"Feature","geometry":{"type":"Point","coordinates":[136.643,36.576]},"properties":{"Name":"金沢市長田町公民館","Jusho":"石川県金沢市長田1丁目5番50号","kouzui":"○","gake":"○","takashio":"×","jishin":"○","tsunami":"○","kaji":"×","naisui":"×","kazan":"×"}}
,{"type":"Feature","geometry":{"type":"Point","coordinates":[136.643,36.578]},"properties":{"Name":"駅西第１児童公園","Jusho":"石川県金沢市広岡2丁目802番地","kouzui":"○","gake":"○","takashio":"×","jishin":"○","tsunami":"○","kaji":"×","naisui":"×","kazan":"×"}}
,{"type":"Feature","geometry":{"type":"Point","coordinates":[136.64,36.58]},"properties":{"Name":"駅西第３児童公園","Jusho":"石川県金沢市駅西本町1丁目904番地","kouzui":"○","gake":"○","takashio":"×","jishin":"○","tsunami":"○","kaji":"×","naisui":"×","kazan":"×"}}
,{"type":"Feature","geometry":{"type":"Point","coordinates":[136.644,36.583]},"properties":{"Name":"駅西中央公園","Jusho":"石川県金沢市西念1丁目1101番地","kouzui":"○","gake":"○","takashio":"×","jishin":"○","tsunami":"○","kaji":"×","naisui":"×","kazan":"×"}}
,{"type":"Feature","geometry":{"type":"Point","coordinates":[136.64,36.575]},"properties":{"Name":"長田２丁目ひまわり公園","Jusho":"石川県金沢市長田2丁目9番地ほか","kouzui":"×","gake":"○","takashio":"×","jishin":"○","tsunami":"○","kaji":"×","naisui":"×","kazan":"×"}}
,{"type":"Feature","geometry":{"type":"Point","coordinates":[136.623,36.579]},"properties":{"Name":"金沢市立戸板小学校","Jusho":"石川県金沢市戸板1丁目1番地","kouzui":"○","gake":"○","takashio":"×","jishin":"○","tsunami":"○","kaji":"×","naisui":"×","kazan":"×"}}
,{"type":"Feature","geometry":{"type":"Point","coordinates":[136.629,36.585]},"properties":{"Name":"金沢市立長田中学校","Jusho":"石川県金沢市二宮町1番1号","kouzui":"○","gake":"○","takashio":"×","jishin":"○","tsunami":"○","kaji":"×","naisui":"×","kazan":"×"}}
,{"type":"Feature","geometry":{"type":"Point","coordinates":[136.623,36.58]},"properties":{"Name":"金沢市戸板公民館","Jusho":"石川県金沢市戸板1丁目2番地","kouzui":"○","gake":"○","takashio":"×","jishin":"○","tsunami":"○","kaji":"×","naisui":"×","kazan":"×"}}
,{"type":"Feature","geometry":{"type":"Point","coordinates":[136.636,36.583]},"properties":{"Name":"駅西第４児童公園","Jusho":"石川県金沢市駅西本町3丁目406番地","kouzui":"○","gake":"○","takashio":"×","jishin":"○","tsunami":"○","kaji":"×","naisui":"×","kazan":"×"}}
,{"type":"Feature","geometry":{"type":"Point","coordinates":[136.626,36.581]},"properties":{"Name":"戸板東公園","Jusho":"石川県金沢市戸板4丁目19番地","kouzui":"○","gake":"○","takashio":"×","jishin":"○","tsunami":"○","kaji":"×","naisui":"×","kazan":"×"}}
,{"type":"Feature","geometry":{"type":"Point","coordinates":[136.62,36.579]},"properties":{"Name":"桜田中央公園","Jusho":"石川県金沢市桜田町1丁目116番地","kouzui":"×","gake":"○","takashio":"×","jishin":"○","tsunami":"○","kaji":"×","naisui":"×","kazan":"×"}}
,{"type":"Feature","geometry":{"type":"Point","coordinates":[136.621,36.577]},"properties":{"Name":"桜田南児童公園","Jusho":"石川県金沢市桜田町2丁目65番地","kouzui":"×","gake":"○","takashio":"×","jishin":"○","tsunami":"○","kaji":"×","naisui":"×","kazan":"×"}}
,{"type":"Feature","geometry":{"type":"Point","coordinates":[136.616,36.575]},"properties":{"Name":"示野中青島公園","Jusho":"石川県金沢市示野中町2丁目114番地","kouzui":"×","gake":"○","takashio":"×","jishin":"○","tsunami":"○","kaji":"×","naisui":"×","kazan":"×"}}
,{"type":"Feature","geometry":{"type":"Point","coordinates":[136.617,36.578]},"properties":{"Name":"示野中中央公園","Jusho":"石川県金沢市示野中町1丁目40番地","kouzui":"×","gake":"○","takashio":"×","jishin":"○","tsunami":"○","kaji":"×","naisui":"×","kazan":"×"}}
,{"type":"Feature","geometry":{"type":"Point","coordinates":[136.607,36.582]},"properties":{"Name":"示野町児童公園","Jusho":"石川県金沢市示野町西26番地ほか","kouzui":"×","gake":"○","takashio":"×","jishin":"○","tsunami":"○","kaji":"×","naisui":"×","kazan":"×"}}
,{"type":"Feature","geometry":{"type":"Point","coordinates":[136.631,36.575]},"properties":{"Name":"若宮中央公園","Jusho":"石川県金沢市若宮2丁目29番地","kouzui":"○","gake":"○","takashio":"×","jishin":"○","tsunami":"○","kaji":"×","naisui":"×","kazan":"×"}}
,{"type":"Feature","geometry":{"type":"Point","coordinates":[136.625,36.576]},"properties":{"Name":"出雲中央公園","Jusho":"石川県金沢市出雲町イ418番地","kouzui":"×","gake":"○","takashio":"×","jishin":"○","tsunami":"○","kaji":"×","naisui":"×","kazan":"×"}}
,{"type":"Feature","geometry":{"type":"Point","coordinates":[136.626,36.59]},"properties":{"Name":"西都ゆめみどり公園","Jusho":"石川県金沢市西都2丁目15番地","kouzui":"○","gake":"○","takashio":"×","jishin":"○","tsunami":"○","kaji":"×","naisui":"×","kazan":"×"}}
,{"type":"Feature","geometry":{"type":"Point","coordinates":[136.633,36.573]},"properties":{"Name":"大豆田公園","Jusho":"石川県金沢市大豆田本町甲535番地","kouzui":"○","gake":"○","takashio":"×","jishin":"○","tsunami":"○","kaji":"×","naisui":"×","kazan":"×"}}
,{"type":"Feature","geometry":{"type":"Point","coordinates":[136.627,36.586]},"properties":{"Name":"北町児童公園","Jusho":"石川県金沢市駅西本町6丁目403番地","kouzui":"○","gake":"○","takashio":"×","jishin":"○","tsunami":"○","kaji":"×","naisui":"×","kazan":"×"}}
,{"type":"Feature","geometry":{"type":"Point","coordinates":[136.623,36.582]},"properties":{"Name":"戸板公園","Jusho":"石川県金沢市戸板5丁目87番地","kouzui":"×","gake":"○","takashio":"×","jishin":"○","tsunami":"○","kaji":"×","naisui":"×","kazan":"×"}}
,{"type":"Feature","geometry":{"type":"Point","coordinates":[136.61,36.582]},"properties":{"Name":"示野公園","Jusho":"石川県金沢市示野町チ233番地","kouzui":"×","gake":"○","takashio":"×","jishin":"○","tsunami":"○","kaji":"×","naisui":"×","kazan":"×"}}
,{"type":"Feature","geometry":{"type":"Point","coordinates":[136.637,36.592]},"properties":{"Name":"金沢市立西小学校","Jusho":"石川県金沢市駅西新町3丁目15番1号","kouzui":"○","gake":"○","takashio":"×","jishin":"○","tsunami":"○","kaji":"×","naisui":"×","kazan":"×"}}
,{"type":"Feature","geometry":{"type":"Point","coordinates":[136.641,36.587]},"properties":{"Name":"金沢市西公民館","Jusho":"石川県金沢市西念2丁目34番9号","kouzui":"○","gake":"○","takashio":"×","jishin":"○","tsunami":"○","kaji":"×","naisui":"×","kazan":"×"}}
,{"type":"Feature","geometry":{"type":"Point","coordinates":[136.635,36.592]},"properties":{"Name":"姉妹都市公園","Jusho":"石川県金沢市駅西新町3丁目1001番地ほか","kouzui":"○","gake":"○","takashio":"×","jishin":"○","tsunami":"○","kaji":"×","naisui":"×","kazan":"×"}}
,{"type":"Feature","geometry":{"type":"Point","coordinates":[136.639,36.595]},"properties":{"Name":"南新保第２児童公園","Jusho":"石川県金沢市駅西新町2丁目1101番地","kouzui":"×","gake":"○","takashio":"×","jishin":"○","tsunami":"○","kaji":"×","naisui":"×","kazan":"×"}}
,{"type":"Feature","geometry":{"type":"Point","coordinates":[136.637,36.588]},"properties":{"Name":"西念町児童公園","Jusho":"石川県金沢市西念3丁目701番地","kouzui":"○","gake":"○","takashio":"×","jishin":"○","tsunami":"○","kaji":"×","naisui":"×","kazan":"×"}}
,{"type":"Feature","geometry":{"type":"Point","coordinates":[136.641,36.587]},"properties":{"Name":"西念町第２公園","Jusho":"石川県金沢市西念2丁目3101番地","kouzui":"×","gake":"○","takashio":"×","jishin":"○","tsunami":"○","kaji":"×","naisui":"×","kazan":"×"}}
,{"type":"Feature","geometry":{"type":"Point","coordinates":[136.597,36.573]},"properties":{"Name":"金沢市二塚公民館","Jusho":"石川県金沢市北塚町西98番地","kouzui":"○","gake":"○","takashio":"×","jishin":"○","tsunami":"○","kaji":"×","naisui":"×","kazan":"×"}}
,{"type":"Feature","geometry":{"type":"Point","coordinates":[136.598,36.579]},"properties":{"Name":"いしかわ総合スポーツセンター","Jusho":"石川県金沢市稚日野町北222番地","kouzui":"×","gake":"○","takashio":"×","jishin":"○","tsunami":"○","kaji":"×","naisui":"×","kazan":"×"}}
,{"type":"Feature","geometry":{"type":"Point","coordinates":[136.579,36.586]},"properties":{"Name":"金沢市営専光寺ソフトボール場","Jusho":"石川県金沢市専光寺町レ3番地5","kouzui":"○","gake":"○","takashio":"×","jishin":"○","tsunami":"○","kaji":"×","naisui":"×","kazan":"×"}}
,{"type":"Feature","geometry":{"type":"Point","coordinates":[136.587,36.583]},"properties":{"Name":"加賀友禅染色団地公園","Jusho":"石川県金沢市専光寺町ニ172番地","kouzui":"×","gake":"○","takashio":"×","jishin":"○","tsunami":"○","kaji":"×","naisui":"×","kazan":"×"}}
,{"type":"Feature","geometry":{"type":"Point","coordinates":[136.583,36.592]},"properties":{"Name":"健民海浜公園","Jusho":"石川県金沢市普正寺町11の1番地1","kouzui":"○","gake":"○","takashio":"×","jishin":"○","tsunami":"○","kaji":"×","naisui":"×","kazan":"×"}}
,{"type":"Feature","geometry":{"type":"Point","coordinates":[136.608,36.571]},"properties":{"Name":"古府中央公園","Jusho":"石川県金沢市古府3丁目95番地","kouzui":"×","gake":"○","takashio":"×","jishin":"○","tsunami":"○","kaji":"×","naisui":"×","kazan":"×"}}
,{"type":"Feature","geometry":{"type":"Point","coordinates":[136.61,36.567]},"properties":{"Name":"古府徳代公園","Jusho":"石川県金沢市古府2丁目4番地","kouzui":"×","gake":"○","takashio":"×","jishin":"○","tsunami":"○","kaji":"×","naisui":"×","kazan":"×"}}
,{"type":"Feature","geometry":{"type":"Point","coordinates":[136.601,36.567]},"properties":{"Name":"松島町西公園","Jusho":"石川県金沢市松島3丁目179番地","kouzui":"×","gake":"○","takashio":"×","jishin":"○","tsunami":"○","kaji":"×","naisui":"×","kazan":"×"}}
,{"type":"Feature","geometry":{"type":"Point","coordinates":[136.602,36.564]},"properties":{"Name":"松島町中央公園","Jusho":"石川県金沢市松島2丁目165番地","kouzui":"×","gake":"○","takashio":"×","jishin":"○","tsunami":"○","kaji":"×","naisui":"×","kazan":"×"}}
,{"type":"Feature","geometry":{"type":"Point","coordinates":[136.602,36.576]},"properties":{"Name":"西部緑地公園","Jusho":"石川県金沢市袋畠町南193番地","kouzui":"×","gake":"○","takashio":"×","jishin":"○","tsunami":"○","kaji":"×","naisui":"×","kazan":"×"}}
,{"type":"Feature","geometry":{"type":"Point","coordinates":[136.581,36.582]},"properties":{"Name":"専光寺五本松公園","Jusho":"石川県金沢市専光寺町そ94番地","kouzui":"○","gake":"○","takashio":"×","jishin":"○","tsunami":"○","kaji":"×","naisui":"×","kazan":"×"}}
,{"type":"Feature","geometry":{"type":"Point","coordinates":[136.579,36.567]},"properties":{"Name":"金沢市立安原小学校","Jusho":"石川県金沢市福増町北1087番地","kouzui":"○","gake":"○","takashio":"×","jishin":"○","tsunami":"○","kaji":"×","naisui":"×","kazan":"×"}}
,{"type":"Feature","geometry":{"type":"Point","coordinates":[136.591,36.57]},"properties":{"Name":"金沢市立緑小学校","Jusho":"石川県金沢市みどり1丁目166番地","kouzui":"○","gake":"○","takashio":"×","jishin":"○","tsunami":"○","kaji":"×","naisui":"×","kazan":"×"}}
,{"type":"Feature","geometry":{"type":"Point","coordinates":[136.586,36.566]},"properties":{"Name":"金沢龍谷高等学校","Jusho":"石川県金沢市上安原町169番地1","kouzui":"○","gake":"○","takashio":"×","jishin":"○","tsunami":"○","kaji":"×","naisui":"×","kazan":"×"}}
,{"type":"Feature","geometry":{"type":"Point","coordinates":[136.584,36.571]},"properties":{"Name":"金沢市立緑中学校","Jusho":"石川県金沢市みどり2丁目3番地","kouzui":"○","gake":"○","takashio":"×","jishin":"○","tsunami":"○","kaji":"×","naisui":"×","kazan":"×"}}
,{"type":"Feature","geometry":{"type":"Point","coordinates":[136.574,36.57]},"properties":{"Name":"安原スポーツ広場","Jusho":"石川県金沢市下安原町東1127番地","kouzui":"○","gake":"○","takashio":"×","jishin":"○","tsunami":"○","kaji":"×","naisui":"×","kazan":"×"}}
,{"type":"Feature","geometry":{"type":"Point","coordinates":[136.58,36.568]},"properties":{"Name":"金沢市安原公民館","Jusho":"石川県金沢市福増町北1067番地","kouzui":"○","gake":"○","takashio":"×","jishin":"○","tsunami":"○","kaji":"×","naisui":"×","kazan":"×"}}
,{"type":"Feature","geometry":{"type":"Point","coordinates":[136.591,36.569]},"properties":{"Name":"みどり第２児童公園","Jusho":"石川県金沢市みどり1丁目172番地","kouzui":"○","gake":"○","takashio":"×","jishin":"○","tsunami":"○","kaji":"×","naisui":"×","kazan":"×"}}
,{"type":"Feature","geometry":{"type":"Point","coordinates":[136.585,36.568]},"properties":{"Name":"みどり中央公園","Jusho":"石川県金沢市みどり2丁目58番地1","kouzui":"○","gake":"○","takashio":"×","jishin":"○","tsunami":"○","kaji":"×","naisui":"×","kazan":"×"}}
,{"type":"Feature","geometry":{"type":"Point","coordinates":[136.584,36.567]},"properties":{"Name":"みどり庭園公園","Jusho":"石川県金沢市みどり3丁目22番地ほか","kouzui":"○","gake":"○","takashio":"×","jishin":"○","tsunami":"○","kaji":"×","naisui":"×","kazan":"×"}}
,{"type":"Feature","geometry":{"type":"Point","coordinates":[136.577,36.566]},"properties":{"Name":"安原中央公園","Jusho":"石川県金沢市福増町北744番地ほか","kouzui":"×","gake":"○","takashio":"×","jishin":"○","tsunami":"○","kaji":"×","naisui":"×","kazan":"×"}}
,{"type":"Feature","geometry":{"type":"Point","coordinates":[136.586,36.563]},"properties":{"Name":"産王の杜公園","Jusho":"石川県金沢市中屋1丁目177番地","kouzui":"×","gake":"○","takashio":"×","jishin":"○","tsunami":"○","kaji":"×","naisui":"×","kazan":"×"}}
,{"type":"Feature","geometry":{"type":"Point","coordinates":[136.591,36.565]},"properties":{"Name":"上安原中央公園","Jusho":"石川県金沢市上安原1丁目262番地","kouzui":"○","gake":"○","takashio":"×","jishin":"○","tsunami":"○","kaji":"×","naisui":"×","kazan":"×"}}
,{"type":"Feature","geometry":{"type":"Point","coordinates":[136.57,36.568]},"properties":{"Name":"打木町くろまつ公園","Jusho":"石川県金沢市打木町東1452番地","kouzui":"×","gake":"○","takashio":"×","jishin":"○","tsunami":"○","kaji":"×","naisui":"×","kazan":"×"}}
,{"type":"Feature","geometry":{"type":"Point","coordinates":[136.572,36.569]},"properties":{"Name":"打木町東児童公園","Jusho":"石川県金沢市打木町東1301番地","kouzui":"×","gake":"○","takashio":"×","jishin":"○","tsunami":"○","kaji":"×","naisui":"×","kazan":"×"}}
,{"type":"Feature","geometry":{"type":"Point","coordinates":[136.587,36.563]},"properties":{"Name":"八洲原公園","Jusho":"石川県金沢市上安原町943番地","kouzui":"×","gake":"○","takashio":"×","jishin":"○","tsunami":"○","kaji":"×","naisui":"×","kazan":"×"}}
,{"type":"Feature","geometry":{"type":"Point","coordinates":[136.582,36.563]},"properties":{"Name":"福増あじさい公園","Jusho":"石川県金沢市福増町南1309番地","kouzui":"×","gake":"○","takashio":"×","jishin":"○","tsunami":"○","kaji":"×","naisui":"×","kazan":"×"}}
,{"type":"Feature","geometry":{"type":"Point","coordinates":[136.581,36.561]},"properties":{"Name":"福増ゆめ公園","Jusho":"石川県金沢市福増町南1310番地","kouzui":"○","gake":"○","takashio":"×","jishin":"○","tsunami":"○","kaji":"×","naisui":"×","kazan":"×"}}
,{"type":"Feature","geometry":{"type":"Point","coordinates":[136.61,36.591]},"properties":{"Name":"金沢市立大徳小学校","Jusho":"石川県金沢市松村6丁目200番地","kouzui":"○","gake":"○","takashio":"×","jishin":"○","tsunami":"○","kaji":"×","naisui":"×","kazan":"×"}}
,{"type":"Feature","geometry":{"type":"Point","coordinates":[136.604,36.598]},"properties":{"Name":"金沢市立木曳野小学校","Jusho":"石川県金沢市木曳野1丁目1番地","kouzui":"○","gake":"○","takashio":"×","jishin":"○","tsunami":"○","kaji":"×","naisui":"×","kazan":"×"}}
,{"type":"Feature","geometry":{"type":"Point","coordinates":[136.618,36.596]},"properties":{"Name":"石川県立金沢西高等学校","Jusho":"石川県金沢市畝田東3丁目526番地","kouzui":"○","gake":"○","takashio":"×","jishin":"○","tsunami":"○","kaji":"×","naisui":"×","kazan":"×"}}
,{"type":"Feature","geometry":{"type":"Point","coordinates":[136.616,36.592]},"properties":{"Name":"金沢市立工業高等学校","Jusho":"石川県金沢市畝田東1丁目1番地1","kouzui":"○","gake":"○","takashio":"×","jishin":"○","tsunami":"○","kaji":"×","naisui":"×","kazan":"×"}}
,{"type":"Feature","geometry":{"type":"Point","coordinates":[136.607,36.59]},"properties":{"Name":"金沢市立大徳中学校","Jusho":"石川県金沢市観音堂町ト35番地","kouzui":"○","gake":"○","takashio":"×","jishin":"○","tsunami":"○","kaji":"×","naisui":"×","kazan":"×"}}
,{"type":"Feature","geometry":{"type":"Point","coordinates":[136.603,36.598]},"properties":{"Name":"金沢市営城西市民体育館","Jusho":"石川県金沢市木曳野1丁目3番地","kouzui":"○","gake":"○","takashio":"×","jishin":"○","tsunami":"○","kaji":"×","naisui":"×","kazan":"×"}}
,{"type":"Feature","geometry":{"type":"Point","coordinates":[136.61,36.592]},"properties":{"Name":"金沢市大徳公民館","Jusho":"石川県金沢市畝田西1丁目201番地1","kouzui":"○","gake":"○","takashio":"×","jishin":"○","tsunami":"○","kaji":"×","naisui":"×","kazan":"×"}}
,{"type":"Feature","geometry":{"type":"Point","coordinates":[136.604,36.594]},"properties":{"Name":"金沢市立金沢海みらい図書館","Jusho":"石川県金沢市寺中町イ1番地1","kouzui":"○","gake":"○","takashio":"×","jishin":"○","tsunami":"○","kaji":"×","naisui":"×","kazan":"×"}}
,{"type":"Feature","geometry":{"type":"Point","coordinates":[136.604,36.602]},"properties":{"Name":"きびきの中央公園","Jusho":"石川県金沢市木曳野3丁目30番地","kouzui":"×","gake":"○","takashio":"×","jishin":"○","tsunami":"○","kaji":"×","naisui":"×","kazan":"×"}}
,{"type":"Feature","geometry":{"type":"Point","coordinates":[136.616,36.582]},"properties":{"Name":"松村あおぞら公園","Jusho":"石川県金沢市松村3丁目550番地","kouzui":"×","gake":"○","takashio":"×","jishin":"○","tsunami":"○","kaji":"×","naisui":"×","kazan":"×"}}
,{"type":"Feature","geometry":{"type":"Point","coordinates":[136.614,36.586]},"properties":{"Name":"松村第２公園","Jusho":"石川県金沢市松村2丁目29番地","kouzui":"×","gake":"○","takashio":"×","jishin":"○","tsunami":"○","kaji":"×","naisui":"×","kazan":"×"}}
,{"type":"Feature","geometry":{"type":"Point","coordinates":[136.614,36.595]},"properties":{"Name":"畝田町児童公園","Jusho":"石川県金沢市畝田東2丁目7番地ほか","kouzui":"×","gake":"○","takashio":"×","jishin":"○","tsunami":"○","kaji":"×","naisui":"×","kazan":"×"}}
,{"type":"Feature","geometry":{"type":"Point","coordinates":[136.62,36.592]},"properties":{"Name":"藤江北やすらぎ公園","Jusho":"石川県金沢市藤江北4丁目446番地","kouzui":"○","gake":"○","takashio":"×","jishin":"○","tsunami":"○","kaji":"×","naisui":"×","kazan":"×"}}
,{"type":"Feature","geometry":{"type":"Point","coordinates":[136.622,36.589]},"properties":{"Name":"藤江北中央公園","Jusho":"石川県金沢市藤江北2丁目337番地ほか","kouzui":"○","gake":"○","takashio":"×","jishin":"○","tsunami":"○","kaji":"×","naisui":"×","kazan":"×"}}
,{"type":"Feature","geometry":{"type":"Point","coordinates":[136.615,36.602]},"properties":{"Name":"無量寺うみかぜ公園","Jusho":"石川県金沢市無量寺町ハ201番地","kouzui":"×","gake":"○","takashio":"×","jishin":"○","tsunami":"○","kaji":"×","naisui":"×","kazan":"×"}}
,{"type":"Feature","geometry":{"type":"Point","coordinates":[136.613,36.6]},"properties":{"Name":"無量寺ベイパーク","Jusho":"石川県金沢市無量寺4丁目2番地","kouzui":"×","gake":"○","takashio":"×","jishin":"○","tsunami":"○","kaji":"×","naisui":"×","kazan":"×"}}
,{"type":"Feature","geometry":{"type":"Point","coordinates":[136.608,36.605]},"properties":{"Name":"無量寺公園","Jusho":"石川県金沢市無量寺3丁目14番地","kouzui":"×","gake":"○","takashio":"×","jishin":"○","tsunami":"○","kaji":"×","naisui":"×","kazan":"×"}}
,{"type":"Feature","geometry":{"type":"Point","coordinates":[136.599,36.609]},"properties":{"Name":"金沢市立金石町小学校","Jusho":"石川県金沢市金石北4丁目1番1号","kouzui":"○","gake":"○","takashio":"×","jishin":"○","tsunami":"○","kaji":"×","naisui":"×","kazan":"×"}}
,{"type":"Feature","geometry":{"type":"Point","coordinates":[136.597,36.6]},"properties":{"Name":"金沢市立金石中学校","Jusho":"石川県金沢市金石東1丁目13番1号","kouzui":"○","gake":"○","takashio":"×","jishin":"○","tsunami":"○","kaji":"×","naisui":"×","kazan":"×"}}
,{"type":"Feature","geometry":{"type":"Point","coordinates":[136.594,36.604]},"properties":{"Name":"金沢市金石町公民館","Jusho":"石川県金沢市金石通町３番14号","kouzui":"○","gake":"○","takashio":"×","jishin":"○","tsunami":"○","kaji":"×","naisui":"×","kazan":"×"}}
,{"type":"Feature","geometry":{"type":"Point","coordinates":[136.599,36.608]},"properties":{"Name":"金沢市老人福祉センター松寿荘","Jusho":"石川県金沢市金石北3丁目3番33号","kouzui":"○","gake":"○","takashio":"×","jishin":"○","tsunami":"○","kaji":"×","naisui":"×","kazan":"×"}}
,{"type":"Feature","geometry":{"type":"Point","coordinates":[136.597,36.608]},"properties":{"Name":"金石銭五公園","Jusho":"石川県金沢市金石北2丁目147番地","kouzui":"○","gake":"○","takashio":"×","jishin":"○","tsunami":"○","kaji":"×","naisui":"×","kazan":"×"}}
,{"type":"Feature","geometry":{"type":"Point","coordinates":[136.597,36.596]},"properties":{"Name":"大野湊緑地公園","Jusho":"石川県金沢市金石本町ロ55番地","kouzui":"×","gake":"○","takashio":"×","jishin":"○","tsunami":"○","kaji":"×","naisui":"×","kazan":"×"}}
,{"type":"Feature","geometry":{"type":"Point","coordinates":[136.603,36.61]},"properties":{"Name":"金沢市立大野町小学校","Jusho":"石川県金沢市大野町1丁目15番地","kouzui":"○","gake":"○","takashio":"×","jishin":"○","tsunami":"○","kaji":"×","naisui":"×","kazan":"×"}}
,{"type":"Feature","geometry":{"type":"Point","coordinates":[136.603,36.611]},"properties":{"Name":"金沢市大野町公民館","Jusho":"石川県金沢市大野町1丁目8番地5","kouzui":"○","gake":"○","takashio":"×","jishin":"○","tsunami":"○","kaji":"×","naisui":"×","kazan":"×"}}
,{"type":"Feature","geometry":{"type":"Point","coordinates":[136.678,36.552]},"properties":{"Name":"金沢市立小立野小学校","Jusho":"石川県金沢市小立野4丁目7番7号","kouzui":"○","gake":"○","takashio":"×","jishin":"○","tsunami":"○","kaji":"×","naisui":"×","kazan":"×"}}
,{"type":"Feature","geometry":{"type":"Point","coordinates":[136.679,36.553]},"properties":{"Name":"石川県立金沢商業高等学校","Jusho":"石川県金沢市小立野5丁目4番1号","kouzui":"○","gake":"○","takashio":"×","jishin":"○","tsunami":"○","kaji":"×","naisui":"×","kazan":"×"}}
,{"type":"Feature","geometry":{"type":"Point","coordinates":[136.669,36.558]},"properties":{"Name":"金沢市立紫錦台中学校","Jusho":"石川県金沢市飛梅町3番30号","kouzui":"○","gake":"○","takashio":"×","jishin":"○","tsunami":"○","kaji":"×","naisui":"×","kazan":"×"}}
,{"type":"Feature","geometry":{"type":"Point","coordinates":[136.667,36.559]},"properties":{"Name":"北陸学院高等学校","Jusho":"石川県金沢市飛梅町1番10号","kouzui":"○","gake":"○","takashio":"×","jishin":"○","tsunami":"○","kaji":"×","naisui":"×","kazan":"×"}}
,{"type":"Feature","geometry":{"type":"Point","coordinates":[136.677,36.555]},"properties":{"Name":"金沢大学（鶴間キャンパス）","Jusho":"石川県金沢市小立野5丁目11番80号","kouzui":"○","gake":"○","takashio":"×","jishin":"○","tsunami":"○","kaji":"×","naisui":"×","kazan":"×"}}
,{"type":"Feature","geometry":{"type":"Point","coordinates":[136.677,36.556]},"properties":{"Name":"金沢美術工芸大学","Jusho":"石川県金沢市小立野5丁目11番1号","kouzui":"○","gake":"○","takashio":"×","jishin":"×","tsunami":"○","kaji":"×","naisui":"×","kazan":"×"}}
,{"type":"Feature","geometry":{"type":"Point","coordinates":[136.679,36.551]},"properties":{"Name":"金沢市小立野公民館","Jusho":"石川県金沢市小立野4丁目7番51号","kouzui":"○","gake":"○","takashio":"×","jishin":"○","tsunami":"○","kaji":"×","naisui":"×","kazan":"×"}}
,{"type":"Feature","geometry":{"type":"Point","coordinates":[136.673,36.549]},"properties":{"Name":"笠舞第２児童公園","Jusho":"石川県金沢市笠舞1丁目414番地","kouzui":"○","gake":"○","takashio":"×","jishin":"○","tsunami":"○","kaji":"×","naisui":"×","kazan":"×"}}
,{"type":"Feature","geometry":{"type":"Point","coordinates":[136.675,36.548]},"properties":{"Name":"笠舞第３児童公園","Jusho":"石川県金沢市笠舞1丁目234番地","kouzui":"○","gake":"○","takashio":"×","jishin":"○","tsunami":"○","kaji":"×","naisui":"×","kazan":"×"}}
,{"type":"Feature","geometry":{"type":"Point","coordinates":[136.682,36.537]},"properties":{"Name":"金沢市立南小立野小学校","Jusho":"石川県金沢市涌波2丁目5番1号","kouzui":"○","gake":"○","takashio":"×","jishin":"○","tsunami":"○","kaji":"×","naisui":"×","kazan":"×"}}
,{"type":"Feature","geometry":{"type":"Point","coordinates":[136.68,36.547]},