var kagawa={"type":"FeatureCollection","name":"kagawa","features":[
{"type":"Feature","geometry":{"type":"Point","coordinates":[134.136,34.391]},"properties":{"Name":"庵治斎場","Jusho":"香川県高松市庵治町1391","kouzui":"○","gake":"○","takashio":"○","jishin":"○","tsunami":"○","kaji":"×","naisui":"○","kazan":"×"}}
,{"type":"Feature","geometry":{"type":"Point","coordinates":[134.121,34.368]},"properties":{"Name":"深間ふれあいセンター","Jusho":"香川県高松市庵治町6391-17","kouzui":"○","gake":"×","takashio":"○","jishin":"○","tsunami":"○","kaji":"×","naisui":"○","kazan":"×"}}
,{"type":"Feature","geometry":{"type":"Point","coordinates":[134.127,34.383]},"properties":{"Name":"庵治やすらぎ会館","Jusho":"香川県高松市庵治町6392-14","kouzui":"○","gake":"○","takashio":"○","jishin":"○","tsunami":"○","kaji":"×","naisui":"○","kazan":"×"}}
,{"type":"Feature","geometry":{"type":"Point","coordinates":[134.131,34.384]},"properties":{"Name":"庵治中学校","Jusho":"香川県高松市庵治町691-1","kouzui":"○","gake":"○","takashio":"○","jishin":"○","tsunami":"○","kaji":"○","naisui":"○","kazan":"×"}}
,{"type":"Feature","geometry":{"type":"Point","coordinates":[134.131,34.385]},"properties":{"Name":"庵治小学校","Jusho":"香川県高松市庵治町790-1","kouzui":"○","gake":"○","takashio":"○","jishin":"○","tsunami":"○","kaji":"○","naisui":"○","kazan":"×"}}
,{"type":"Feature","geometry":{"type":"Point","coordinates":[134.13,34.385]},"properties":{"Name":"庵治小学校第二体育館","Jusho":"香川県高松市庵治町866-4","kouzui":"○","gake":"○","takashio":"○","jishin":"○","tsunami":"○","kaji":"×","naisui":"○","kazan":"×"}}
,{"type":"Feature","geometry":{"type":"Point","coordinates":[134.13,34.385]},"properties":{"Name":"庵治コミュニティセンター・庵治武道館","Jusho":"香川県高松市庵治町888-1","kouzui":"○","gake":"○","takashio":"○","jishin":"○","tsunami":"○","kaji":"×","naisui":"○","kazan":"×"}}
,{"type":"Feature","geometry":{"type":"Point","coordinates":[134.024,34.293]},"properties":{"Name":"一宮中学校","Jusho":"香川県高松市一宮町1185-1","kouzui":"○","gake":"○","takashio":"○","jishin":"○","tsunami":"○","kaji":"○","naisui":"○","kazan":"×"}}
,{"type":"Feature","geometry":{"type":"Point","coordinates":[134.025,34.295]},"properties":{"Name":"一宮新池農村公園","Jusho":"香川県高松市一宮町1227","kouzui":"○","gake":"○","takashio":"○","jishin":"○","tsunami":"○","kaji":"×","naisui":"○","kazan":"×"}}
,{"type":"Feature","geometry":{"type":"Point","coordinates":[134.024,34.286]},"properties":{"Name":"高松南高等学校　（体育館）","Jusho":"香川県高松市一宮町531","kouzui":"○","gake":"○","takashio":"○","jishin":"○","tsunami":"○","kaji":"×","naisui":"○","kazan":"×"}}
,{"type":"Feature","geometry":{"type":"Point","coordinates":[134.024,34.291]},"properties":{"Name":"一宮小学校","Jusho":"香川県高松市一宮町672-1","kouzui":"○","gake":"○","takashio":"○","jishin":"○","tsunami":"○","kaji":"○","naisui":"○","kazan":"×"}}
,{"type":"Feature","geometry":{"type":"Point","coordinates":[134.029,34.291]},"properties":{"Name":"一宮コミュニティ　センター","Jusho":"香川県高松市一宮町838-1","kouzui":"○","gake":"○","takashio":"○","jishin":"○","tsunami":"○","kaji":"×","naisui":"○","kazan":"×"}}
,{"type":"Feature","geometry":{"type":"Point","coordinates":[134.006,34.285]},"properties":{"Name":"円座コミュニティ　センター","Jusho":"香川県高松市円座町1622-1","kouzui":"○","gake":"○","takashio":"○","jishin":"○","tsunami":"○","kaji":"×","naisui":"○","kazan":"×"}}
,{"type":"Feature","geometry":{"type":"Point","coordinates":[134.005,34.285]},"properties":{"Name":"円座小学校","Jusho":"香川県高松市円座町1630-2","kouzui":"○","gake":"○","takashio":"○","jishin":"○","tsunami":"○","kaji":"○","naisui":"○","kazan":"×"}}
,{"type":"Feature","geometry":{"type":"Point","coordinates":[134.01,34.295]},"properties":{"Name":"香東中学校","Jusho":"香川県高松市円座町771","kouzui":"○","gake":"○","takashio":"○","jishin":"○","tsunami":"○","kaji":"○","naisui":"○","kazan":"×"}}
,{"type":"Feature","geometry":{"type":"Point","coordinates":[134.041,34.196]},"properties":{"Name":"塩江コミュニティ　センター","Jusho":"香川県高松市塩江町安原下第2-1645","kouzui":"○","gake":"×","takashio":"○","jishin":"○","tsunami":"○","kaji":"×","naisui":"○","kazan":"×"}}
,{"type":"Feature","geometry":{"type":"Point","coordinates":[134.041,34.198]},"properties":{"Name":"安原小学校跡施設","Jusho":"香川県高松市塩江町安原下第2-1684","kouzui":"○","gake":"×","takashio":"○","jishin":"○","tsunami":"○","kaji":"○","naisui":"○","kazan":"×"}}
,{"type":"Feature","geometry":{"type":"Point","coordinates":[134.025,34.156]},"properties":{"Name":"安原小学校　戸石分校跡施設","Jusho":"香川県高松市塩江町安原下第2-857","kouzui":"○","gake":"×","takashio":"○","jishin":"○","tsunami":"○","kaji":"×","naisui":"○","kazan":"×"}}
,{"type":"Feature","geometry":{"type":"Point","coordinates":[134.074,34.182]},"properties":{"Name":"塩江小・中学校","Jusho":"香川県高松市塩江町安原上231","kouzui":"○","gake":"○","takashio":"○","jishin":"○","tsunami":"○","kaji":"○","naisui":"○","kazan":"×"}}
,{"type":"Feature","geometry":{"type":"Point","coordinates":[134.084,34.17]},"properties":{"Name":"塩江小学校跡施設","Jusho":"香川県高松市塩江町安原上東365","kouzui":"○","gake":"×","takashio":"○","jishin":"○","tsunami":"○","kaji":"○","naisui":"○","kazan":"×"}}
,{"type":"Feature","geometry":{"type":"Point","coordinates":[134.083,34.17]},"properties":{"Name":"塩江支所　塩江連絡事務所","Jusho":"香川県高松市塩江町安原上東394-2","kouzui":"○","gake":"○","takashio":"○","jishin":"○","tsunami":"○","kaji":"×","naisui":"○","kazan":"×"}}
,{"type":"Feature","geometry":{"type":"Point","coordinates":[134.099,34.162]},"properties":{"Name":"椛川集会所","Jusho":"香川県高松市塩江町安原上東字椛川2173-8","kouzui":"○","gake":"○","takashio":"○","jishin":"○","tsunami":"○","kaji":"×","naisui":"○","kazan":"×"}}
,{"type":"Feature","geometry":{"type":"Point","coordinates":[134.077,34.152]},"properties":{"Name":"上西小学校跡施設","Jusho":"香川県高松市塩江町上西乙461","kouzui":"○","gake":"○","takashio":"○","jishin":"○","tsunami":"○","kaji":"○","naisui":"○","kazan":"×"}}
,{"type":"Feature","geometry":{"type":"Point","coordinates":[134.077,34.151]},"properties":{"Name":"塩江支所　上西連絡事務所","Jusho":"香川県高松市塩江町上西乙549","kouzui":"○","gake":"○","takashio":"○","jishin":"○","tsunami":"○","kaji":"×","naisui":"○","kazan":"×"}}
,{"type":"Feature","geometry":{"type":"Point","coordinates":[134.074,34.126]},"properties":{"Name":"西山ふれあいセンター","Jusho":"香川県高松市塩江町上西甲947-3","kouzui":"○","gake":"×","takashio":"○","jishin":"○","tsunami":"○","kaji":"×","naisui":"○","kazan":"×"}}
,{"type":"Feature","geometry":{"type":"Point","coordinates":[134.099,34.348]},"properties":{"Name":"屋島小学校","Jusho":"香川県高松市屋島西町1205-1","kouzui":"○","gake":"×","takashio":"○","jishin":"○","tsunami":"○","kaji":"○","naisui":"○","kazan":"×"}}
,{"type":"Feature","geometry":{"type":"Point","coordinates":[134.09,34.351]},"properties":{"Name":"屋島西小学校","Jusho":"香川県高松市屋島西町2469","kouzui":"○","gake":"○","takashio":"○","jishin":"○","tsunami":"○","kaji":"○","naisui":"○","kazan":"×"}}
,{"type":"Feature","geometry":{"type":"Point","coordinates":[134.089,34.352]},"properties":{"Name":"屋島西コミュニティ　センター","Jusho":"香川県高松市屋島西町2483-2","kouzui":"○","gake":"○","takashio":"○","jishin":"○","tsunami":"○","kaji":"×","naisui":"○","kazan":"×"}}
,{"type":"Feature","geometry":{"type":"Point","coordinates":[134.105,34.341]},"properties":{"Name":"屋島中学校","Jusho":"香川県高松市屋島中町295","kouzui":"○","gake":"○","takashio":"○","jishin":"○","tsunami":"○","kaji":"○","naisui":"○","kazan":"×"}}
,{"type":"Feature","geometry":{"type":"Point","coordinates":[134.101,34.344]},"properties":{"Name":"屋島コミュニティ　センター","Jusho":"香川県高松市屋島中町449-1","kouzui":"○","gake":"○","takashio":"○","jishin":"○","tsunami":"○","kaji":"×","naisui":"○","kazan":"×"}}
,{"type":"Feature","geometry":{"type":"Point","coordinates":[134.116,34.355]},"properties":{"Name":"屋島東コミュニティ　センター","Jusho":"香川県高松市屋島東町928","kouzui":"○","gake":"○","takashio":"○","jishin":"○","tsunami":"○","kaji":"×","naisui":"○","kazan":"×"}}
,{"type":"Feature","geometry":{"type":"Point","coordinates":[134.116,34.354]},"properties":{"Name":"屋島東小学校","Jusho":"香川県高松市屋島東町942-1","kouzui":"○","gake":"○","takashio":"○","jishin":"○","tsunami":"○","kaji":"○","naisui":"○","kazan":"×"}}
,{"type":"Feature","geometry":{"type":"Point","coordinates":[134.058,34.334]},"properties":{"Name":"花園小学校","Jusho":"香川県高松市花園町2-7-7","kouzui":"○","gake":"○","takashio":"○","jishin":"○","tsunami":"○","kaji":"○","naisui":"○","kazan":"×"}}
,{"type":"Feature","geometry":{"type":"Point","coordinates":[134.057,34.336]},"properties":{"Name":"花園コミュニティ　センター","Jusho":"香川県高松市観光通2-8-9","kouzui":"○","gake":"○","takashio":"○","jishin":"○","tsunami":"○","kaji":"×","naisui":"○","kazan":"×"}}
,{"type":"Feature","geometry":{"type":"Point","coordinates":[133.993,34.327]},"properties":{"Name":"鬼無コミュニティ　センター","Jusho":"香川県高松市鬼無町佐藤31-3","kouzui":"○","gake":"○","takashio":"○","jishin":"○","tsunami":"○","kaji":"×","naisui":"○","kazan":"×"}}
,{"type":"Feature","geometry":{"type":"Point","coordinates":[133.989,34.327]},"properties":{"Name":"鬼無小学校","Jusho":"香川県高松市鬼無町佐藤607-1","kouzui":"○","gake":"○","takashio":"○","jishin":"○","tsunami":"○","kaji":"○","naisui":"○","kazan":"×"}}
,{"type":"Feature","geometry":{"type":"Point","coordinates":[134.04,34.338]},"properties":{"Name":"亀阜小学校","Jusho":"香川県高松市亀岡町10-1","kouzui":"○","gake":"○","takashio":"○","jishin":"○","tsunami":"○","kaji":"○","naisui":"○","kazan":"×"}}
,{"type":"Feature","geometry":{"type":"Point","coordinates":[134.035,34.34]},"properties":{"Name":"亀阜コミュニティ　センター","Jusho":"香川県高松市宮脇町1-6-18","kouzui":"○","gake":"○","takashio":"○","jishin":"○","tsunami":"○","kaji":"×","naisui":"○","kazan":"×"}}
,{"type":"Feature","geometry":{"type":"Point","coordinates":[134.051,34.349]},"properties":{"Name":"玉藻公園","Jusho":"香川県高松市玉藻町2-1","kouzui":"○","gake":"○","takashio":"×","jishin":"○","tsunami":"×","kaji":"×","naisui":"○","kazan":"×"}}
,{"type":"Feature","geometry":{"type":"Point","coordinates":[134.041,34.346]},"properties":{"Name":"新番丁小学校","Jusho":"香川県高松市錦町2-14-1","kouzui":"○","gake":"○","takashio":"○","jishin":"○","tsunami":"○","kaji":"○","naisui":"○","kazan":"×"}}
,{"type":"Feature","geometry":{"type":"Point","coordinates":[134.05,34.331]},"properties":{"Name":"栗林小学校","Jusho":"香川県高松市栗林町2-10-7","kouzui":"○","gake":"○","takashio":"○","jishin":"○","tsunami":"○","kaji":"○","naisui":"○","kazan":"×"}}
,{"type":"Feature","geometry":{"type":"Point","coordinates":[134.048,34.329]},"properties":{"Name":"栗林コミュニティ　センター","Jusho":"香川県高松市栗林町3-2-12","kouzui":"○","gake":"○","takashio":"○","jishin":"○","tsunami":"○","kaji":"×","naisui":"○","kazan":"×"}}
,{"type":"Feature","geometry":{"type":"Point","coordinates":[134.089,34.307]},"properties":{"Name":"川添コミュニティ　センター","Jusho":"香川県高松市元山町136-4","kouzui":"○","gake":"○","takashio":"○","jishin":"○","tsunami":"○","kaji":"×","naisui":"○","kazan":"×"}}
,{"type":"Feature","geometry":{"type":"Point","coordinates":[134.086,34.307]},"properties":{"Name":"協和中学校","Jusho":"香川県高松市元山町88-2","kouzui":"○","gake":"○","takashio":"○","jishin":"○","tsunami":"○","kaji":"○","naisui":"○","kazan":"×"}}
,{"type":"Feature","geometry":{"type":"Point","coordinates":[133.995,34.301]},"properties":{"Name":"檀紙コミュニティ　センター","Jusho":"香川県高松市御厩町775-1","kouzui":"○","gake":"○","takashio":"○","jishin":"○","tsunami":"○","kaji":"×","naisui":"○","kazan":"×"}}
,{"type":"Feature","geometry":{"type":"Point","coordinates":[133.994,34.3]},"properties":{"Name":"檀紙小学校","Jusho":"香川県高松市御厩町816","kouzui":"○","gake":"○","takashio":"○","jishin":"○","tsunami":"○","kaji":"○","naisui":"○","kazan":"×"}}
,{"type":"Feature","geometry":{"type":"Point","coordinates":[134.037,34.34]},"properties":{"Name":"香川大学　（経済学部構内体育館）","Jusho":"香川県高松市幸町1-1","kouzui":"○","gake":"○","takashio":"○","jishin":"○","tsunami":"○","kaji":"×","naisui":"○","kazan":"×"}}
,{"type":"Feature","geometry":{"type":"Point","coordinates":[133.999,34.343]},"properties":{"Name":"勝賀中学校","Jusho":"香川県高松市香西南町565","kouzui":"○","gake":"○","takashio":"○","jishin":"○","tsunami":"○","kaji":"○","naisui":"○","kazan":"×"}}
,{"type":"Feature","geometry":{"type":"Point","coordinates":[133.999,34.345]},"properties":{"Name":"香西小学校","Jusho":"香川県高松市香西南町703-1","kouzui":"○","gake":"○","takashio":"○","jishin":"○","tsunami":"○","kaji":"○","naisui":"○","kazan":"×"}}
,{"type":"Feature","geometry":{"type":"Point","coordinates":[133.996,34.347]},"properties":{"Name":"香西コミュニティ　センター","Jusho":"香川県高松市香西本町476-1","kouzui":"○","gake":"○","takashio":"○","jishin":"○","tsunami":"○","kaji":"×","naisui":"○","kazan":"×"}}
,{"type":"Feature","geometry":{"type":"Point","coordinates":[134.031,34.212]},"properties":{"Name":"香川町多目的研修集会施設","Jusho":"香川県高松市香川町安原下第３号194-1","kouzui":"○","gake":"×","takashio":"○","jishin":"○","tsunami":"○","kaji":"×","naisui":"○","kazan":"×"}}
,{"type":"Feature","geometry":{"type":"Point","coordinates":[134.029,34.255]},"properties":{"Name":"香川総合体育館","Jusho":"香川県高松市香川町川東下1917-1","kouzui":"○","gake":"○","takashio":"○","jishin":"○","tsunami":"○","kaji":"×","naisui":"○","kazan":"×"}}
,{"type":"Feature","geometry":{"type":"Point","coordinates":[134.034,34.241]},"properties":{"Name":"川東コミュニティ　センター","Jusho":"香川県高松市香川町川東上1865-13","kouzui":"○","gake":"○","takashio":"○","jishin":"○","tsunami":"○","kaji":"×","naisui":"○","kazan":"×"}}
,{"type":"Feature","geometry":{"type":"Point","coordinates":[134.035,34.241]},"properties":{"Name":"川東小学校","Jusho":"香川県高松市香川町川東上1865-8","kouzui":"○","gake":"○","takashio":"○","jishin":"○","tsunami":"○","kaji":"○","naisui":"○","kazan":"×"}}
,{"type":"Feature","geometry":{"type":"Point","coordinates":[134.038,34.227]},"properties":{"Name":"香川町グリーン　センター","Jusho":"香川県高松市香川町川東上604-85","kouzui":"○","gake":"×","takashio":"○","jishin":"○","tsunami":"○","kaji":"×","naisui":"○","kazan":"×"}}
,{"type":"Feature","geometry":{"type":"Point","coordinates":[134.032,34.253]},"properties":{"Name":"香川第一中学校","Jusho":"香川県高松市香川町浅野1188","kouzui":"○","gake":"○","takashio":"○","jishin":"○","tsunami":"○","kaji":"○","naisui":"○","kazan":"×"}}
,{"type":"Feature","geometry":{"type":"Point","coordinates":[134.041,34.259]},"properties":{"Name":"浅野小学校","Jusho":"香川県高松市香川町浅野3088","kouzui":"○","gake":"○","takashio":"○","jishin":"○","tsunami":"○","kaji":"○","naisui":"○","kazan":"×"}}
,{"type":"Feature","geometry":{"type":"Point","coordinates":[134.036,34.257]},"properties":{"Name":"浅野コミュニティ　センター","Jusho":"香川県高松市香川町浅野826-2","kouzui":"○","gake":"○","takashio":"○","jishin":"○","tsunami":"○","kaji":"×","naisui":"○","kazan":"×"}}
,{"type":"Feature","geometry":{"type":"Point","coordinates":[134.027,34.267]},"properties":{"Name":"大野小学校","Jusho":"香川県高松市香川町大野1045-1","kouzui":"○","gake":"○","takashio":"○","jishin":"○","tsunami":"○","kaji":"○","naisui":"○","kazan":"×"}}
,{"type":"Feature","geometry":{"type":"Point","coordinates":[134.025,34.267]},"properties":{"Name":"大野コミュニティ　センター","Jusho":"香川県高松市香川町大野1329-1","kouzui":"○","gake":"○","takashio":"○","jishin":"○","tsunami":"○","kaji":"×","naisui":"○","kazan":"×"}}
,{"type":"Feature","geometry":{"type":"Point","coordinates":[134.05,34.217]},"properties":{"Name":"香川町高齢者活動促進　センター","Jusho":"香川県高松市香川町東谷159-1","kouzui":"○","gake":"○","takashio":"○","jishin":"○","tsunami":"○","kaji":"×","naisui":"○","kazan":"×"}}
,{"type":"Feature","geometry":{"type":"Point","coordinates":[134.062,34.205]},"properties":{"Name":"東谷コミュニティ　センター","Jusho":"香川県高松市香川町東谷873-3","kouzui":"○","gake":"×","takashio":"○","jishin":"○","tsunami":"○","kaji":"×","naisui":"○","kazan":"×"}}
,{"type":"Feature","geometry":{"type":"Point","coordinates":[134.009,34.242]},"properties":{"Name":"香南小学校","Jusho":"香川県高松市香南町横井1008","kouzui":"○","gake":"○","takashio":"○","jishin":"○","tsunami":"○","kaji":"○","naisui":"○","kazan":"×"}}
,{"type":"Feature","geometry":{"type":"Point","coordinates":[134.007,34.242]},"properties":{"Name":"月見ヶ原公園","Jusho":"香川県高松市香南町横井796-1","kouzui":"○","gake":"○","takashio":"○","jishin":"○","tsunami":"○","kaji":"○","naisui":"○","kazan":"×"}}
,{"type":"Feature","geometry":{"type":"Point","coordinates":[134.009,34.243]},"properties":{"Name":"香南中学校","Jusho":"香川県高松市香南町横井801","kouzui":"○","gake":"○","takashio":"○","jishin":"○","tsunami":"○","kaji":"○","naisui":"○","kazan":"×"}}
,{"type":"Feature","geometry":{"type":"Point","coordinates":[134,34.245]},"properties":{"Name":"池西農村環境改善　センター","Jusho":"香川県高松市香南町池内522-1","kouzui":"○","gake":"○","takashio":"○","jishin":"○","tsunami":"○","kaji":"×","naisui":"○","kazan":"×"}}
,{"type":"Feature","geometry":{"type":"Point","coordinates":[134.013,34.24]},"properties":{"Name":"香南コミュニティ　センター","Jusho":"香川県高松市香南町由佐1172","kouzui":"○","gake":"○","takashio":"○","jishin":"○","tsunami":"○","kaji":"×","naisui":"○","kazan":"×"}}
,{"type":"Feature","geometry":{"type":"Point","coordinates":[134.019,34.24]},"properties":{"Name":"由佐農村環境改善　センター","Jusho":"香川県高松市香南町由佐357-2","kouzui":"○","gake":"○","takashio":"○","jishin":"○","tsunami":"○","kaji":"×","naisui":"○","kazan":"×"}}
,{"type":"Feature","geometry":{"type":"Point","coordinates":[134.107,34.336]},"properties":{"Name":"古高松コミュニティ　センター","Jusho":"香川県高松市高松町10-20","kouzui":"○","gake":"○","takashio":"×","jishin":"○","tsunami":"○","kaji":"×","naisui":"×","kazan":"×"}}
,{"type":"Feature","geometry":{"type":"Point","coordinates":[134.115,34.331]},"properties":{"Name":"菱の池公園","Jusho":"香川県高松市高松町1211-28","kouzui":"○","gake":"○","takashio":"○","jishin":"○","tsunami":"○","kaji":"×","naisui":"○","kazan":"×"}}
,{"type":"Feature","geometry":{"type":"Point","coordinates":[134.122,34.329]},"properties":{"Name":"東部運動公園","Jusho":"香川県高松市高松町1347-1","kouzui":"○","gake":"○","takashio":"○","jishin":"○","tsunami":"○","kaji":"○","naisui":"○","kazan":"×"}}
,{"type":"Feature","geometry":{"type":"Point","coordinates":[134.107,34.332]},"properties":{"Name":"古高松小学校","Jusho":"香川県高松市高松町398","kouzui":"○","gake":"○","takashio":"○","jishin":"○","tsunami":"○","kaji":"○","naisui":"○","kazan":"×"}}
,{"type":"Feature","geometry":{"type":"Point","coordinates":[133.942,34.299]},"properties":{"Name":"香川県青年センター","Jusho":"香川県高松市国分寺町国分1009","kouzui":"○","gake":"○","takashio":"○","jishin":"○","tsunami":"○","kaji":"×","naisui":"○","kazan":"×"}}
,{"type":"Feature","geometry":{"type":"Point","coordinates":[133.946,34.303]},"properties":{"Name":"国分児童館","Jusho":"香川県高松市国分寺町国分2150-7","kouzui":"○","gake":"○","takashio":"○","jishin":"○","tsunami":"○","kaji":"×","naisui":"○","kazan":"×"}}
,{"type":"Feature","geometry":{"type":"Point","coordinates":[133.952,34.308]},"properties":{"Name":"如意輪寺公園","Jusho":"香川県高松市国分寺町国分2530-2","kouzui":"○","gake":"○","takashio":"○","jishin":"○","tsunami":"○","kaji":"×","naisui":"○","kazan":"×"}}
,{"type":"Feature","geometry":{"type":"Point","coordinates":[133.958,34.3]},"properties":{"Name":"新居児童館","Jusho":"香川県高松市国分寺町国分78-1","kouzui":"○","gake":"○","takashio":"○","jishin":"○","tsunami":"○","kaji":"×","naisui":"×","kazan":"×"}}
,{"type":"Feature","geometry":{"type":"Point","coordinates":[133.965,34.297]},"properties":{"Name":"国分寺中学校","Jusho":"香川県高松市国分寺町新居1131-1","kouzui":"○","gake":"○","takashio":"○","jishin":"○","tsunami":"○","kaji":"○","naisui":"○","kazan":"×"}}
,{"type":"Feature","geometry":{"type":"Point","coordinates":[133.965,34.297]},"properties":{"Name":"国分寺中学校　第二体育館","Jusho":"香川県高松市国分寺町新居1155-7","kouzui":"○","gake":"○","takashio":"○","jishin":"○","tsunami":"○","kaji":"×","naisui":"○","kazan":"×"}}
,{"type":"Feature","geometry":{"type":"Point","coordinates":[133.959,34.3]},"properties":{"Name":"国分寺文化センター","Jusho":"香川県高松市国分寺町新居1423-1","kouzui":"○","gake":"○","takashio":"○","jishin":"○","tsunami":"○","kaji":"×","naisui":"×","kazan":"×"}}
,{"type":"Feature","geometry":{"type":"Point","coordinates":[133.962,34.305]},"properties":{"Name":"国分寺北部コミュニティセンター","Jusho":"香川県高松市国分寺町新居1840-6","kouzui":"○","gake":"○","takashio":"○","jishin":"○","tsunami":"○","kaji":"×","naisui":"○","kazan":"×"}}
,{"type":"Feature","geometry":{"type":"Point","coordinates":[133.964,34.306]},"properties":{"Name":"国分寺北部小学校","Jusho":"香川県高松市国分寺町新居1880","kouzui":"○","gake":"○","takashio":"○","jishin":"○","tsunami":"○","kaji":"○","naisui":"○","kazan":"×"}}
,{"type":"Feature","geometry":{"type":"Point","coordinates":[133.972,34.308]},"properties":{"Name":"新居東児童館","Jusho":"香川県高松市国分寺町新居3371-1","kouzui":"○","gake":"○","takashio":"○","jishin":"○","tsunami":"○","kaji":"×","naisui":"○","kazan":"×"}}
,{"type":"Feature","geometry":{"type":"Point","coordinates":[133.953,34.274]},"properties":{"Name":"橘ノ丘公園","Jusho":"香川県高松市国分寺町新名2069-1","kouzui":"○","gake":"×","takashio":"○","jishin":"○","tsunami":"○","kaji":"○","naisui":"○","kazan":"×"}}
,{"type":"Feature","geometry":{"type":"Point","coordinates":[133.96,34.297]},"properties":{"Name":"国分寺会館","Jusho":"香川県高松市国分寺町新名430-2","kouzui":"○","gake":"○","takashio":"○","jishin":"○","tsunami":"○","kaji":"×","naisui":"○","kazan":"×"}}
,{"type":"Feature","geometry":{"type":"Point","coordinates":[133.955,34.29]},"properties":{"Name":"香川県営住宅　国分寺団地集会場","Jusho":"香川県高松市国分寺町柏原41","kouzui":"○","gake":"○","takashio":"○","jishin":"×","tsunami":"○","kaji":"×","naisui":"○","kazan":"×"}}
,{"type":"Feature","geometry":{"type":"Point","coordinates":[133.973,34.274]},"properties":{"Name":"福家児童館","Jusho":"香川県高松市国分寺町福家甲1951-1","kouzui":"○","gake":"○","takashio":"○","jishin":"○","tsunami":"○","kaji":"×","naisui":"○","kazan":"×"}}
,{"type":"Feature","geometry":{"type":"Point","coordinates":[133.962,34.284]},"properties":{"Name":"国分寺南部小学校","Jusho":"香川県高松市国分寺町福家甲3005","kouzui":"○","gake":"○","takashio":"○","jishin":"○","tsunami":"○","kaji":"○","naisui":"○","kazan":"×"}}
,{"type":"Feature","geometry":{"type":"Point","coordinates":[133.961,34.283]},"properties":{"Name":"国分寺勤労青少年　ホーム","Jusho":"香川県高松市国分寺町福家甲3005","kouzui":"○","gake":"○","takashio":"○","jishin":"○","tsunami":"○","kaji":"×","naisui":"○","kazan":"×"}}
,{"type":"Feature","geometry":{"type":"Point","coordinates":[133.961,34.284]},"properties":{"Name":"国分寺南部コミュニティセンター","Jusho":"香川県高松市国分寺町福家甲3106-3","kouzui":"○","gake":"○","takashio":"○","jishin":"○","tsunami":"○","kaji":"×","naisui":"○","kazan":"×"}}
,{"type":"Feature","geometry":{"type":"Point","coordinates":[134.059,34.325]},"properties":{"Name":"今里中央公園","Jusho":"香川県高松市今里町1-20","kouzui":"○","gake":"○","takashio":"○","jishin":"○","tsunami":"×","kaji":"○","naisui":"○","kazan":"×"}}
,{"type":"Feature","geometry":{"type":"Point","coordinates":[134.052,34.327]},"properties":{"Name":"桜町中学校","Jusho":"香川県高松市桜町2-12-4","kouzui":"○","gake":"○","takashio":"○","jishin":"○","tsunami":"○","kaji":"○","naisui":"○","kazan":"×"}}
,{"type":"Feature","geometry":{"type":"Point","coordinates":[134.052,34.328]},"properties":{"Name":"高松第一高校","Jusho":"香川県高松市桜町2-5-10","kouzui":"○","gake":"○","takashio":"○","jishin":"○","tsunami":"○","kaji":"○","naisui":"○","kazan":"×"}}
,{"type":"Feature","geometry":{"type":"Point","coordinates":[134.069,34.278]},"properties":{"Name":"三谷コミュニティ　センター","Jusho":"香川県高松市三谷町1201-1","kouzui":"○","gake":"○","takashio":"○","jishin":"○","tsunami":"○","kaji":"×","naisui":"○","kazan":"×"}}
,{"type":"Feature","geometry":{"type":"Point","coordinates":[134.069,34.274]},"properties":{"Name":"三渓小学校","Jusho":"香川県高松市三谷町2173-1","kouzui":"○","gake":"○","takashio":"○","jishin":"○","tsunami":"○","kaji":"○","naisui":"○","kazan":"×"}}
,{"type":"Feature","geometry":{"type":"Point","coordinates":[134.038,34.285]},"properties":{"Name":"香川県農業共済組合","Jusho":"香川県高松市三名町5-6","kouzui":"○","gake":"○","takashio":"○","jishin":"○","tsunami":"○","kaji":"×","naisui":"○","kazan":"×"}}
,{"type":"Feature","geometry":{"type":"Point","coordinates":[134.033,34.341]},"properties":{"Name":"紫雲中学校","Jusho":"香川県高松市紫雲町8-25","kouzui":"○","gake":"○","takashio":"○","jishin":"○","tsunami":"○","kaji":"○","naisui":"○","kazan":"×"}}
,{"type":"Feature","geometry":{"type":"Point","coordinates":[134.032,34.299]},"properties":{"Name":"香川大学附属中学校　（体育館）","Jusho":"香川県高松市鹿角町394","kouzui":"○","gake":"○","takashio":"○","jishin":"○","tsunami":"○","kaji":"×","naisui":"○","kazan":"×"}}
,{"type":"Feature","geometry":{"type":"Point","coordinates":[134.105,34.274]},"properties":{"Name":"十河コミュニティセンター","Jusho":"香川県高松市十川西町299-1","kouzui":"○","gake":"○","takashio":"○","jishin":"○","tsunami":"○","kaji":"×","naisui":"○","kazan":"×"}}
,{"type":"Feature","geometry":{"type":"Point","coordinates":[134.103,34.275]},"properties":{"Name":"十河小学校","Jusho":"香川県高松市十川西町366-5","kouzui":"○","gake":"○","takashio":"○","jishin":"○","tsunami":"○","kaji":"○","naisui":"○","kazan":"×"}}
,{"type":"Feature","geometry":{"type":"Point","coordinates":[134.051,34.283]},"properties":{"Name":"龍雲中学校","Jusho":"香川県高松市出作町331-2","kouzui":"○","gake":"○","takashio":"○","jishin":"○","tsunami":"○","kaji":"○","naisui":"○","kazan":"×"}}
,{"type":"Feature","geometry":{"type":"Point","coordinates":[134.092,34.327]},"properties":{"Name":"古高松南コミュニティ　センター","Jusho":"香川県高松市春日町782-2","kouzui":"○","gake":"○","takashio":"○","jishin":"○","tsunami":"○","kaji":"×","naisui":"○","kazan":"×"}}
,{"type":"Feature","geometry":{"type":"Point","coordinates":[134.052,34.392]},"properties":{"Name":"女木コミュニティ　センター","Jusho":"香川県高松市女木町203-1","kouzui":"○","gake":"○","takashio":"○","jishin":"○","tsunami":"○","kaji":"×","naisui":"○","kazan":"×"}}
,{"type":"Feature","geometry":{"type":"Point","coordinates":[134.053,34.392]},"properties":{"Name":"女木小学校","Jusho":"香川県高松市女木町236-2","kouzui":"○","gake":"○","takashio":"○","jishin":"○","tsunami":"○","kaji":"○","naisui":"○","kazan":"×"}}
,{"type":"Feature","geometry":{"type":"Point","coordinates":[134.06,34.338]},"properties":{"Name":"高松商業高等学校　（体育館）","Jusho":"香川県高松市松島町1-18-54","kouzui":"○","gake":"○","takashio":"○","jishin":"○","tsunami":"○","kaji":"×","naisui":"○","kazan":"×"}}
,{"type":"Feature","geometry":{"type":"Point","coordinates":[134.062,34.339]},"properties":{"Name":"高松第一学園（高松第一小・中学校）","Jusho":"香川県高松市松島町2-14-5","kouzui":"○","gake":"○","takashio":"○","jishin":"○","tsunami":"○","kaji":"○","naisui":"○","kazan":"×"}}
,{"type":"Feature","geometry":{"type":"Point","coordinates":[134.064,34.314]},"properties":{"Name":"太田中央コミュニティ　センター","Jusho":"香川県高松市松縄町1108-1","kouzui":"○","gake":"○","takashio":"○","jishin":"○","tsunami":"○","kaji":"×","naisui":"○","kazan":"×"}}
,{"type":"Feature","geometry":{"type":"Point","coordinates":[134.063,34.311]},"properties":{"Name":"中央小学校","Jusho":"香川県高松市松縄町1138","kouzui":"○","gake":"○","takashio":"○","jishin":"○","tsunami":"○","kaji":"○","naisui":"○","kazan":"×"}}
,{"type":"Feature","geometry":{"type":"Point","coordinates":[134.065,34.34]},"properties":{"Name":"松島コミュニティ　センター","Jusho":"香川県高松市松福町2-15-24","kouzui":"○","gake":"○","takashio":"○","jishin":"○","tsunami":"○","kaji":"×","naisui":"○","kazan":"×"}}
,{"type":"Feature","geometry":{"type":"Point","coordinates":[134.028,34.315]},"properties":{"Name":"鶴尾小学校","Jusho":"香川県高松市松並町636-1","kouzui":"○","gake":"○","takashio":"○","jishin":"○","tsunami":"○","kaji":"○","naisui":"○","kazan":"×"}}
,{"type":"Feature","geometry":{"type":"Point","coordinates":[134.026,34.316]},"properties":{"Name":"鶴尾中学校跡施設","Jusho":"香川県高松市松並町639-1","kouzui":"○","gake":"○","takashio":"○","jishin":"○","tsunami":"○","kaji":"○","naisui":"○","kazan":"×"}}
,{"type":"Feature","geometry":{"type":"Point","coordinates":[134.066,34.333]},"properties":{"Name":"玉藻中学校","Jusho":"香川県高松市上福岡町714-1","kouzui":"○","gake":"○","takashio":"○","jishin":"○","tsunami":"○","kaji":"○","naisui":"○","kazan":"×"}}
,{"type":"Feature","geometry":{"type":"Point","coordinates":[134.056,34.347]},"properties":{"Name":"新塩屋町コミュニティ　センター","Jusho":"香川県高松市城東町1-1-47","kouzui":"○","gake":"○","takashio":"○","jishin":"○","tsunami":"○","kaji":"×","naisui":"○","kazan":"×"}}
,{"type":"Feature","geometry":{"type":"Point","coordinates":[134.103,34.332]},"properties":{"Name":"古高松中学校","Jusho":"香川県高松市新田町甲190-1","kouzui":"○","gake":"○","takashio":"○","jishin":"○","tsunami":"○","kaji":"○","naisui":"○","kazan":"×"}}
,{"type":"Feature","geometry":{"type":"Point","coordinates":[134.099,34.328]},"properties":{"Name":"古高松南小学校","Jusho":"香川県高松市新田町甲2605","kouzui":"○","gake":"○","takashio":"○","jishin":"○","tsunami":"○","kaji":"○","naisui":"○","kazan":"×"}}
,{"type":"Feature","geometry":{"type":"Point","coordinates":[134.099,34.329]},"properties":{"Name":"介護老人保健施設　サンライズ屋島","Jusho":"香川県高松市新田町甲2723-2","kouzui":"○","gake":"○","takashio":"○","jishin":"○","tsunami":"○","kaji":"×","naisui":"○","kazan":"×"}}
,{"type":"Feature","geometry":{"type":"Point","coordinates":[134.098,34.194]},"properties":{"Name":"東植田小学校菅沢分校","Jusho":"香川県高松市菅沢町339","kouzui":"○","gake":"○","takashio":"○","jishin":"○","tsunami":"○","kaji":"○","naisui":"○","kazan":"×"}}
,{"type":"Feature","geometry":{"type":"Point","coordinates":[134.03,34.347]},"properties":{"Name":"日新小学校跡施設","Jusho":"香川県高松市瀬戸内町18-2","kouzui":"○","gake":"○","takashio":"○","jishin":"○","tsunami":"○","kaji":"○","naisui":"○","kazan":"×"}}
,{"type":"Feature","geometry":{"type":"Point","coordinates":[134.033,34.348]},"properties":{"Name":"日新コミュニティ　センター","Jusho":"香川県高松市瀬戸内町22-9","kouzui":"○","gake":"○","takashio":"○","jishin":"○","tsunami":"○","kaji":"×","naisui":"○","kazan":"×"}}
,{"type":"Feature","geometry":{"type":"Point","coordinates":[133.969,34.358]},"properties":{"Name":"下笠居小学校","Jusho":"香川県高松市生島町345","kouzui":"○","gake":"○","takashio":"○","jishin":"○","tsunami":"○","kaji":"○","naisui":"○","kazan":"×"}}
,{"type":"Feature","geometry":{"type":"Point","coordinates":[133.969,34.359]},"properties":{"Name":"下笠居コミュニティ　センター","Jusho":"香川県高松市生島町353-1","kouzui":"○","gake":"○","takashio":"○","jishin":"○","tsunami":"○","kaji":"×","naisui":"○","kazan":"×"}}
,{"type":"Feature","geometry":{"type":"Point","coordinates":[133.967,34.358]},"properties":{"Name":"下笠居中学校","Jusho":"香川県高松市生島町372-1","kouzui":"○","gake":"○","takashio":"○","jishin":"○","tsunami":"○","kaji":"○","naisui":"○","kazan":"×"}}
,{"type":"Feature","geometry":{"type":"Point","coordinates":[133.969,34.365]},"properties":{"Name":"香川県消防学校","Jusho":"香川県高松市生島町689-11","kouzui":"○","gake":"○","takashio":"○","jishin":"○","tsunami":"○","kaji":"×","naisui":"○","kazan":"×"}}
,{"type":"Feature","geometry":{"type":"Point","coordinates":[134.079,34.24]},"properties":{"Name":"西植田コミュニティ　センター","Jusho":"香川県高松市西植田町2247-1","kouzui":"○","gake":"○","takashio":"○","jishin":"○","tsunami":"○","kaji":"×","naisui":"○","kazan":"×"}}
,{"type":"Feature","geometry":{"type":"Point","coordinates":[134.079,34.239]},"properties":{"Name":"植田小学校","Jusho":"香川県高松市西植田町2337","kouzui":"○","gake":"×","takashio":"○","jishin":"○","tsunami":"○","kaji":"○","naisui":"○","kazan":"×"}}
,{"type":"Feature","geometry":{"type":"Point","coordinates":[134.092,34.268]},"properties":{"Name":"山田中学校","Jusho":"香川県高松市川島東町1257-1","kouzui":"○","gake":"○","takashio":"○","jishin":"○","tsunami":"○","kaji":"○","naisui":"○","kazan":"×"}}
,{"type":"Feature","geometry":{"type":"Point","coordinates":[134.089,34.276]},"properties":{"Name":"川島小学校","Jusho":"香川県高松市川島東町864-1","kouzui":"○","gake":"○","takashio":"○","jishin":"○","tsunami":"○","kaji":"○","naisui":"○","kazan":"×"}}
,{"type":"Feature","geometry":{"type":"Point","coordinates":[134.086,34.277]},"properties":{"Name":"川島コミュニティセンター","Jusho":"香川県高松市川島本町191-10","kouzui":"○","gake":"○","takashio":"○","jishin":"○","tsunami":"○","kaji":"×","naisui":"○","kazan":"×"}}
,{"type":"Feature","geometry":{"type":"Point","coordinates":[134.086,34.276]},"properties":{"Name":"川島コミュニティ　センター","Jusho":"香川県高松市川島本町191-2","kouzui":"○","gake":"○","takashio":"○","jishin":"○","tsunami":"○","kaji":"×","naisui":"○","kazan":"×"}}
,{"type":"Feature","geometry":{"type":"Point","coordinates":[134.006,34.267]},"properties":{"Name":"川岡小学校","Jusho":"香川県高松市川部町1552","kouzui":"○","gake":"○","takashio":"○","jishin":"○","tsunami":"○","kaji":"○","naisui":"○","kazan":"×"}}
,{"type":"Feature","geometry":{"type":"Point","coordinates":[134.01,34.269]},"properties":{"Name":"川岡コミュニティ　センター","Jusho":"香川県高松市川部町486-3","kouzui":"○","gake":"○","takashio":"○","jishin":"○","tsunami":"○","kaji":"×","naisui":"○","kazan":"×"}}
,{"type":"Feature","geometry":{"type":"Point","coordinates":[134.037,34.345]},"properties":{"Name":"二番丁コミュニティ　センター","Jusho":"香川県高松市扇町2-8-7","kouzui":"○","gake":"○","takashio":"○","jishin":"○","tsunami":"○","kaji":"×","naisui":"○","kazan":"×"}}
,{"type":"Feature","geometry":{"type":"Point","coordinates":[134.112,34.291]},"properties":{"Name":"高松東高校（体育館）","Jusho":"香川県高松市前田東町690-1","kouzui":"×","gake":"○","takashio":"○","jishin":"○","tsunami":"○","kaji":"×","naisui":"○","kazan":"×"}}
,{"type":"Feature","geometry":{"type":"Point","coordinates":[134.113,34.296]},"properties":{"Name":"前田小学校","Jusho":"香川県高松市前田東町819-3","kouzui":"○","gake":"○","takashio":"○","jishin":"○","tsunami":"○","kaji":"○","naisui":"○","kazan":"×"}}
,{"type":"Feature","geometry":{"type":"Point","coordinates":[134.113,34.297]},"properties":{"Name":"前田コミュニティ　センター","Jusho":"香川県高松市前田東町838","kouzui":"○","gake":"○","takashio":"○","jishin":"○","tsunami":"○","kaji":"×","naisui":"○","kazan":"×"}}
,{"type":"Feature","geometry":{"type":"Point","coordinates":[134.057,34.296]},"properties":{"Name":"高松桜井高等学校　（体育館）","Jusho":"香川県高松市多肥上町1250","kouzui":"○","gake":"○","takashio":"○","jishin":"○","tsunami":"○","kaji":"×","naisui":"○","kazan":"×"}}
,{"type":"Feature","geometry":{"type":"Point","coordinates":[134.056,34.28]},"properties":{"Name":"彦作池公園","Jusho":"香川県高松市多肥上町2049-1","kouzui":"○","gake":"○","takashio":"○","jishin":"○","tsunami":"○","kaji":"×","naisui":"○","kazan":"×"}}
,{"type":"Feature","geometry":{"type":"Point","coordinates":[134.052,34.29]},"properties":{"Name":"多肥コミュニティ　センター","Jusho":"香川県高松市多肥上町433-5","kouzui":"○","gake":"○","takashio":"○","jishin":"○","tsunami":"○","kaji":"×","naisui":"○","kazan":"×"}}
,{"type":"Feature","geometry":{"type":"Point","coordinates":[134.053,34.293]},"properties":{"Name":"多肥小学校","Jusho":"香川県高松市多肥上町902-2","kouzui":"○","gake":"○","takashio":"○","jishin":"○","tsunami":"○","kaji":"○","naisui":"○","kazan":"×"}}
,{"type":"Feature","geometry":{"type":"Point","coordinates":[134.045,34.306]},"properties":{"Name":"太田中学校","Jusho":"香川県高松市太田下町1800","kouzui":"○","gake":"○","takashio":"○","jishin":"○","tsunami":"○","kaji":"○","naisui":"○","kazan":"×"}}
,{"type":"Feature","geometry":{"type":"Point","coordinates":[134.044,34.306]},"properties":{"Name":"太田南小学校","Jusho":"香川県高松市太田下町1823-1","kouzui":"○","gake":"○","takashio":"○","jishin":"○","tsunami":"○","kaji":"○","naisui":"○","kazan":"×"}}
,{"type":"Feature","geometry":{"type":"Point","coordinates":[134.041,34.302]},"properties":{"Name":"太田南コミュニティ　センター","Jusho":"香川県高松市太田上町1045-2","kouzui":"○","gake":"○","takashio":"○","jishin":"○","tsunami":"○","kaji":"×","naisui":"○","kazan":"×"}}
,{"type":"Feature","geometry":{"type":"Point","coordinates":[134.042,34.297]},"properties":{"Name":"香川県立聴覚支援学校　（体育館）","Jusho":"香川県高松市太田上町513-1","kouzui":"×","gake":"×","takashio":"×","jishin":"○","tsunami":"×","kaji":"×","naisui":"×","kazan":"×"}}
,{"type":"Feature","geometry":{"type":"Point","coordinates":[134.057,34.42]},"properties":{"Name":"男木小・中学校","Jusho":"香川県高松市男木町165","kouzui":"○","gake":"○","takashio":"○","jishin":"○","tsunami":"○","kaji":"○","naisui":"○","kazan":"×"}}
,{"type":"Feature","geometry":{"type":"Point","coordinates":[134.054,34.423]},"properties":{"Name":"男木コミュニティセンター","Jusho":"香川県高松市男木町1988","kouzui":"○","gake":"○","takashio":"×","jishin":"○","tsunami":"○","kaji":"×","naisui":"○","kazan":"×"}}
,{"type":"Feature","geometry":{"type":"Point","coordinates":[134.057,34.341]},"properties":{"Name":"築地小学校跡施設","Jusho":"香川県高松市築地町14-1","kouzui":"○","gake":"○","takashio":"○","jishin":"○","tsunami":"○","kaji":"○","naisui":"○","kazan":"×"}}
,{"type":"Feature","geometry":{"type":"Point","coordinates":[134.057,34.341]},"properties":{"Name":"築地コミュニティ　センター","Jusho":"香川県高松市築地町14-1","kouzui":"○","gake":"○","takashio":"○","jishin":"○","tsunami":"○","kaji":"○","naisui":"○","kazan":"×"}}
,{"type":"Feature","geometry":{"type":"Point","coordinates":[134.009,34.31]},"properties":{"Name":"香川高等専門学校　（体育館）","Jusho":"香川県高松市勅使町355","kouzui":"○","gake":"○","takashio":"○","jishin":"○","tsunami":"○","kaji":"×","naisui":"○","kazan":"×"}}
,{"type":"Feature","geometry":{"type":"Point","coordinates":[134.006,34.329]},"properties":{"Name":"弦打コミュニティ　センター","Jusho":"香川県高松市鶴市町356-3","kouzui":"○","gake":"○","takashio":"○","jishin":"○","tsunami":"○","kaji":"×","naisui":"○","kazan":"×"}}
,{"type":"Feature","geometry":{"type":"Point","coordinates":[134.005,34.329]},"properties":{"Name":"弦打小学校","Jusho":"香川県高松市鶴市町374-1","kouzui":"○","gake":"○","takashio":"○","jishin":"○","tsunami":"○","kaji":"○","naisui":"○","kazan":"×"}}
,{"type":"Feature","geometry":{"type":"Point","coordinates":[134.03,34.314]},"properties":{"Name":"鶴尾コミュニティ　センター","Jusho":"香川県高松市田村町303-1","kouzui":"○","gake":"○","takashio":"○","jishin":"○","tsunami":"○","kaji":"×","naisui":"○","kazan":"×"}}
,{"type":"Feature","geometry":{"type":"Point","coordinates":[134.093,34.307]},"properties":{"Name":"川添小学校","Jusho":"香川県高松市東山崎町207-1","kouzui":"○","gake":"○","takashio":"○","jishin":"○","tsunami":"○","kaji":"○","naisui":"○","kazan":"×"}}
,{"type":"Feature","geometry":{"type":"Point","coordinates":[134.099,34.238]},"properties":{"Name":"東植田コミュニティ　センター","Jusho":"香川県高松市東植田町1825-1","kouzui":"○","gake":"○","takashio":"○","jishin":"○","tsunami":"○","kaji":"×","naisui":"○","kazan":"×"}}
,{"type":"Feature","geometry":{"type":"Point","coordinates":[134.098,34.239]},"properties":{"Name":"東植田小学校","Jusho":"香川県高松市東植田町2008","kouzui":"○","gake":"○","takashio":"○","jishin":"○","tsunami":"○","kaji":"○","naisui":"○","kazan":"×"}}
,{"type":"Feature","geometry":{"type":"Point","coordinates":[134.047,34.341]},"properties":{"Name":"中央公園","Jusho":"香川県高松市番町1-11-1","kouzui":"○","gake":"○","takashio":"○","jishin":"○","tsunami":"×","kaji":"×","naisui":"○","kazan":"×"}}
,{"type":"Feature","geometry":{"type":"Point","coordinates":[134.047,34.343]},"properties":{"Name":"四番丁小学校跡施設","Jusho":"香川県高松市番町1-5-1","kouzui":"○","gake":"○","takashio":"○","jishin":"○","tsunami":"○","kaji":"○","naisui":"○","kazan":"×"}}
,{"type":"Feature","geometry":{"type":"Point","coordinates":[134.045,34.344]},"properties":{"Name":"四番丁コミュニティ　センター","Jusho":"香川県高松市番町2-3-5","kouzui":"○","gake":"○","takashio":"○","jishin":"○","tsunami":"○","kaji":"×","naisui":"○","kazan":"×"}}
,{"type":"Feature","geometry":{"type":"Point","coordinates":[134.042,34.343]},"properties":{"Name":"高松工芸高等学校　（体育館）","Jusho":"香川県高松市番町2-9-30","kouzui":"○","gake":"○","takashio":"○","jishin":"○","tsunami":"○","kaji":"×","naisui":"○","kazan":"×"}}
,{"type":"Feature","geometry":{"type":"Point","coordinates":[134.044,34.342]},"properties":{"Name":"高松高等学校　（体育館）","Jusho":"香川県高松市番町3-1-1","kouzui":"○","gake":"○","takashio":"○","jishin":"○","tsunami":"○","kaji":"×","naisui":"○","kazan":"×"}}
,{"type":"Feature","geometry":{"type":"Point","coordinates":[134.054,34.318]},"properties":{"Name":"太田コミュニティ　センター","Jusho":"香川県高松市伏石町2016-37","kouzui":"○","gake":"○","takashio":"○","jishin":"○","tsunami":"○","kaji":"×","naisui":"○","kazan":"×"}}
,{"type":"Feature","geometry":{"type":"Point","coordinates":[134.055,34.314]},"properties":{"Name":"伏石中央公園","Jusho":"香川県高松市伏石町2077","kouzui":"○","gake":"○","takashio":"○","jishin":"○","tsunami":"×","kaji":"○","naisui":"○","kazan":"×"}}
,{"type":"Feature","geometry":{"type":"Point","coordinates":[134.052,34.312]},"properties":{"Name":"太田小学校","Jusho":"香川県高松市伏石町845-1","kouzui":"○","gake":"○","takashio":"○","jishin":"○","tsunami":"○","kaji":"○","naisui":"○","kazan":"×"}}
,{"type":"Feature","geometry":{"type":"Point","coordinates":[134.074,34.342]},"properties":{"Name":"高松市総合体育館","Jusho":"香川県高松市福岡町4-36-1","kouzui":"○","gake":"○","takashio":"○","jishin":"○","tsunami":"○","kaji":"×","naisui":"○","kazan":"×"}}
,{"type":"Feature","geometry":{"type":"Point","coordinates":[134.048,34.279]},"properties":{"Name":"仏生山コミュニティ　センター","Jusho":"香川県高松市仏生山町乙45-4","kouzui":"○","gake":"○","takashio":"○","jishin":"○","tsunami":"○","kaji":"×","naisui":"○","kazan":"×"}}
,{"type":"Feature","geometry":{"type":"Point","coordinates":[134.047,34.274]},"properties":{"Name":"仏生山小学校","Jusho":"香川県高松市仏生山町甲2461","kouzui":"○","gake":"○","takashio":"○","jishin":"○","tsunami":"○","kaji":"○","naisui":"○","kazan":"×"}}
,{"type":"Feature","geometry":{"type":"Point","coordinates":[134.049,34.272]},"properties":{"Name":"仏生山公園","Jusho":"香川県高松市仏生山町甲2654-1","kouzui":"○","gake":"○","takashio":"○","jishin":"○","tsunami":"○","kaji":"○","naisui":"○","kazan":"×"}}
,{"type":"Feature","geometry":{"type":"Point","coordinates":[134.054,34.345]},"properties":{"Name":"高松市生涯学習センター（まなびＣＡＮ）","Jusho":"香川県高松市片原町11-1","kouzui":"○","gake":"○","takashio":"○","jishin":"○","tsunami":"○","kaji":"×","naisui":"○","kazan":"×"}}
,{"type":"Feature","geometry":{"type":"Point","coordinates":[134.026,34.33]},"properties":{"Name":"峰山公園","Jusho":"香川県高松市峰山町1838-37","kouzui":"○","gake":"○","takashio":"○","jishin":"○","tsunami":"○","kaji":"×","naisui":"○","kazan":"×"}}
,{"type":"Feature","geometry":{"type":"Point","coordinates":[134.056,34.344]},"properties":{"Name":"総合教育センター","Jusho":"香川県高松市末広町5","kouzui":"○","gake":"○","takashio":"○","jishin":"○","tsunami":"○","kaji":"○","naisui":"○","kazan":"×"}}
,{"type":"Feature","geometry":{"type":"Point","coordinates":[134.147,34.332]},"properties":{"Name":"牟礼中央公園","Jusho":"香川県高松市牟礼町原1019-8","kouzui":"○","gake":"○","takashio":"○","jishin":"○","tsunami":"○","kaji":"○","naisui":"○","kazan":"×"}}
,{"type":"Feature","geometry":{"type":"Point","coordinates":[134.147,34.333]},"properties":{"Name":"牟礼中央公園　運動センター","Jusho":"香川県高松市牟礼町原1019-8","kouzui":"○","gake":"○","takashio":"○","jishin":"○","tsunami":"○","kaji":"○","naisui":"○","kazan":"×"}}
,{"type":"Feature","geometry":{"type":"Point","coordinates":[134.158,34.322]},"properties":{"Name":"香川県立保健医療大学　（体育館）","Jusho":"香川県高松市牟礼町原281-1","kouzui":"○","gake":"○","takashio":"○","jishin":"○","tsunami":"○","kaji":"×","naisui":"○","kazan":"×"}}
,{"type":"Feature","geometry":{"type":"Point","coordinates":[134.156,34.328]},"properties":{"Name":"高松市はらこども園","Jusho":"香川県高松市牟礼町原570-1","kouzui":"○","gake":"○","takashio":"○","jishin":"○","tsunami":"○","kaji":"×","naisui":"○","kazan":"×"}}
,{"type":"Feature","geometry":{"type":"Point","coordinates":[134.157,34.334]},"properties":{"Name":"房前公園・源平の里むれ（道の駅）","Jusho":"香川県高松市牟礼町原631-7","kouzui":"○","gake":"○","takashio":"○","jishin":"○","tsunami":"○","kaji":"×","naisui":"○","kazan":"×"}}
,{"type":"Feature","geometry":{"type":"Point","coordinates":[134.152,34.334]},"properties":{"Name":"牟礼南小学校","Jusho":"香川県高松市牟礼町大町1115-1","kouzui":"○","gake":"○","takashio":"○","jishin":"○","tsunami":"○","kaji":"○","naisui":"○","kazan":"×"}}
,{"type":"Feature","geometry":{"type":"Point","coordinates":[134.143,34.336]},"properties":{"Name":"大町コミュニティ　センター","Jusho":"香川県高松市牟礼町大町1463-2","kouzui":"○","gake":"○","takashio":"○","jishin":"○","tsunami":"○","kaji":"×","naisui":"○","kazan":"×"}}
,{"type":"Feature","geometry":{"type":"Point","coordinates":[134.142,34.336]},"properties":{"Name":"牟礼小学校","Jusho":"香川県高松市牟礼町大町1560","kouzui":"○","gake":"○","takashio":"○","jishin":"○","tsunami":"○","kaji":"○","naisui":"○","kazan":"×"}}
,{"type":"Feature","geometry":{"type":"Point","coordinates":[134.133,34.347]},"properties":{"Name":"御山公園","Jusho":"香川県高松市牟礼町牟礼1355-1","kouzui":"○","gake":"○","takashio":"○","jishin":"○","tsunami":"○","kaji":"○","naisui":"○","kazan":"×"}}
,{"type":"Feature","geometry":{"type":"Point","coordinates":[134.143,34.343]},"properties":{"Name":"牟礼総合体育館","Jusho":"香川県高松市牟礼町牟礼152-10","kouzui":"○","gake":"×","takashio":"○","jishin":"○","tsunami":"○","kaji":"×","naisui":"○","kazan":"×"}}
,{"type":"Feature","geometry":{"type":"Point","coordinates":[134.143,34.345]},"properties":{"Name":"高松北高等（中）学校　（体育館）","Jusho":"香川県高松市牟礼町牟礼1583-1","kouzui":"○","gake":"○","takashio":"○","jishin":"○","tsunami":"○","kaji":"×","naisui":"○","kazan":"×"}}
,{"type":"Feature","geometry":{"type":"Point","coordinates":[134.126,34.351]},"properties":{"Name":"牟礼北小学校","Jusho":"香川県高松市牟礼町牟礼2900-1","kouzui":"○","gake":"○","takashio":"○","jishin":"○","tsunami":"○","kaji":"○","naisui":"○","kazan":"×"}}
,{"type":"Feature","geometry":{"type":"Point","coordinates":[134.139,34.338]},"properties":{"Name":"牟礼コミュニティ　センター","Jusho":"香川県高松市牟礼町牟礼302-1","kouzui":"○","gake":"○","takashio":"○","jishin":"○","tsunami":"○","kaji":"×","naisui":"○","kazan":"×"}}
,{"type":"Feature","geometry":{"type":"Point","coordinates":[134.143,34.34]},"properties":{"Name":"牟礼中学校","Jusho":"香川県高松市牟礼町牟礼46-2","kouzui":"○","gake":"○","takashio":"○","jishin":"○","tsunami":"○","kaji":"○","naisui":"○","kazan":"×"}}
,{"type":"Feature","geometry":{"type":"Point","coordinates":[134.076,34.319]},"properties":{"Name":"木太南コミュニティ　センター","Jusho":"香川県高松市木太町1486","kouzui":"○","gake":"○","takashio":"○","jishin":"○","tsunami":"○","kaji":"×","naisui":"○","kazan":"×"}}
,{"type":"Feature","geometry":{"type":"Point","coordinates":[134.074,34.321]},"properties":{"Name":"木太南小学校","Jusho":"香川県高松市木太町1530-1","kouzui":"○","gake":"○","takashio":"○","jishin":"○","tsunami":"○","kaji":"○","naisui":"○","kazan":"×"}}
,{"type":"Feature","geometry":{"type":"Point","coordinates":[134.079,34.336]},"properties":{"Name":"木太北部コミュニティ　センター","Jusho":"香川県高松市木太町2603","kouzui":"○","gake":"○","takashio":"○","jishin":"○","tsunami":"○","kaji":"×","naisui":"○","kazan":"×"}}
,{"type":"Feature","geometry":{"type":"Point","coordinates":[134.081,34.336]},"properties":{"Name":"木太北部小学校","Jusho":"香川県高松市木太町2613","kouzui":"○","gake":"○","takashio":"○","jishin":"○","tsunami":"○","kaji":"○","naisui":"○","kazan":"×"}}
,{"type":"Feature","geometry":{"type":"Point","coordinates":[134.077,34.326]},"properties":{"Name":"木太小学校","Jusho":"香川県高松市木太町3480-1","kouzui":"○","gake":"○","takashio":"○","jishin":"○","tsunami":"○","kaji":"○","naisui":"○","kazan":"×"}}
,{"type":"Feature","geometry":{"type":"Point","coordinates":[134.077,34.326]},"properties":{"Name":"木太コミュニティ　センター","Jusho":"香川県高松市木太町3480-2","kouzui":"○","gake":"○","takashio":"○","jishin":"○","tsunami":"○","kaji":"×","naisui":"○","kazan":"×"}}
,{"type":"Feature","geometry":{"type":"Point","coordinates":[134.066,34.316]},"properties":{"Name":"木太中央公園","Jusho":"香川県高松市木太町5052","kouzui":"○","gake":"○","takashio":"○","jishin":"○","tsunami":"×","kaji":"○","naisui":"○","kazan":"×"}}
,{"type":"Feature","geometry":{"type":"Point","coordinates":[134.068,34.315]},"properties":{"Name":"木太中学校","Jusho":"香川県高松市木太町5059-3","kouzui":"○","gake":"○","takashio":"○","jishin":"○","tsunami":"○","kaji":"○","naisui":"○","kazan":"×"}}
,{"type":"Feature","geometry":{"type":"Point","coordinates":[134.07,34.302]},"properties":{"Name":"林小学校","Jusho":"香川県高松市林町1108-1","kouzui":"○","gake":"○","takashio":"○","jishin":"○","tsunami":"○","kaji":"○","naisui":"○","kazan":"×"}}
,{"type":"Feature","geometry":{"type":"Point","coordinates":[134.064,34.293]},"properties":{"Name":"香川大学創造工学部","Jusho":"香川県高松市林町2217-20","kouzui":"○","gake":"○","takashio":"○","jishin":"○","tsunami":"○","kaji":"×","naisui":"○","kazan":"×"}}
,{"type":"Feature","geometry":{"type":"Point","coordinates":[134.064,34.303]},"properties":{"Name":"長池中央公園","Jusho":"香川県高松市林町2581","kouzui":"○","gake":"○","takashio":"○","jishin":"○","tsunami":"○","kaji":"○","naisui":"○","kazan":"×"}}
,{"type":"Feature","geometry":{"type":"Point","coordinates":[134.075,34.302]},"properties":{"Name":"林コミュニティ　センター","Jusho":"香川県高松市林町329-1","kouzui":"○","gake":"○","takashio":"○","jishin":"○","tsunami":"○","kaji":"×","naisui":"○","kazan":"×"}}
,{"type":"Feature","geometry":{"type":"Point","coordinates":[133.858,34.227]},"properties":{"Name":"岡田小学校","Jusho":"香川県丸亀市綾歌町岡田下217","kouzui":"○","gake":"○","takashio":"○","jishin":"○","tsunami":"○","kaji":"○","naisui":"○","kazan":"×"}}
,{"type":"Feature","geometry":{"type":"Point","coordinates":[133.859,34.225]},"properties":{"Name":"岡田コミュニティセンター","Jusho":"香川県丸亀市綾歌町岡田下516-1","kouzui":"○","gake":"○","takashio":"○","jishin":"○","tsunami":"○","kaji":"○","naisui":"○","kazan":"×"}}
,{"type":"Feature","geometry":{"type":"Point","coordinates":[133.859,34.228]},"properties":{"Name":"岡田保育所","Jusho":"香川県丸亀市綾歌町岡田下87-1","kouzui":"○","gake":"○","takashio":"○","jishin":"○","tsunami":"○","kaji":"○","naisui":"○","kazan":"×"}}
,{"type":"Feature","geometry":{"type":"Point","coordinates":[133.869,34.236]},"properties":{"Name":"あやうたこども園","Jusho":"香川県丸亀市綾歌町岡田東1150","kouzui":"○","gake":"○","takashio":"○","jishin":"○","tsunami":"○","kaji":"○","naisui":"○","kazan":"×"}}
,{"type":"Feature","geometry":{"type":"Point","coordinates":[133.878,34.232]},"properties":{"Name":"栗熊コミュニティセンター","Jusho":"香川県丸亀市綾歌町栗熊西1638-1","kouzui":"○","gake":"○","takashio":"○","jishin":"○","tsunami":"○","kaji":"○","naisui":"○","kazan":"×"}}
,{"type":"Feature","geometry":{"type":"Point","coordinates":[133.879,34.232]},"properties":{"Name":"綾歌総合文化会館","Jusho":"香川県丸亀市綾歌町栗熊西1680","kouzui":"○","gake":"○","takashio":"○","jishin":"×","tsunami":"○","kaji":"○","naisui":"○","kazan":"×"}}
,{"type":"Feature","geometry":{"type":"Point","coordinates":[133.882,34.226]},"properties":{"Name":"綾歌保健福祉センター","Jusho":"香川県丸亀市綾歌町栗熊西782","kouzui":"○","gake":"○","takashio":"○","jishin":"○","tsunami":"○","kaji":"○","naisui":"○","kazan":"×"}}
,{"type":"Feature","geometry":{"type":"Point","coordinates":[133.884,34.237]},"properties":{"Name":"栗熊保育所","Jusho":"香川県丸亀市綾歌町栗熊東271","kouzui":"○","gake":"○","takashio":"○","jishin":"○","tsunami":"○","kaji":"○","naisui":"○","kazan":"×"}}
,{"type":"Feature","geometry":{"type":"Point","coordinates":[133.882,34.239]},"properties":{"Name":"栗熊小学校","Jusho":"香川県丸亀市綾歌町栗熊東323","kouzui":"○","gake":"○","takashio":"○","jishin":"○","tsunami":"○","kaji":"○","naisui":"○","kazan":"×"}}
,{"type":"Feature","geometry":{"type":"Point","coordinates":[133.883,34.237]},"properties":{"Name":"綾歌中学校","Jusho":"香川県丸亀市綾歌町栗熊東431","kouzui":"○","gake":"○","takashio":"○","jishin":"○","tsunami":"○","kaji":"○","naisui":"○","kazan":"×"}}
,{"type":"Feature","geometry":{"type":"Point","coordinates":[133.881,34.247]},"properties":{"Name":"富熊コミュニティセンター","Jusho":"香川県丸亀市綾歌町富熊1192-1","kouzui":"○","gake":"○","takashio":"○","jishin":"○","tsunami":"○","kaji":"○","naisui":"○","kazan":"×"}}
,{"type":"Feature","geometry":{"type":"Point","coordinates":[133.88,34.249]},"properties":{"Name":"富熊保育所","Jusho":"香川県丸亀市綾歌町富熊1226","kouzui":"○","gake":"○","takashio":"○","jishin":"○","tsunami":"○","kaji":"○","naisui":"○","kazan":"×"}}
,{"type":"Feature","geometry":{"type":"Point","coordinates":[133.879,34.249]},"properties":{"Name":"富熊小学校","Jusho":"香川県丸亀市綾歌町富熊1227","kouzui":"○","gake":"○","takashio":"○","jishin":"○","tsunami":"○","kaji":"○","naisui":"○","kazan":"×"}}
,{"type":"Feature","geometry":{"type":"Point","coordinates":[133.884,34.255]},"properties":{"Name":"富熊コミュニティセンター分館","Jusho":"香川県丸亀市綾歌町富熊1409-31","kouzui":"○","gake":"○","takashio":"○","jishin":"○","tsunami":"○","kaji":"○","naisui":"○","kazan":"×"}}
,{"type":"Feature","geometry":{"type":"Point","coordinates":[133.783,34.29]},"properties":{"Name":"旧塩屋北保育所（丸亀市シルバー人材センター）２階一部","Jusho":"香川県丸亀市塩屋町5-6-1","kouzui":"×","gake":"○","takashio":"×","jishin":"×","tsunami":"×","kaji":"○","naisui":"×","kazan":"×"}}
,{"type":"Feature","geometry":{"type":"Point","coordinates":[133.8,34.294]},"properties":{"Name":"城北小学校","Jusho":"香川県丸亀市瓦町95","kouzui":"○","gake":"○","takashio":"○","jishin":"○","tsunami":"○","kaji":"×","naisui":"○","kazan":"×"}}
,{"type":"Feature","geometry":{"type":"Point","coordinates":[133.78,34.362]},"properties":{"Name":"牛島集会場","Jusho":"香川県丸亀市牛島385","kouzui":"○","gake":"×","takashio":"○","jishin":"×","tsunami":"○","kaji":"○","naisui":"○","kazan":"×"}}
,{"type":"Feature","geometry":{"type":"Point","coordinates":[133.782,34.269]},"properties":{"Name":"金倉保育所","Jusho":"香川県丸亀市金倉町1230-1","kouzui":"○","gake":"○","takashio":"○","jishin":"○","tsunami":"○","kaji":"○","naisui":"○","kazan":"×"}}
,{"type":"Feature","geometry":{"type":"Point","coordinates":[133.785,34.262]},"properties":{"Name":"県立丸亀競技場　第１～第６会議室","Jusho":"香川県丸亀市金倉町830","kouzui":"○","gake":"○","takashio":"○","jishin":"○","tsunami":"○","kaji":"○","naisui":"○","kazan":"×"}}
,{"type":"Feature","geometry":{"type":"Point","coordinates":[133.789,34.263]},"properties":{"Name":"丸亀市民体育館","Jusho":"香川県丸亀市金倉町924-1","kouzui":"○","gake":"○","takashio":"○","jishin":"○","tsunami":"○","kaji":"○","naisui":"○","kazan":"×"}}
,{"type":"Feature","geometry":{"type":"Point","coordinates":[133.81,34.263]},"properties":{"Name":"四国職業能力開発大学校体育館","Jusho":"香川県丸亀市郡家町3202","kouzui":"○","gake":"○","takashio":"○","jishin":"×","tsunami":"○","kaji":"○","naisui":"○","kazan":"×"}}
,{"type":"Feature","geometry":{"type":"Point","coordinates":[133.814,34.267]},"properties":{"Name":"南中学校","Jusho":"香川県丸亀市郡家町3690","kouzui":"○","gake":"○","takashio":"○","jishin":"○","tsunami":"○","kaji":"○","naisui":"○","kazan":"×"}}
,{"type":"Feature","geometry":{"type":"Point","coordinates":[133.814,34.252]},"properties":{"Name":"郡家こども園","Jusho":"香川県丸亀市郡家町787","kouzui":"○","gake":"○","takashio":"○","jishin":"○","tsunami":"○","kaji":"○","naisui":"○","kazan":"×"}}
,{"type":"Feature","geometry":{"type":"Point","coordinates":[133.815,34.251]},"properties":{"Name":"郡家小学校","Jusho":"香川県丸亀市郡家町790-1","kouzui":"○","gake":"○","takashio":"○","jishin":"○","tsunami":"○","kaji":"○","naisui":"○","kazan":"×"}}
,{"type":"Feature","geometry":{"type":"Point","coordinates":[133.815,34.25]},"properties":{"Name":"郡家コミュニティセンター","Jusho":"香川県丸亀市郡家町814-1","kouzui":"○","gake":"○","takashio":"○","jishin":"○","tsunami":"○","kaji":"○","naisui":"○","kazan":"×"}}
,{"type":"Feature","geometry":{"type":"Point","coordinates":[133.79,34.258]},"properties":{"Name":"はらだこども園","Jusho":"香川県丸亀市原田町2046","kouzui":"○","gake":"○","takashio":"○","jishin":"○","tsunami":"○","kaji":"○","naisui":"○","kazan":"×"}}
,{"type":"Feature","geometry":{"type":"Point","coordinates":[133.8,34.296]},"properties":{"Name":"城北コミュニティセンター","Jusho":"香川県丸亀市御供所町1-5-20","kouzui":"×","gake":"○","takashio":"×","jishin":"○","tsunami":"×","kaji":"×","naisui":"×","kazan":"×"}}
,{"type":"Feature","geometry":{"type":"Point","coordinates":[133.715,34.365]},"properties":{"Name":"広島コミュニティセンター","Jusho":"香川県丸亀市広島町江の浦373-3","kouzui":"○","gake":"○","takashio":"○","jishin":"○","tsunami":"○","kaji":"○","naisui":"○","kazan":"×"}}
,{"type":"Feature","geometry":{"type":"Point","coordinates":[133.714,34.365]},"properties":{"Name":"広島小中学校","Jusho":"香川県丸亀市広島町江の浦439","kouzui":"○","gake":"○","takashio":"○","jishin":"○","tsunami":"○","kaji":"○","naisui":"○","kazan":"×"}}
,{"type":"Feature","geometry":{"type":"Point","coordinates":[133.651,34.375]},"properties":{"Name":"小手島小中学校","Jusho":"香川県丸亀市広島町小手島2782","kouzui":"○","gake":"○","takashio":"○","jishin":"○","tsunami":"○","kaji":"○","naisui":"○","kazan":"×"}}
,{"type":"Feature","geometry":{"type":"Point","coordinates":[133.69,34.37]},"properties":{"Name":"へき地集会室","Jusho":"香川県丸亀市広島町青木549","kouzui":"○","gake":"×","takashio":"○","jishin":"○","tsunami":"○","kaji":"○","naisui":"○","kazan":"×"}}
,{"type":"Feature","geometry":{"type":"Point","coordinates":[133.783,34.277]},"properties":{"Name":"城坤幼稚園","Jusho":"香川県丸亀市今津町278","kouzui":"○","gake":"○","takashio":"○","jishin":"○","tsunami":"○","kaji":"○","naisui":"○","kazan":"×"}}
,{"type":"Feature","geometry":{"type":"Point","coordinates":[133.784,34.277]},"properties":{"Name":"城坤コミュニティセンター","Jusho":"香川県丸亀市今津町283","kouzui":"○","gake":"○","takashio":"○","jishin":"○","tsunami":"○","kaji":"○","naisui":"○","kazan":"×"}}
,{"type":"Feature","geometry":{"type":"Point","coordinates":[133.786,34.28]},"properties":{"Name":"城坤小学校","Jusho":"香川県丸亀市今津町348","kouzui":"○","gake":"○","takashio":"○","jishin":"○","tsunami":"○","kaji":"○","naisui":"○","kazan":"×"}}
,{"type":"Feature","geometry":{"type":"Point","coordinates":[133.8,34.272]},"properties":{"Name":"城南コミュニティセンター","Jusho":"香川県丸亀市山北町200-1","kouzui":"○","gake":"○","takashio":"○","jishin":"○","tsunami":"○","kaji":"○","naisui":"○","kazan":"×"}}
,{"type":"Feature","geometry":{"type":"Point","coordinates":[133.799,34.27]},"properties":{"Name":"城南保育所","Jusho":"香川県丸亀市山北町261","kouzui":"○","gake":"○","takashio":"○","jishin":"○","tsunami":"○","kaji":"○","naisui":"○","kazan":"×"}}
,{"type":"Feature","geometry":{"type":"Point","coordinates":[133.798,34.279]},"properties":{"Name":"城西コミュニティセンター","Jusho":"香川県丸亀市山北町722-1","kouzui":"○","gake":"○","takashio":"○","jishin":"○","tsunami":"○","kaji":"○","naisui":"○","kazan":"×"}}
,{"type":"Feature","geometry":{"type":"Point","coordinates":[133.668,34.398]},"properties":{"Name":"手島自然教育センター","Jusho":"香川県丸亀市手島町1273","kouzui":"○","gake":"○","takashio":"○","jishin":"×","tsunami":"○","kaji":"○","naisui":"○","kazan":"×"}}
,{"type":"Feature","geometry":{"type":"Point","coordinates":[133.671,34.398]},"properties":{"Name":"手島集会場","Jusho":"香川県丸亀市手島町224","kouzui":"○","gake":"×","takashio":"○","jishin":"×","tsunami":"○","kaji":"○","naisui":"○","kazan":"×"}}
,{"type":"Feature","geometry":{"type":"Point","coordinates":[133.797,34.282]},"properties":{"Name":"県立丸亀高等学校　武道館","Jusho":"香川県丸亀市城南町63-5","kouzui":"○","gake":"○","takashio":"○","jishin":"○","tsunami":"○","kaji":"○","naisui":"○","kazan":"×"}}
,{"type":"Feature","geometry":{"type":"Point","coordinates":[133.829,34.234]},"properties":{"Name":"垂水コミュニティセンター","Jusho":"香川県丸亀市垂水町1345-1","kouzui":"○","gake":"○","takashio":"○","jishin":"○","tsunami":"○","kaji":"○","naisui":"○","kazan":"×"}}
,{"type":"Feature","geometry":{"type":"Point","coordinates":[133.828,34.232]},"properties":{"Name":"垂水小学校","Jusho":"香川県丸亀市垂水町1408","kouzui":"○","gake":"○","takashio":"○","jishin":"○","tsunami":"○","kaji":"○","naisui":"○","kazan":"×"}}
,{"type":"Feature","geometry":{"type":"Point","coordinates":[133.824,34.231]},"properties":{"Name":"垂水こども園","Jusho":"香川県丸亀市垂水町1709","kouzui":"○","gake":"○","takashio":"○","jishin":"○","tsunami":"○","kaji":"○","naisui":"○","kazan":"×"}}
,{"type":"Feature","geometry":{"type":"Point","coordinates":[133.829,34.257]},"properties":{"Name":"城辰幼稚園","Jusho":"香川県丸亀市川西町南161","kouzui":"○","gake":"○","takashio":"○","jishin":"○","tsunami":"○","kaji":"○","naisui":"○","kazan":"×"}}
,{"type":"Feature","geometry":{"type":"Point","coordinates":[133.83,34.253]},"properties":{"Name":"川西コミュニティセンター","Jusho":"香川県丸亀市川西町南428-1","kouzui":"○","gake":"○","takashio":"○","jishin":"○","tsunami":"○","kaji":"○","naisui":"○","kazan":"×"}}
,{"type":"Feature","geometry":{"type":"Point","coordinates":[133.829,34.247]},"properties":{"Name":"金山文化センター","Jusho":"香川県丸亀市川西町南679-10","kouzui":"×","gake":"○","takashio":"○","jishin":"×","tsunami":"○","kaji":"○","naisui":"×","kazan":"×"}}
,{"type":"Feature","geometry":{"type":"Point","coordinates":[133.83,34.247]},"properties":{"Name":"城辰保育所","Jusho":"香川県丸亀市川西町南696-1","kouzui":"○","gake":"○","takashio":"○","jishin":"○","tsunami":"○","kaji":"○","naisui":"○","kazan":"×"}}
,{"type":"Feature","geometry":{"type":"Point","coordinates":[133.834,34.252]},"properties":{"Name":"土器川体育センター","Jusho":"香川県丸亀市川西町南甲307","kouzui":"○","gake":"○","takashio":"○","jishin":"○","tsunami":"○","kaji":"○","naisui":"○","kazan":"×"}}
,{"type":"Feature","geometry":{"type":"Point","coordinates":[133.828,34.257]},"properties":{"Name":"城辰小学校","Jusho":"香川県丸亀市川西町北151","kouzui":"○","gake":"○","takashio":"○","jishin":"○","tsunami":"○","kaji":"○","naisui":"○","kazan":"×"}}
,{"type":"Feature","geometry":{"type":"Point","coordinates":[133.782,34.285]},"properties":{"Name":"しおや保育所","Jusho":"香川県丸亀市前塩屋町2-1-17","kouzui":"○","gake":"○","takashio":"○","jishin":"○","tsunami":"○","kaji":"○","naisui":"○","kazan":"×"}}
,{"type":"Feature","geometry":{"type":"Point","coordinates":[133.801,34.29]},"properties":{"Name":"東中学校","Jusho":"香川県丸亀市大手町1-5-1","kouzui":"○","gake":"○","takashio":"○","jishin":"○","tsunami":"○","kaji":"×","naisui":"○","kazan":"×"}}
,{"type":"Feature","geometry":{"type":"Point","coordinates":[133.795,34.284]},"properties":{"Name":"西中学校","Jusho":"香川県丸亀市中府町3-11-1","kouzui":"○","gake":"○","takashio":"○","jishin":"○","tsunami":"○","kaji":"○","naisui":"○","kazan":"×"}}
,{"type":"Feature","geometry":{"type":"Point","coordinates":[133.793,34.288]},"properties":{"Name":"城乾小学校","Jusho":"香川県丸亀市中府町5-15-1","kouzui":"○","gake":"○","takashio":"○","jishin":"○","tsunami":"○","kaji":"○","naisui":"○","kazan":"×"}}
,{"type":"Feature","geometry":{"type":"Point","coordinates":[133.792,34.277]},"properties":{"Name":"県立丸亀城西高等学校　第２体育館","Jusho":"香川県丸亀市津森町267","kouzui":"○","gake":"○","takashio":"○","jishin":"○","tsunami":"○","kaji":"○","naisui":"○","kazan":"×"}}
,{"type":"Feature","geometry":{"type":"Point","coordinates":[133.798,34.269]},"properties":{"Name":"城南小学校","Jusho":"香川県丸亀市田村町973","kouzui":"○","gake":"○","takashio":"○","jishin":"○","tsunami":"○","kaji":"○","naisui":"○","kazan":"×"}}
,{"type":"Feature","geometry":{"type":"Point","coordinates":[133.813,34.282]},"properties":{"Name":"城東幼稚園","Jusho":"香川県丸亀市土器町西4-668","kouzui":"○","gake":"○","takashio":"○","jishin":"○","tsunami":"○","kaji":"○","naisui":"○","kazan":"×"}}
,{"type":"Feature","geometry":{"type":"Point","coordinates":[133.813,34.286]},"properties":{"Name":"城東小学校","Jusho":"香川県丸亀市土器町西5-113","kouzui":"○","gake":"○","takashio":"○","jishin":"○","tsunami":"○","kaji":"○","naisui":"○","kazan":"×"}}
,{"type":"Feature","geometry":{"type":"Point","coordinates":[133.819,34.295]},"properties":{"Name":"青ノ山保育所","Jusho":"香川県丸亀市土器町東4-303","kouzui":"○","gake":"×","takashio":"○","jishin":"○","tsunami":"○","kaji":"○","naisui":"○","kazan":"×"}}
,{"type":"Feature","geometry":{"type":"Point","coordinates":[133.811,34.291]},"properties":{"Name":"土器コミュニティセンター","Jusho":"香川県丸亀市土器町東7-160","kouzui":"○","gake":"○","takashio":"○","jishin":"○","tsunami":"○","kaji":"○","naisui":"○","kazan":"×"}}
,{"type":"Feature","geometry":{"type":"Point","coordinates":[133.805,34.299]},"properties":{"Name":"二軒茶屋総合センター","Jusho":"香川県丸亀市土器町東8-501","kouzui":"○","gake":"○","takashio":"○","jishin":"○","tsunami":"○","kaji":"○","naisui":"○","kazan":"×"}}
,{"type":"Feature","geometry":{"type":"Point","coordinates":[133.804,34.309]},"properties":{"Name":"クリントピア丸亀","Jusho":"香川県丸亀市土器町北1-72-2","kouzui":"○","gake":"○","takashio":"○","jishin":"○","tsunami":"○","kaji":"○","naisui":"○","kazan":"×"}}
,{"type":"Feature","geometry":{"type":"Point","coordinates":[133.805,34.292]},"properties":{"Name":"土居保育所","Jusho":"香川県丸亀市土居町2-13-3","kouzui":"×","gake":"○","takashio":"×","jishin":"○","tsunami":"○","kaji":"○","naisui":"×","kazan":"×"}}
,{"type":"Feature","geometry":{"type":"Point","coordinates":[133.793,34.288]},"properties":{"Name":"城乾コミュニティセンター","Jusho":"香川県丸亀市南条町34-28","kouzui":"○","gake":"○","takashio":"○","jishin":"○","tsunami":"○","kaji":"×","naisui":"○","kazan":"×"}}
,{"type":"Feature","geometry":{"type":"Point","coordinates":[133.793,34.288]},"properties":{"Name":"城乾こども園（旧西幼稚園）","Jusho":"香川県丸亀市南条町34-46","kouzui":"○","gake":"○","takashio":"○","jishin":"○","tsunami":"○","kaji":"×","naisui":"○","kazan":"×"}}
,{"type":"Feature","geometry":{"type":"Point","coordinates":[133.858,34.259]},"properties":{"Name":"飯山総合保健福祉センター","Jusho":"香川県丸亀市飯山町下法軍寺581-1","kouzui":"○","gake":"○","takashio":"○","jishin":"○","tsunami":"○","kaji":"○","naisui":"○","kazan":"×"}}
,{"type":"Feature","geometry":{"type":"Point","coordinates":[133.855,34.258]},"properties":{"Name":"県立飯山高等学校　新体育館","Jusho":"香川県丸亀市飯山町下法軍寺664-1","kouzui":"○","gake":"○","takashio":"○","jishin":"○","tsunami":"○","kaji":"○","naisui":"○","kazan":"×"}}
,{"type":"Feature","geometry":{"type":"Point","coordinates":[133.856,34.249]},"properties":{"Name":"飯山南コミュニティセンター","Jusho":"香川県丸亀市飯山町上法軍寺1010-1","kouzui":"○","gake":"○","takashio":"○","jishin":"○","tsunami":"○","kaji":"○","naisui":"○","kazan":"×"}}
,{"type":"Feature","geometry":{"type":"Point","coordinates":[133.857,34.248]},"properties":{"Name":"飯山南保育所","Jusho":"香川県丸亀市飯山町上法軍寺1036","kouzui":"○","gake":"○","takashio":"○","jishin":"○","tsunami":"○","kaji":"○","naisui":"○","kazan":"×"}}
,{"type":"Feature","geometry":{"type":"Point","coordinates":[133.855,34.248]},"properties":{"Name":"飯山南小学校","Jusho":"香川県丸亀市飯山町上法軍寺1206","kouzui":"○","gake":"○","takashio":"○","jishin":"○","tsunami":"○","kaji":"○","naisui":"○","kazan":"×"}}
,{"type":"Feature","geometry":{"type":"Point","coordinates":[133.85,34.256]},"properties":{"Name":"飯山こども園","Jusho":"香川県丸亀市飯山町真時71-1","kouzui":"○","gake":"○","takashio":"○","jishin":"○","tsunami":"○","kaji":"○","naisui":"○","kazan":"×"}}
,{"type":"Feature","geometry":{"type":"Point","coordinates":[133.841,34.262]},"properties":{"Name":"飯山総合学習センター","Jusho":"香川県丸亀市飯山町西坂元547-1","kouzui":"○","gake":"○","takashio":"○","jishin":"○","tsunami":"○","kaji":"○","naisui":"○","kazan":"×"}}
,{"type":"Feature","geometry":{"type":"Point","coordinates":[133.858,34.268]},"properties":{"Name":"飯山北第一保育所","Jusho":"香川県丸亀市飯山町川原1009","kouzui":"○","gake":"○","takashio":"○","jishin":"○","tsunami":"○","kaji":"○","naisui":"○","kazan":"×"}}
,{"type":"Feature","geometry":{"type":"Point","coordinates":[133.861,34.264]},"properties":{"Name":"飯山中学校","Jusho":"香川県丸亀市飯山町川原1110","kouzui":"○","gake":"○","takashio":"○","jishin":"○","tsunami":"○","kaji":"○","naisui":"○","kazan":"×"}}
,{"type":"Feature","geometry":{"type":"Point","coordinates":[133.861,34.264]},"properties":{"Name":"飯山北コミュニティセンター","Jusho":"香川県丸亀市飯山町川原1112-5","kouzui":"○","gake":"○","takashio":"○","jishin":"×","tsunami":"○","kaji":"○","naisui":"○","kazan":"×"}}
,{"type":"Feature","geometry":{"type":"Point","coordinates":[133.858,34.265]},"properties":{"Name":"飯山北小学校","Jusho":"香川県丸亀市飯山町川原1874","kouzui":"○","gake":"○","takashio":"○","jishin":"○","tsunami":"○","kaji":"○","naisui":"○","kazan":"×"}}
,{"type":"Feature","geometry":{"type":"Point","coordinates":[133.871,34.268]},"properties":{"Name":"飯山総合運動公園　体育館","Jusho":"香川県丸亀市飯山町東坂元2713-1","kouzui":"○","gake":"○","takashio":"○","jishin":"○","tsunami":"○","kaji":"○","naisui":"○","kazan":"×"}}
,{"type":"Feature","geometry":{"type":"Point","coordinates":[133.844,34.248]},"properties":{"Name":"東小川児童センター","Jusho":"香川県丸亀市飯山町東小川1260","kouzui":"×","gake":"○","takashio":"○","jishin":"○","tsunami":"○","kaji":"○","naisui":"×","kazan":"×"}}
,{"type":"Feature","geometry":{"type":"Point","coordinates":[133.833,34.28]},"properties":{"Name":"飯野小学校","Jusho":"香川県丸亀市飯野町西分113","kouzui":"○","gake":"○","takashio":"○","jishin":"○","tsunami":"○","kaji":"○","naisui":"○","kazan":"×"}}
,{"type":"Feature","geometry":{"type":"Point","coordinates":[133.834,34.282]},"properties":{"Name":"飯野コミュニティセンター","Jusho":"香川県丸亀市飯野町東分2334-2","kouzui":"○","gake":"○","takashio":"○","jishin":"○","tsunami":"○","kaji":"○","naisui":"○","kazan":"×"}}
,{"type":"Feature","geometry":{"type":"Point","coordinates":[133.833,34.279]},"properties":{"Name":"飯野こども園","Jusho":"香川県丸亀市飯野町東分2576","kouzui":"○","gake":"○","takashio":"○","jishin":"○","tsunami":"○","kaji":"○","naisui":"○","kazan":"×"}}
,{"type":"Feature","geometry":{"type":"Point","coordinates":[133.825,34.292]},"properties":{"Name":"県立香川丸亀養護学校　体育館","Jusho":"香川県丸亀市飯野町東分592-1","kouzui":"○","gake":"○","takashio":"○","jishin":"○","tsunami":"○","kaji":"○","naisui":"○","kazan":"×"}}
,{"type":"Feature","geometry":{"type":"Point","coordinates":[133.8,34.298]},"properties":{"Name":"東汐入川けんこう公園","Jusho":"香川県丸亀市富士見町1-998-1","kouzui":"×","gake":"○","takashio":"×","jishin":"○","tsunami":"×","kaji":"○","naisui":"×","kazan":"×"}}
,{"type":"Feature","geometry":{"type":"Point","coordinates":[133.798,34.297]},"properties":{"Name":"城北こども園","Jusho":"香川県丸亀市北平山町2-12-20","kouzui":"○","gake":"○","takashio":"×","jishin":"○","tsunami":"○","kaji":"×","naisui":"○","kazan":"×"}}
,{"type":"Feature","geometry":{"type":"Point","coordinates":[133.785,34.389]},"properties":{"Name":"山根文化センター","Jusho":"香川県丸亀市本島町笠島100-2","kouzui":"○","gake":"×","takashio":"×","jishin":"×","tsunami":"○","kaji":"○","naisui":"○","kazan":"×"}}
,{"type":"Feature","geometry":{"type":"Point","coordinates":[133.786,34.389]},"properties":{"Name":"山根児童館","Jusho":"香川県丸亀市本島町笠島84-3","kouzui":"○","gake":"○","takashio":"×","jishin":"○","tsunami":"○","kaji":"○","naisui":"○","kazan":"×"}}
,{"type":"Feature","geometry":{"type":"Point","coordinates":[133.757,34.387]},"properties":{"Name":"西地区集会場","Jusho":"香川県丸亀市本島町尻浜83","kouzui":"○","gake":"×","takashio":"○","jishin":"○","tsunami":"○","kaji":"○","naisui":"○","kazan":"×"}}
,{"type":"Feature","geometry":{"type":"Point","coordinates":[133.783,34.388]},"properties":{"Name":"本島小中学校","Jusho":"香川県丸亀市本島町泊18","kouzui":"○","gake":"○","takashio":"○","jishin":"○","tsunami":"○","kaji":"○","naisui":"○","kazan":"×"}}
,{"type":"Feature","geometry":{"type":"Point","coordinates":[133.783,34.389]},"properties":{"Name":"本島幼稚園","Jusho":"香川県丸亀市本島町泊34","kouzui":"○","gake":"×","takashio":"○","jishin":"○","tsunami":"○","kaji":"○","naisui":"○","kazan":"×"}}
,{"type":"Feature","geometry":{"type":"Point","coordinates":[133.78,34.386]},"properties":{"Name":"旧本島中学校　体育館","Jusho":"香川県丸亀市本島町泊410-1","kouzui":"○","gake":"×","takashio":"×","jishin":"○","tsunami":"○","kaji":"○","naisui":"○","kazan":"×"}}
,{"type":"Feature","geometry":{"type":"Point","coordinates":[133.781,34.386]},"properties":{"Name":"本島コミュニティセンター","Jusho":"香川県丸亀市本島町泊410-1","kouzui":"○","gake":"○","takashio":"○","jishin":"○","tsunami":"○","kaji":"○","naisui":"○","kazan":"×"}}
,{"type":"Feature","geometry":{"type":"Point","coordinates":[133.799,34.283]},"properties":{"Name":"県立丸亀高等学校第２体育館","Jusho":"香川県丸亀市六番丁1","kouzui":"○","gake":"○","takashio":"○","jishin":"○","tsunami":"○","kaji":"○","naisui":"○","kazan":"×"}}
,{"type":"Feature","geometry":{"type":"Point","coordinates":[133.797,34.286]},"properties":{"Name":"城西小学校","Jusho":"香川県丸亀市六番丁12","kouzui":"○","gake":"○","takashio":"○","jishin":"○","tsunami":"○","kaji":"○","naisui":"○","kazan":"×"}}
,{"type":"Feature","geometry":{"type":"Point","coordinates":[133.916,34.366]},"properties":{"Name":"交流の里おうごし","Jusho":"香川県坂出市王越町木沢1197-8","kouzui":"○","gake":"○","takashio":"○","jishin":"○","tsunami":"○","kaji":"○","naisui":"○","kazan":"×"}}
,{"type":"Feature","geometry":{"type":"Point","coordinates":[133.91,34.312]},"properties":{"Name":"加茂小学校","Jusho":"香川県坂出市加茂町1098-3","kouzui":"○","gake":"○","takashio":"○","jishin":"○","tsunami":"○","kaji":"○","naisui":"○","kazan":"×"}}
,{"type":"Feature","geometry":{"type":"Point","coordinates":[133.91,34.309]},"properties":{"Name":"加茂公民館","Jusho":"香川県坂出市加茂町645-7","kouzui":"○","gake":"○","takashio":"○","jishin":"○","tsunami":"○","kaji":"○","naisui":"○","kazan":"×"}}
,{"type":"Feature","geometry":{"type":"Point","coordinates":[133.812,34.408]},"properties":{"Name":"旧岩黒小・中学校","Jusho":"香川県坂出市岩黒240","kouzui":"○","gake":"○","takashio":"○","jishin":"○","tsunami":"○","kaji":"○","naisui":"○","kazan":"×"}}
,{"type":"Feature","geometry":{"type":"Point","coordinates":[133.866,34.32]},"properties":{"Name":"東部中学校","Jusho":"香川県坂出市久米町2-7-46","kouzui":"○","gake":"○","takashio":"○","jishin":"○","tsunami":"×","kaji":"○","naisui":"○","kazan":"×"}}
,{"type":"Feature","geometry":{"type":"Point","coordinates":[133.858,34.314]},"properties":{"Name":"市民広場","Jusho":"香川県坂出市京町1-3793-49","kouzui":"×","gake":"×","takashio":"×","jishin":"○","tsunami":"×","kaji":"○","naisui":"×","kazan":"×"}}
,{"type":"Feature","geometry":{"type":"Point","coordinates":[133.856,34.31]},"properties":{"Name":"坂出第一高等学校　体育館・武道場","Jusho":"香川県坂出市駒止町2-1-3","kouzui":"○","gake":"○","takashio":"×","jishin":"○","tsunami":"×","kaji":"○","naisui":"○","kazan":"×"}}
,{"type":"Feature","geometry":{"type":"Point","coordinates":[133.842,34.318]},"properties":{"Name":"坂出工業高等学校　心技館","Jusho":"香川県坂出市御供所町1-1-2","kouzui":"×","gake":"○","takashio":"×","jishin":"○","tsunami":"×","kaji":"○","naisui":"×","kazan":"×"}}
,{"type":"Feature","geometry":{"type":"Point","coordinates":[133.908,34.338]},"properties":{"Name":"松山小学校","Jusho":"香川県坂出市高屋町1050-1","kouzui":"○","gake":"○","takashio":"×","jishin":"○","tsunami":"×","kaji":"○","naisui":"○","kazan":"×"}}
,{"type":"Feature","geometry":{"type":"Point","coordinates":[133.908,34.339]},"properties":{"Name":"松山公民館","Jusho":"香川県坂出市高屋町1100-1","kouzui":"○","gake":"○","takashio":"×","jishin":"○","tsunami":"×","kaji":"○","naisui":"○","kazan":"×"}}
,{"type":"Feature","geometry":{"type":"Point","coordinates":[133.823,34.347]},"properties":{"Name":"万葉会館","Jusho":"香川県坂出市沙弥島70-1","kouzui":"○","gake":"○","takashio":"○","jishin":"○","tsunami":"○","kaji":"○","naisui":"○","kazan":"×"}}
,{"type":"Feature","geometry":{"type":"Point","coordinates":[133.861,34.315]},"properties":{"Name":"東部小学校","Jusho":"香川県坂出市室町1-1-21","kouzui":"○","gake":"○","takashio":"○","jishin":"○","tsunami":"×","kaji":"○","naisui":"○","kazan":"×"}}
,{"type":"Feature","geometry":{"type":"Point","coordinates":[133.85,34.317]},"properties":{"Name":"中央体育館","Jusho":"香川県坂出市寿町3-1-2","kouzui":"×","gake":"○","takashio":"×","jishin":"○","tsunami":"×","kaji":"○","naisui":"×","kazan":"×"}}
,{"type":"Feature","geometry":{"type":"Point","coordinates":[133.853,34.299]},"properties":{"Name":"坂出中学校","Jusho":"香川県坂出市小山町2-1","kouzui":"○","gake":"○","takashio":"○","jishin":"○","tsunami":"○","kaji":"○","naisui":"○","kazan":"×"}}
,{"type":"Feature","geometry":{"type":"Point","coordinates":[133.85,34.352]},"properties":{"Name":"旧瀬居小学校","Jusho":"香川県坂出市瀬居町1500-1","kouzui":"○","gake":"○","takashio":"○","jishin":"○","tsunami":"○","kaji":"○","naisui":"○","kazan":"×"}}
,{"type":"Feature","geometry":{"type":"Point","coordinates":[133.898,34.31]},"properties":{"Name":"西庄文化センター　（西庄児童館含む）","Jusho":"香川県坂出市西庄町1155-1","kouzui":"○","gake":"○","takashio":"○","jishin":"○","tsunami":"○","kaji":"○","naisui":"○","kazan":"×"}}
,{"type":"Feature","geometry":{"type":"Point","coordinates":[133.889,34.317]},"properties":{"Name":"西庄公民館","Jusho":"香川県坂出市西庄町456-9","kouzui":"○","gake":"○","takashio":"○","jishin":"○","tsunami":"○","kaji":"○","naisui":"○","kazan":"×"}}
,{"type":"Feature","geometry":{"type":"Point","coordinates":[133.891,34.314]},"properties":{"Name":"西庄小学校","Jusho":"香川県坂出市西庄町524-5","kouzui":"○","gake":"○","takashio":"○","jishin":"○","tsunami":"○","kaji":"○","naisui":"○","kazan":"×"}}
,{"type":"Feature","geometry":{"type":"Point","coordinates":[133.854,34.306]},"properties":{"Name":"坂出商業高等学校　新体育館","Jusho":"香川県坂出市青葉町1-13","kouzui":"○","gake":"○","takashio":"○","jishin":"○","tsunami":"○","kaji":"○","naisui":"×","kazan":"×"}}
,{"type":"Feature","geometry":{"type":"Point","coordinates":[133.855,34.309]},"properties":{"Name":"香川大学附属坂出中学校　体育館","Jusho":"香川県坂出市青葉町1-7","kouzui":"○","gake":"○","takashio":"×","jishin":"○","tsunami":"○","kaji":"○","naisui":"○","kazan":"×"}}
,{"type":"Feature","geometry":{"type":"Point","coordinates":[133.857,34.294]},"properties":{"Name":"川津小学校","Jusho":"香川県坂出市川津町3093-3","kouzui":"○","gake":"○","takashio":"○","jishin":"○","tsunami":"○","kaji":"○","naisui":"○","kazan":"×"}}
,{"type":"Feature","geometry":{"type":"Point","coordinates":[133.852,34.292]},"properties":{"Name":"川津公民館","Jusho":"香川県坂出市川津町4939","kouzui":"○","gake":"○","takashio":"○","jishin":"○","tsunami":"○","kaji":"○","naisui":"○","kazan":"×"}}
,{"type":"Feature","geometry":{"type":"Point","coordinates":[133.84,34.286]},"properties":{"Name":"川津文化センター","Jusho":"香川県坂出市川津町6100","kouzui":"○","gake":"○","takashio":"○","jishin":"○","tsunami":"○","kaji":"○","naisui":"○","kazan":"×"}}
,{"type":"Feature","geometry":{"type":"Point","coordinates":[133.867,34.31]},"properties":{"Name":"金山小学校","Jusho":"香川県坂出市谷町3-1-23","kouzui":"○","gake":"○","takashio":"○","jishin":"○","tsunami":"○","kaji":"○","naisui":"○","kazan":"×"}}
,{"type":"Feature","geometry":{"type":"Point","coordinates":[133.853,34.305]},"properties":{"Name":"南部公民館","Jusho":"香川県坂出市池園町3-46","kouzui":"○","gake":"○","takashio":"○","jishin":"○","tsunami":"○","kaji":"○","naisui":"○","kazan":"×"}}
,{"type":"Feature","geometry":{"type":"Point","coordinates":[133.857,34.323]},"properties":{"Name":"坂出市立体育館","Jusho":"香川県坂出市入船町2-1-59","kouzui":"○","gake":"○","takashio":"○","jishin":"○","tsunami":"×","kaji":"×","naisui":"○","kazan":"×"}}
,{"type":"Feature","geometry":{"type":"Point","coordinates":[133.846,34.314]},"properties":{"Name":"坂出小学校","Jusho":"香川県坂出市白金町1-3-7","kouzui":"○","gake":"○","takashio":"○","jishin":"○","tsunami":"×","kaji":"○","naisui":"○","kazan":"×"}}
,{"type":"Feature","geometry":{"type":"Point","coordinates":[133.857,34.352]},"properties":{"Name":"旧瀬居中学校","Jusho":"香川県坂出市番の州町11","kouzui":"○","gake":"○","takashio":"○","jishin":"○","tsunami":"○","kaji":"○","naisui":"○","kazan":"×"}}
,{"type":"Feature","geometry":{"type":"Point","coordinates":[133.919,34.29]},"properties":{"Name":"府中公民館","Jusho":"香川県坂出市府中町1145-6","kouzui":"○","gake":"○","takashio":"○","jishin":"○","tsunami":"○","kaji":"○","naisui":"○","kazan":"×"}}
,{"type":"Feature","geometry":{"type":"Point","coordinates":[133.917,34.289]},"properties":{"Name":"府中小学校","Jusho":"香川県坂出市府中町1193-3","kouzui":"○","gake":"○","takashio":"○","jishin":"○","tsunami":"○","kaji":"○","naisui":"○","kazan":"×"}}
,{"type":"Feature","geometry":{"type":"Point","coordinates":[133.921,34.285]},"properties":{"Name":"香川県広域水道企業団　広域送水管理センター","Jusho":"香川県坂出市府中町1265-1","kouzui":"○","gake":"○","takashio":"○","jishin":"○","tsunami":"○","kaji":"○","naisui":"○","kazan":"×"}}
,{"type":"Feature","geometry":{"type":"Point","coordinates":[133.916,34.291]},"properties":{"Name":"香川県埋蔵文化財　センター","Jusho":"香川県坂出市府中町5001-4","kouzui":"○","gake":"○","takashio":"○","jishin":"○","tsunami":"○","kaji":"○","naisui":"○","kazan":"×"}}
,{"type":"Feature","geometry":{"type":"Point","coordinates":[133.853,34.309]},"properties":{"Name":"坂出高等学校　第２体育館","Jusho":"香川県坂出市文京町2-1-5","kouzui":"×","gake":"○","takashio":"×","jishin":"○","tsunami":"×","kaji":"○","naisui":"×","kazan":"×"}}
,{"type":"Feature","geometry":{"type":"Point","coordinates":[133.851,34.31]},"properties":{"Name":"香川大学附属坂出小学校　体育館","Jusho":"香川県坂出市文京町2-4-2","kouzui":"×","gake":"○","takashio":"×","jishin":"○","tsunami":"×","kaji":"○","naisui":"×","kazan":"×"}}
,{"type":"Feature","geometry":{"type":"Point","coordinates":[133.852,34.313]},"properties":{"Name":"市民ふれあい会館","Jusho":"香川県坂出市本町1-2-1","kouzui":"○","gake":"○","takashio":"○","jishin":"○","tsunami":"×","kaji":"○","naisui":"○","kazan":"×"}}
,{"type":"Feature","geometry":{"type":"Point","coordinates":[133.823,34.385]},"properties":{"Name":"中央公民館与島分館","Jusho":"香川県坂出市与島町102","kouzui":"○","gake":"○","takashio":"×","jishin":"○","tsunami":"×","kaji":"○","naisui":"○","kazan":"×"}}
,{"type":"Feature","geometry":{"type":"Point","coordinates":[133.819,34.39]},"properties":{"Name":"与島開発総合センター","Jusho":"香川県坂出市与島町514-22","kouzui":"○","gake":"○","takashio":"○","jishin":"○","tsunami":"○","kaji":"○","naisui":"○","kazan":"×"}}
,{"type":"Feature","geometry":{"type":"Point","coordinates":[133.9,34.326]},"properties":{"Name":"白峰中学校","Jusho":"香川県坂出市林田町181-1","kouzui":"○","gake":"○","takashio":"○","jishin":"○","tsunami":"○","kaji":"○","naisui":"○","kazan":"×"}}
,{"type":"Feature","geometry":{"type":"Point","coordinates":[133.89,34.328]},"properties":{"Name":"林田小学校","Jusho":"香川県坂出市林田町2215-1","kouzui":"○","gake":"○","takashio":"○","jishin":"○","tsunami":"○","kaji":"○","naisui":"○","kazan":"×"}}
,{"type":"Feature","geometry":{"type":"Point","coordinates":[133.891,34.327]},"properties":{"Name":"林田公民館","Jusho":"香川県坂出市林田町636-5","kouzui":"○","gake":"○","takashio":"○","jishin":"○","tsunami":"○","kaji":"○","naisui":"○","kazan":"×"}}
,{"type":"Feature","geometry":{"type":"Point","coordinates":[133.807,34.421]},"properties":{"Name":"中央公民館櫃石分館（旧櫃石小・中学校含む）","Jusho":"香川県坂出市櫃石585-17","kouzui":"○","gake":"○","takashio":"○","jishin":"○","tsunami":"○","kaji":"○","naisui":"○","kazan":"×"}}
,{"type":"Feature","geometry":{"type":"Point","coordinates":[133.781,34.235]},"properties":{"Name":"東部小学校","Jusho":"香川県善通寺市稲木町450-1","kouzui":"○","gake":"○","takashio":"×","jishin":"○","tsunami":"×","kaji":"×","naisui":"○","kazan":"×"}}
,{"type":"Feature","geometry":{"type":"Point","coordinates":[133.751,34.23]},"properties":{"Name":"吉原小学校","Jusho":"香川県善通寺市吉原町2811","kouzui":"○","gake":"○","takashio":"×","jishin":"○","tsunami":"×","kaji":"○","naisui":"○","kazan":"×"}}
,{"type":"Feature","geometry":{"type":"Point","coordinates":[133.792,34.239]},"properties":{"Name":"市民体育館","Jusho":"香川県善通寺市金蔵寺町398-6","kouzui":"○","gake":"○","takashio":"×","jishin":"○","tsunami":"×","kaji":"○","naisui":"○","kazan":"×"}}
,{"type":"Feature","geometry":{"type":"Point","coordinates":[133.793,34.249]},"properties":{"Name":"竜川小学校","Jusho":"香川県善通寺市原田町306-1","kouzui":"○","gake":"○","takashio":"×","jishin":"○","tsunami":"×","kaji":"○","naisui":"○","kazan":"×"}}
,{"type":"Feature","geometry":{"type":"Point","coordinates":[133.79,34.216]},"properties":{"Name":"南部小学校","Jusho":"香川県善通寺市生野町2990-1","kouzui":"○","gake":"×","takashio":"×","jishin":"○","tsunami":"×","kaji":"×","naisui":"○","kazan":"×"}}
,{"type":"Feature","geometry":{"type":"Point","coordinates":[133.787,34.225]},"properties":{"Name":"東中学校","Jusho":"香川県善通寺市生野本町2-14-1","kouzui":"○","gake":"○","takashio":"×","jishin":"○","tsunami":"×","kaji":"×","naisui":"○","kazan":"×"}}
,{"type":"Feature","geometry":{"type":"Point","coordinates":[133.773,34.22]},"properties":{"Name":"西部小学校","Jusho":"香川県善通寺市善通寺町1146","kouzui":"○","gake":"×","takashio":"×","jishin":"○","tsunami":"×","kaji":"×","naisui":"○","kazan":"×"}}
,{"type":"Feature","geometry":{"type":"Point","coordinates":[133.803,34.21]},"properties":{"Name":"南部公民館","Jusho":"香川県善通寺市大麻町1306-1","kouzui":"○","gake":"○","takashio":"×","jishin":"○","tsunami":"×","kaji":"×","naisui":"○","kazan":"×"}}
,{"type":"Feature","geometry":{"type":"Point","coordinates":[133.765,34.239]},"properties":{"Name":"筆岡小学校","Jusho":"香川県善通寺市中村町1575-2","kouzui":"○","gake":"○","takashio":"×","jishin":"○","tsunami":"×","kaji":"×","naisui":"○","kazan":"×"}}
,{"type":"Feature","geometry":{"type":"Point","coordinates":[133.781,34.223]},"properties":{"Name":"西中学校","Jusho":"香川県善通寺市文京町4-1-1","kouzui":"○","gake":"○","takashio":"×","jishin":"○","tsunami":"×","kaji":"×","naisui":"○","kazan":"×"}}
,{"type":"Feature","geometry":{"type":"Point","coordinates":[133.779,34.224]},"properties":{"Name":"中央小学校","Jusho":"香川県善通寺市文京町4-5-1","kouzui":"○","gake":"○","takashio":"×","jishin":"○","tsunami":"×","kaji":"×","naisui":"○","kazan":"×"}}
,{"type":"Feature","geometry":{"type":"Point","coordinates":[133.808,34.233]},"properties":{"Name":"与北小学校","Jusho":"香川県善通寺市与北町1238","kouzui":"○","gake":"○","takashio":"×","jishin":"○","tsunami":"×","kaji":"×","naisui":"○","kazan":"×"}}
,{"type":"Feature","geometry":{"type":"Point","coordinates":[133.701,34.096]},"properties":{"Name":"粟井小学校　（運動場）","Jusho":"香川県観音寺市粟井町1452","kouzui":"○","gake":"○","takashio":"○","jishin":"○","tsunami":"○","kaji":"○","naisui":"○","kazan":"×"}}
,{"type":"Feature","geometry":{"type":"Point","coordinates":[133.701,34.096]},"properties":{"Name":"粟井小学校　（体育館）","Jusho":"香川県観音寺市粟井町1452","kouzui":"○","gake":"○","takashio":"○","jishin":"○","tsunami":"○","kaji":"○","naisui":"○","kazan":"×"}}
,{"type":"Feature","geometry":{"type":"Point","coordinates":[133.701,34.095]},"properties":{"Name":"粟井公民館","Jusho":"香川県観音寺市粟井町1516","kouzui":"○","gake":"○","takashio":"○","jishin":"○","tsunami":"○","kaji":"○","naisui":"○","kazan":"×"}}
,{"type":"Feature","geometry":{"type":"Point","coordinates":[133.715,34.072]},"properties":{"Name":"ヤマギシズム　生活館（研鑽室）","Jusho":"香川県観音寺市粟井町4800-9","kouzui":"○","gake":"○","takashio":"○","jishin":"○","tsunami":"○","kaji":"○","naisui":"○","kazan":"×"}}
,{"type":"Feature","geometry":{"type":"Point","coordinates":[133.533,34.128]},"properties":{"Name":"伊吹支所","Jusho":"香川県観音寺市伊吹町209-2","kouzui":"○","gake":"○","takashio":"○","jishin":"×","tsunami":"○","kaji":"○","naisui":"○","kazan":"×"}}
,{"type":"Feature","geometry":{"type":"Point","coordinates":[133.539,34.129]},"properties":{"Name":"伊吹中学校・小学校（体育館）","Jusho":"香川県観音寺市伊吹町549","kouzui":"○","gake":"○","takashio":"○","jishin":"○","tsunami":"○","kaji":"○","naisui":"○","kazan":"×"}}
,{"type":"Feature","geometry":{"type":"Point","coordinates":[133.539,34.129]},"properties":{"Name":"伊吹中学校・小学校（運動場）","Jusho":"香川県観音寺市伊吹町549","kouzui":"○","gake":"○","takashio":"○","jishin":"○","tsunami":"○","kaji":"○","naisui":"○","kazan":"×"}}
,{"type":"Feature","geometry":{"type":"Point","coordinates":[133.653,34.126]},"properties":{"Name":"ハイスタッフホール（観音寺市民会館）","Jusho":"香川県観音寺市観音寺町1186-2","kouzui":"○","gake":"○","takashio":"○","jishin":"○","tsunami":"○","kaji":"○","naisui":"○","kazan":"×"}}
,{"type":"Feature","geometry":{"type":"Point","coordinates":[133.656,34.126]},"properties":{"Name":"市営明星団地　ほか（階段、踊り場）","Jusho":"香川県観音寺市観音寺町甲1011-11","kouzui":"×","gake":"×","takashio":"×","jishin":"×","tsunami":"○","kaji":"×","naisui":"×","kazan":"×"}}
,{"type":"Feature","geometry":{"type":"Point","coordinates":[133.648,34.126]},"properties":{"Name":"観音寺小学校　（校舎２階以上）","Jusho":"香川県観音寺市観音寺町甲2558-1","kouzui":"○","gake":"○","takashio":"○","jishin":"○","tsunami":"○","kaji":"○","naisui":"○","kazan":"×"}}
,{"type":"Feature","geometry":{"type":"Point","coordinates":[133.651,34.126]},"properties":{"Name":"鶴亀ハウス　（階段、踊り場）","Jusho":"香川県観音寺市観音寺町甲2972-7","kouzui":"×","gake":"×","takashio":"×","jishin":"×","tsunami":"○","kaji":"×","naisui":"×","kazan":"×"}}
,{"type":"Feature","geometry":{"type":"Point","coordinates":[133.651,34.13]},"properties":{"Name":"観音寺信用金庫本店（６階大会議室、各階ホール）","Jusho":"香川県観音寺市観音寺町甲3377-3","kouzui":"×","gake":"×","takashio":"×","jishin":"×","tsunami":"○","kaji":"×","naisui":"×","kazan":"×"}}
,{"type":"Feature","geometry":{"type":"Point","coordinates":[133.651,34.124]},"properties":{"Name":"主要地方道観音寺佐野線　昭和橋歩道","Jusho":"香川県観音寺市観音寺町甲２５７９－１地先","kouzui":"×","gake":"×","takashio":"×","jishin":"×","tsunami":"○","kaji":"×","naisui":"×","kazan":"×"}}
,{"type":"Feature","geometry":{"type":"Point","coordinates":[133.703,34.111]},"properties":{"Name":"豊田公民館","Jusho":"香川県観音寺市原町270-1","kouzui":"○","gake":"○","takashio":"○","jishin":"×","tsunami":"○","kaji":"○","naisui":"○","kazan":"×"}}
,{"type":"Feature","geometry":{"type":"Point","coordinates":[133.697,34.129]},"properties":{"Name":"一ノ谷小学校　（運動場）","Jusho":"香川県観音寺市古川町102-1","kouzui":"○","gake":"○","takashio":"○","jishin":"○","tsunami":"○","kaji":"○","naisui":"○","kazan":"×"}}
,{"type":"Feature","geometry":{"type":"Point","coordinates":[133.698,34.129]},"properties":{"Name":"一ノ谷小学校　（体育館）","Jusho":"香川県観音寺市古川町102-1","kouzui":"○","gake":"○","takashio":"○","jishin":"○","tsunami":"○","kaji":"○","naisui":"○","kazan":"×"}}
,{"type":"Feature","geometry":{"type":"Point","coordinates":[133.699,34.13]},"properties":{"Name":"一ノ谷公民館","Jusho":"香川県観音寺市古川町85-1","kouzui":"○","gake":"○","takashio":"○","jishin":"○","tsunami":"○","kaji":"○","naisui":"○","kazan":"×"}}
,{"type":"Feature","geometry":{"type":"Point","coordinates":[133.655,34.147]},"properties":{"Name":"高室小学校　（体育館）","Jusho":"香川県観音寺市高屋町1877-1","kouzui":"○","gake":"○","takashio":"○","jishin":"○","tsunami":"○","kaji":"○","naisui":"○","kazan":"×"}}
,{"type":"Feature","geometry":{"type":"Point","coordinates":[133.655,34.147]},"properties":{"Name":"高室小学校　（運動場）","Jusho":"香川県観音寺市高屋町1877-1","kouzui":"○","gake":"○","takashio":"○","jishin":"○","tsunami":"○","kaji":"○","naisui":"○","kazan":"×"}}
,{"type":"Feature","geometry":{"type":"Point","coordinates":[133.654,34.146]},"properties":{"Name":"高室公民館","Jusho":"香川県観音寺市高屋町884","kouzui":"○","gake":"○","takashio":"○","jishin":"○","tsunami":"○","kaji":"○","naisui":"○","kazan":"×"}}
,{"type":"Feature","geometry":{"type":"Point","coordinates":[133.662,34.129]},"properties":{"Name":"観音寺商工会議所（３階ホール及び大ホール）","Jusho":"香川県観音寺市坂本町1-1-25","kouzui":"○","gake":"○","takashio":"○","jishin":"○","tsunami":"○","kaji":"○","naisui":"○","kazan":"×"}}
,{"type":"Feature","geometry":{"type":"Point","coordinates":[133.659,34.127]},"properties":{"Name":"香川県西讃合同庁舎（３階会議室、２階以上西側外階段）","Jusho":"香川県観音寺市坂本町7-3-18","kouzui":"×","gake":"×","takashio":"×","jishin":"×","tsunami":"○","kaji":"×","naisui":"×","kazan":"×"}}
,{"type":"Feature","geometry":{"type":"Point","coordinates":[133.644,34.122]},"properties":{"Name":"田代マンション　（階段、踊り場）","Jusho":"香川県観音寺市三本松町2-7-15","kouzui":"×","gake":"×","takashio":"×","jishin":"×","tsunami":"○","kaji":"×","naisui":"×","kazan":"×"}}
,{"type":"Feature","geometry":{"type":"Point","coordinates":[133.645,34.153]},"properties":{"Name":"蓮光院","Jusho":"香川県観音寺市室本町314","kouzui":"×","gake":"×","takashio":"×","jishin":"×","tsunami":"○","kaji":"×","naisui":"×","kazan":"×"}}
,{"type":"Feature","geometry":{"type":"Point","coordinates":[133.675,34.128]},"properties":{"Name":"常磐小学校　（運動場）","Jusho":"香川県観音寺市植田町365","kouzui":"○","gake":"○","takashio":"○","jishin":"○","tsunami":"○","kaji":"○","naisui":"○","kazan":"×"}}
,{"type":"Feature","geometry":{"type":"Point","coordinates":[133.676,34.127]},"properties":{"Name":"常磐小学校　（体育館）","Jusho":"香川県観音寺市植田町365","kouzui":"○","gake":"○","takashio":"○","jishin":"○","tsunami":"○","kaji":"○","naisui":"○","kazan":"×"}}
,{"type":"Feature","geometry":{"type":"Point","coordinates":[133.703,34.11]},"properties":{"Name":"豊田小学校　（運動場）","Jusho":"香川県観音寺市新田町1413","kouzui":"○","gake":"○","takashio":"○","jishin":"○","tsunami":"○","kaji":"○","naisui":"○","kazan":"×"}}
,{"type":"Feature","geometry":{"type":"Point","coordinates":[133.702,34.11]},"properties":{"Name":"豊田小学校　（体育館）","Jusho":"香川県観音寺市新田町1413","kouzui":"○","gake":"○","takashio":"○","jishin":"○","tsunami":"○","kaji":"○","naisui":"○","kazan":"×"}}
,{"type":"Feature","geometry":{"type":"Point","coordinates":[133.638,34.119]},"properties":{"Name":"株式会社総合開発リネンサプライ事業部　（事務所２階会議室、産業リネン工場部分２階）","Jusho":"香川県観音寺市瀬戸町4-1-7","kouzui":"○","gake":"○","takashio":"○","jishin":"○","tsunami":"○","kaji":"○","naisui":"○","kazan":"×"}}
,{"type":"Feature","geometry":{"type":"Point","coordinates":[133.639,34.115]},"properties":{"Name":"（一財）阪大微生物病研究会瀬戸センター（管理棟３階研修ホール、９階講堂ホール）","Jusho":"香川県観音寺市瀬戸町4-1-70","kouzui":"×","gake":"×","takashio":"×","jishin":"×","tsunami":"○","kaji":"×","naisui":"×","kazan":"×"}}
,{"type":"Feature","geometry":{"type":"Point","coordinates":[133.687,34.061]},"properties":{"Name":"天理教西香川分教会","Jusho":"香川県観音寺市大野原町井関687-1","kouzui":"○","gake":"○","takashio":"○","jishin":"○","tsunami":"○","kaji":"○","naisui":"○","kazan":"×"}}
,{"type":"Feature","geometry":{"type":"Point","coordinates":[133.698,34.091]},"properties":{"Name":"燧望苑　（駐車場）","Jusho":"香川県観音寺市大野原町丸井1183","kouzui":"○","gake":"○","takashio":"○","jishin":"○","tsunami":"○","kaji":"○","naisui":"○","kazan":"×"}}
,{"type":"Feature","geometry":{"type":"Point","coordinates":[133.699,34.091]},"properties":{"Name":"燧望苑　（建物）","Jusho":"香川県観音寺市大野原町丸井1183","kouzui":"○","gake":"○","takashio":"○","jishin":"○","tsunami":"○","kaji":"○","naisui":"○","kazan":"×"}}
,{"type":"Feature","geometry":{"type":"Point","coordinates":[133.69,34.094]},"properties":{"Name":"旧紀伊小学校　（体育館）","Jusho":"香川県観音寺市大野原町丸井313","kouzui":"○","gake":"○","takashio":"○","jishin":"○","tsunami":"○","kaji":"○","naisui":"○","kazan":"×"}}
,{"type":"Feature","geometry":{"type":"Point","coordinates":[133.69,34.095]},"properties":{"Name":"旧紀伊小学校　（運動場）","Jusho":"香川県観音寺市大野原町丸井313","kouzui":"○","gake":"○","takashio":"○","jishin":"○","tsunami":"○","kaji":"○","naisui":"○","kazan":"×"}}
,{"type":"Feature","geometry":{"type":"Point","coordinates":[133.664,34.087]},"properties":{"Name":"大野原小学校　（運動場）","Jusho":"香川県観音寺市大野原町大野原1905","kouzui":"○","gake":"○","takashio":"○","jishin":"○","tsunami":"○","kaji":"○","naisui":"○","kazan":"×"}}
,{"type":"Feature","geometry":{"type":"Point","coordinates":[133.664,34.086]},"properties":{"Name":"大野原農業者　トレーニングセンター","Jusho":"香川県観音寺市大野原町大野原1994","kouzui":"○","gake":"○","takashio":"○","jishin":"○","tsunami":"○","kaji":"○","naisui":"○","kazan":"×"}}
,{"type":"Feature","geometry":{"type":"Point","coordinates":[133.668,34.088]},"properties":{"Name":"大野原中学校　（運動場）","Jusho":"香川県観音寺市大野原町中姫1189-3","kouzui":"○","gake":"○","takashio":"○","jishin":"○","tsunami":"○","kaji":"○","naisui":"○","kazan":"×"}}
,{"type":"Feature","geometry":{"type":"Point","coordinates":[133.668,34.088]},"properties":{"Name":"大野原中学校　（体育館）","Jusho":"香川県観音寺市大野原町中姫1189-3","kouzui":"○","gake":"○","takashio":"○","jishin":"○","tsunami":"○","kaji":"○","naisui":"○","kazan":"×"}}
,{"type":"Feature","geometry":{"type":"Point","coordinates":[133.669,34.087]},"properties":{"Name":"大野原中学校　（武道場）","Jusho":"香川県観音寺市大野原町中姫1189-3","kouzui":"○","gake":"○","takashio":"○","jishin":"○","tsunami":"○","kaji":"○","naisui":"○","kazan":"×"}}
,{"type":"Feature","geometry":{"type":"Point","coordinates":[133.659,34.04]},"properties":{"Name":"田野々　自治会館","Jusho":"香川県観音寺市大野原町田野々743-1","kouzui":"○","gake":"×","takashio":"○","jishin":"○","tsunami":"○","kaji":"○","naisui":"○","kazan":"×"}}
,{"type":"Feature","geometry":{"type":"Point","coordinates":[133.68,34.077]},"properties":{"Name":"旧萩原小学校　（体育館）","Jusho":"香川県観音寺市大野原町萩原2354","kouzui":"○","gake":"○","takashio":"○","jishin":"○","tsunami":"○","kaji":"○","naisui":"○","kazan":"×"}}
,{"type":"Feature","geometry":{"type":"Point","coordinates":[133.68,34.077]},"properties":{"Name":"旧萩原小学校　（運動場）","Jusho":"香川県観音寺市大野原町萩原2354","kouzui":"○","gake":"○","takashio":"○","jishin":"○","tsunami":"○","kaji":"○","naisui":"○","kazan":"×"}}
,{"type":"Feature","geometry":{"type":"Point","coordinates":[133.687,34.111]},"properties":{"Name":"総合運動公園","Jusho":"香川県観音寺市池之尻町1071","kouzui":"○","gake":"○","takashio":"○","jishin":"○","tsunami":"○","kaji":"○","naisui":"○","kazan":"×"}}
,{"type":"Feature","geometry":{"type":"Point","coordinates":[133.686,34.109]},"properties":{"Name":"市立総合体育館","Jusho":"香川県観音寺市池之尻町1071","kouzui":"○","gake":"○","takashio":"○","jishin":"○","tsunami":"○","kaji":"○","naisui":"○","kazan":"×"}}
,{"type":"Feature","geometry":{"type":"Point","coordinates":[133.65,34.122]},"properties":{"Name":"市営下津団地　（階段、踊り場）","Jusho":"香川県観音寺市南町2-1","kouzui":"×","gake":"×","takashio":"×","jishin":"×","tsunami":"○","kaji":"×","naisui":"×","kazan":"×"}}
,{"type":"Feature","geometry":{"type":"Point","coordinates":[133.646,34.133]},"properties":{"Name":"琴弾山","Jusho":"香川県観音寺市八幡町1-1-1","kouzui":"○","gake":"○","takashio":"○","jishin":"○","tsunami":"○","kaji":"○","naisui":"○","kazan":"×"}}
,{"type":"Feature","geometry":{"type":"Point","coordinates":[133.646,34.137]},"properties":{"Name":"観音寺中学校　（体育館）","Jusho":"香川県観音寺市八幡町2-10-7","kouzui":"○","gake":"○","takashio":"○","jishin":"○","tsunami":"○","kaji":"○","naisui":"○","kazan":"×"}}
,{"type":"Feature","geometry":{"type":"Point","coordinates":[133.645,34.136]},"properties":{"Name":"観音寺中学校　（武道場）","Jusho":"香川県観音寺市八幡町2-10-7","kouzui":"○","gake":"○","takashio":"○","jishin":"○","tsunami":"○","kaji":"○","naisui":"○","kazan":"×"}}
,{"type":"Feature","geometry":{"type":"Point","coordinates":[133.646,34.136]},"properties":{"Name":"観音寺中学校　（運動場）","Jusho":"香川県観音寺市八幡町2-10-7","kouzui":"○","gake":"○","takashio":"○","jishin":"○","tsunami":"○","kaji":"○","naisui":"○","kazan":"×"}}
,{"type":"Feature","geometry":{"type":"Point","coordinates":[133.649,34.138]},"properties":{"Name":"興昌寺山","Jusho":"香川県観音寺市八幡町2-7-2","kouzui":"×","gake":"×","takashio":"×","jishin":"×","tsunami":"○","kaji":"×","naisui":"×","kazan":"×"}}
,{"type":"Feature","geometry":{"type":"Point","coordinates":[133.637,34.058]},"properties":{"Name":"西日本高速道路豊浜ＳＡ　（上り線職員用駐車場）","Jusho":"香川県観音寺市豊浜町箕浦甲2200-1","kouzui":"×","gake":"×","takashio":"×","jishin":"×","tsunami":"○","kaji":"×","naisui":"×","kazan":"×"}}
,{"type":"Feature","geometry":{"type":"Point","coordinates":[133.642,34.073]},"properties":{"Name":"豊浜小学校　（運動場）","Jusho":"香川県観音寺市豊浜町和田浜1000","kouzui":"○","gake":"○","takashio":"○","jishin":"○","tsunami":"○","kaji":"○","naisui":"○","kazan":"×"}}
,{"type":"Feature","geometry":{"type":"Point","coordinates":[133.643,34.072]},"properties":{"Name":"豊浜小学校　（体育館）","Jusho":"香川県観音寺市豊浜町和田浜1000","kouzui":"○","gake":"○","takashio":"○","jishin":"○","tsunami":"○","kaji":"○","naisui":"○","kazan":"×"}}
,{"type":"Feature","geometry":{"type":"Point","coordinates":[133.643,34.077]},"properties":{"Name":"豊浜中学校　（体育館）","Jusho":"香川県観音寺市豊浜町和田浜717","kouzui":"○","gake":"○","takashio":"○","jishin":"○","tsunami":"○","kaji":"○","naisui":"○","kazan":"×"}}
,{"type":"Feature","geometry":{"type":"Point","coordinates":[133.643,34.077]},"properties":{"Name":"豊浜中学校　（運動場）","Jusho":"香川県観音寺市豊浜町和田浜717","kouzui":"○","gake":"○","takashio":"○","jishin":"○","tsunami":"○","kaji":"○","naisui":"○","kazan":"×"}}
,{"type":"Feature","geometry":{"type":"Point","coordinates":[133.643,34.077]},"properties":{"Name":"豊浜中学校　（武道場）","Jusho":"香川県観音寺市豊浜町和田浜717","kouzui":"○","gake":"○","takashio":"○","jishin":"○","tsunami":"○","kaji":"○","naisui":"○","kazan":"×"}}
,{"type":"Feature","geometry":{"type":"Point","coordinates":[133.642,34.075]},"properties":{"Name":"豊浜総合体育館","Jusho":"香川県観音寺市豊浜町和田浜784-1","kouzui":"○","gake":"○","takashio":"○","jishin":"○","tsunami":"○","kaji":"○","naisui":"○","kazan":"×"}}
,{"type":"Feature","geometry":{"type":"Point","coordinates":[133.641,34.075]},"properties":{"Name":"豊浜総合体育館　（駐車場）","Jusho":"香川県観音寺市豊浜町和田浜784-1","kouzui":"○","gake":"○","takashio":"○","jishin":"○","tsunami":"○","kaji":"○","naisui":"○","kazan":"×"}}
,{"type":"Feature","geometry":{"type":"Point","coordinates":[133.697,34.134]},"properties":{"Name":"遊食房屋観音寺総本店","Jusho":"香川県観音寺市本大町","kouzui":"○","gake":"○","takashio":"○","jishin":"○","tsunami":"○","kaji":"○","naisui":"○","kazan":"×"}}
,{"type":"Feature","geometry":{"type":"Point","coordinates":[133.673,34.137]},"properties":{"Name":"コミュニティー　防災センター","Jusho":"香川県観音寺市流岡町475","kouzui":"○","gake":"○","takashio":"○","jishin":"○","tsunami":"○","kaji":"○","naisui":"○","kazan":"×"}}
,{"type":"Feature","geometry":{"type":"Point","coordinates":[133.66,34.109]},"properties":{"Name":"柞田小学校　（体育館）","Jusho":"香川県観音寺市柞田町乙1000-1","kouzui":"○","gake":"○","takashio":"○","jishin":"○","tsunami":"○","kaji":"○","naisui":"○","kazan":"×"}}
,{"type":"Feature","geometry":{"type":"Point","coordinates":[133.66,34.109]},"properties":{"Name":"柞田小学校　（運動場）","Jusho":"香川県観音寺市柞田町乙1000-1","kouzui":"○","gake":"○","takashio":"○","jishin":"○","tsunami":"○","kaji":"○","naisui":"○","kazan":"×"}}
,{"type":"Feature","geometry":{"type":"Point","coordinates":[133.666,34.119]},"properties":{"Name":"中部中学校　（体育館）","Jusho":"香川県観音寺市柞田町甲1237","kouzui":"○","gake":"○","takashio":"○","jishin":"○","tsunami":"○","kaji":"○","naisui":"○","kazan":"×"}}
,{"type":"Feature","geometry":{"type":"Point","coordinates":[133.665,34.12]},"properties":{"Name":"中部中学校　（武道場）","Jusho":"香川県観音寺市柞田町甲1237","kouzui":"○","gake":"○","takashio":"○","jishin":"○","tsunami":"○","kaji":"○","naisui":"○","kazan":"×"}}
,{"type":"Feature","geometry":{"type":"Point","coordinates":[133.664,34.119]},"properties":{"Name":"中部中学校　（運動場）","Jusho":"香川県観音寺市柞田町甲1237","kouzui":"○","gake":"○","takashio":"○","jishin":"○","tsunami":"○","kaji":"○","naisui":"○","kazan":"×"}}
,{"type":"Feature","geometry":{"type":"Point","coordinates":[133.662,34.108]},"properties":{"Name":"観音寺中央幼稚園　（駐車場）","Jusho":"香川県観音寺市柞田町丙1566","kouzui":"○","gake":"○","takashio":"○","jishin":"○","tsunami":"○","kaji":"○","naisui":"○","kazan":"×"}}
,{"type":"Feature","geometry":{"type":"Point","coordinates":[134.211,34.328]},"properties":{"Name":"生涯学習館（屋内）","Jusho":"香川県さぬき市鴨庄1973-3","kouzui":"×","gake":"○","takashio":"×","jishin":"×","tsunami":"×","kaji":"×","naisui":"×","kazan":"×"}}
,{"type":"Feature","geometry":{"type":"Point","coordinates":[134.211,34.329]},"properties":{"Name":"生涯学習館（屋外）","Jusho":"香川県さぬき市鴨庄1973-3","kouzui":"×","gake":"×","takashio":"×","jishin":"○","tsunami":"○","kaji":"○","naisui":"×","kazan":"×"}}
,{"type":"Feature","geometry":{"type":"Point","coordinates":[134.208,34.323]},"properties":{"Name":"志度東体育館　（屋外）","Jusho":"香川県さぬき市鴨庄2550-39","kouzui":"×","gake":"×","takashio":"○","jishin":"○","tsunami":"○","kaji":"○","naisui":"×","kazan":"×"}}
,{"type":"Feature","geometry":{"type":"Point","coordinates":[134.209,34.323]},"properties":{"Name":"志度東体育館　（屋内）","Jusho":"香川県さぬき市鴨庄2550-39","kouzui":"○","gake":"○","takashio":"○","jishin":"×","tsunami":"×","kaji":"×","naisui":"○","kazan":"×"}}
,{"type":"Feature","geometry":{"type":"Point","coordinates":[134.193,34.327]},"properties":{"Name":"志度総合運動公園","Jusho":"香川県さぬき市鴨庄4305-1","kouzui":"×","gake":"×","takashio":"○","jishin":"○","tsunami":"○","kaji":"○","naisui":"×","kazan":"×"}}
,{"type":"Feature","geometry":{"type":"Point","coordinates":[134.222,34.335]},"properties":{"Name":"日盛の里駐車場","Jusho":"香川県さぬき市鴨庄4481-2","kouzui":"×","gake":"×","takashio":"○","jishin":"○","tsunami":"○","kaji":"○","naisui":"×","kazan":"×"}}
,{"type":"Feature","geometry":{"type":"Point","coordinates":[134.193,34.337]},"properties":{"Name":"旧雇用促進住宅　鴨庄住宅駐車場","Jusho":"香川県さぬき市鴨庄4600-22","kouzui":"×","gake":"×","takashio":"○","jishin":"○","tsunami":"○","kaji":"○","naisui":"×","kazan":"×"}}
,{"type":"Feature","geometry":{"type":"Point","coordinates":[134.194,34.325]},"properties":{"Name":"志度構造改善センター（屋内）","Jusho":"香川県さぬき市鴨庄4610-45","kouzui":"○","gake":"○","takashio":"○","jishin":"×","tsunami":"×","kaji":"×","naisui":"○","kazan":"×"}}
,{"type":"Feature","geometry":{"type":"Point","coordinates":[134.194,34.325]},