var kagawa={"type":"FeatureCollection","name":"kagawa","features":[
{"type":"Feature","geometry":{"type":"Point","coordinates":[134.03,34.347]},"properties":{"Name":"日新小学校跡施設","Jusho":"香川県高松市瀬戸内町１８-２","kouzui":"○","gake":"○","takashio":"○","jishin":"○","tsunami":"○","kaji":"○","naisui":"○","kazan":"×"}}
,{"type":"Feature","geometry":{"type":"Point","coordinates":[134.041,34.346]},"properties":{"Name":"新番丁小学校","Jusho":"香川県高松市錦町２-１４-１","kouzui":"○","gake":"○","takashio":"○","jishin":"○","tsunami":"○","kaji":"○","naisui":"○","kazan":"×"}}
,{"type":"Feature","geometry":{"type":"Point","coordinates":[134.047,34.343]},"properties":{"Name":"四番丁小学校跡施設","Jusho":"香川県高松市番町１-５-１","kouzui":"○","gake":"○","takashio":"○","jishin":"○","tsunami":"○","kaji":"○","naisui":"○","kazan":"×"}}
,{"type":"Feature","geometry":{"type":"Point","coordinates":[134.04,34.338]},"properties":{"Name":"亀阜小学校","Jusho":"香川県高松市亀岡町１０-１","kouzui":"○","gake":"○","takashio":"○","jishin":"○","tsunami":"○","kaji":"○","naisui":"○","kazan":"×"}}
,{"type":"Feature","geometry":{"type":"Point","coordinates":[134.05,34.331]},"properties":{"Name":"栗林小学校","Jusho":"香川県高松市栗林町２-１０-７","kouzui":"○","gake":"○","takashio":"○","jishin":"○","tsunami":"○","kaji":"○","naisui":"○","kazan":"×"}}
,{"type":"Feature","geometry":{"type":"Point","coordinates":[134.058,34.334]},"properties":{"Name":"花園小学校","Jusho":"香川県高松市花園町２-７-７","kouzui":"○","gake":"○","takashio":"○","jishin":"○","tsunami":"○","kaji":"○","naisui":"○","kazan":"×"}}
,{"type":"Feature","geometry":{"type":"Point","coordinates":[134.057,34.341]},"properties":{"Name":"築地小学校跡施設","Jusho":"香川県高松市築地町１４-１","kouzui":"○","gake":"○","takashio":"○","jishin":"○","tsunami":"○","kaji":"○","naisui":"○","kazan":"×"}}
,{"type":"Feature","geometry":{"type":"Point","coordinates":[134.056,34.344]},"properties":{"Name":"総合教育センター","Jusho":"香川県高松市末広町５","kouzui":"○","gake":"○","takashio":"○","jishin":"○","tsunami":"○","kaji":"○","naisui":"○","kazan":"×"}}
,{"type":"Feature","geometry":{"type":"Point","coordinates":[134.028,34.315]},"properties":{"Name":"鶴尾小学校","Jusho":"香川県高松市松並町６３６-１","kouzui":"○","gake":"○","takashio":"○","jishin":"○","tsunami":"○","kaji":"○","naisui":"○","kazan":"×"}}
,{"type":"Feature","geometry":{"type":"Point","coordinates":[134.052,34.312]},"properties":{"Name":"太田小学校","Jusho":"香川県高松市伏石町８４５-１","kouzui":"○","gake":"○","takashio":"○","jishin":"○","tsunami":"○","kaji":"○","naisui":"○","kazan":"×"}}
,{"type":"Feature","geometry":{"type":"Point","coordinates":[134.044,34.306]},"properties":{"Name":"太田南小学校","Jusho":"香川県高松市太田下町１８２３-１","kouzui":"○","gake":"○","takashio":"○","jishin":"○","tsunami":"○","kaji":"○","naisui":"○","kazan":"×"}}
,{"type":"Feature","geometry":{"type":"Point","coordinates":[134.063,34.311]},"properties":{"Name":"中央小学校","Jusho":"香川県高松市松縄町８０７-１","kouzui":"○","gake":"○","takashio":"○","jishin":"○","tsunami":"○","kaji":"○","naisui":"○","kazan":"×"}}
,{"type":"Feature","geometry":{"type":"Point","coordinates":[134.077,34.326]},"properties":{"Name":"木太小学校","Jusho":"香川県高松市木太町３４８０-１","kouzui":"○","gake":"○","takashio":"○","jishin":"○","tsunami":"○","kaji":"○","naisui":"○","kazan":"×"}}
,{"type":"Feature","geometry":{"type":"Point","coordinates":[134.081,34.336]},"properties":{"Name":"木太北部小学校","Jusho":"香川県高松市木太町２６１３","kouzui":"○","gake":"○","takashio":"○","jishin":"○","tsunami":"○","kaji":"○","naisui":"○","kazan":"×"}}
,{"type":"Feature","geometry":{"type":"Point","coordinates":[134.074,34.321]},"properties":{"Name":"木太南小学校","Jusho":"香川県高松市木太町１５３０-１","kouzui":"○","gake":"○","takashio":"○","jishin":"○","tsunami":"○","kaji":"○","naisui":"○","kazan":"×"}}
,{"type":"Feature","geometry":{"type":"Point","coordinates":[134.107,34.332]},"properties":{"Name":"古高松小学校","Jusho":"香川県高松市高松町３９８","kouzui":"○","gake":"○","takashio":"○","jishin":"○","tsunami":"○","kaji":"○","naisui":"○","kazan":"×"}}
,{"type":"Feature","geometry":{"type":"Point","coordinates":[134.099,34.328]},"properties":{"Name":"古高松南小学校","Jusho":"香川県高松市新田町甲２６０５","kouzui":"○","gake":"○","takashio":"○","jishin":"○","tsunami":"○","kaji":"○","naisui":"○","kazan":"×"}}
,{"type":"Feature","geometry":{"type":"Point","coordinates":[134.099,34.348]},"properties":{"Name":"屋島小学校","Jusho":"香川県高松市屋島西町１２０５-１","kouzui":"○","gake":"×","takashio":"○","jishin":"○","tsunami":"○","kaji":"○","naisui":"○","kazan":"×"}}
,{"type":"Feature","geometry":{"type":"Point","coordinates":[134.09,34.351]},"properties":{"Name":"屋島西小学校","Jusho":"香川県高松市屋島西町２４６９","kouzui":"○","gake":"○","takashio":"○","jishin":"○","tsunami":"○","kaji":"○","naisui":"○","kazan":"×"}}
,{"type":"Feature","geometry":{"type":"Point","coordinates":[134.116,34.354]},"properties":{"Name":"屋島東小学校","Jusho":"香川県高松市屋島東町９４２-１","kouzui":"○","gake":"○","takashio":"○","jishin":"○","tsunami":"○","kaji":"○","naisui":"○","kazan":"×"}}
,{"type":"Feature","geometry":{"type":"Point","coordinates":[134.113,34.296]},"properties":{"Name":"前田小学校","Jusho":"香川県高松市前田東町８１９-３","kouzui":"○","gake":"○","takashio":"○","jishin":"○","tsunami":"○","kaji":"○","naisui":"○","kazan":"×"}}
,{"type":"Feature","geometry":{"type":"Point","coordinates":[134.093,34.307]},"properties":{"Name":"川添小学校","Jusho":"香川県高松市東山崎町２０７-１","kouzui":"○","gake":"○","takashio":"○","jishin":"○","tsunami":"○","kaji":"○","naisui":"○","kazan":"×"}}
,{"type":"Feature","geometry":{"type":"Point","coordinates":[134.07,34.302]},"properties":{"Name":"林小学校","Jusho":"香川県高松市林町１１０８-１","kouzui":"○","gake":"○","takashio":"○","jishin":"○","tsunami":"○","kaji":"○","naisui":"○","kazan":"×"}}
,{"type":"Feature","geometry":{"type":"Point","coordinates":[134.069,34.274]},"properties":{"Name":"三渓小学校","Jusho":"香川県高松市三谷町２１７３-１","kouzui":"○","gake":"○","takashio":"○","jishin":"○","tsunami":"○","kaji":"○","naisui":"○","kazan":"×"}}
,{"type":"Feature","geometry":{"type":"Point","coordinates":[134.047,34.274]},"properties":{"Name":"仏生山小学校","Jusho":"香川県高松市仏生山町甲２４６１","kouzui":"○","gake":"○","takashio":"○","jishin":"○","tsunami":"○","kaji":"○","naisui":"○","kazan":"×"}}
,{"type":"Feature","geometry":{"type":"Point","coordinates":[134.053,34.293]},"properties":{"Name":"多肥小学校","Jusho":"香川県高松市多肥上町９０２-２","kouzui":"○","gake":"○","takashio":"○","jishin":"○","tsunami":"○","kaji":"○","naisui":"○","kazan":"×"}}
,{"type":"Feature","geometry":{"type":"Point","coordinates":[134.024,34.291]},"properties":{"Name":"一宮小学校","Jusho":"香川県高松市一宮町６７２-１","kouzui":"○","gake":"○","takashio":"○","jishin":"○","tsunami":"○","kaji":"○","naisui":"○","kazan":"×"}}
,{"type":"Feature","geometry":{"type":"Point","coordinates":[134.005,34.285]},"properties":{"Name":"円座小学校","Jusho":"香川県高松市円座町１６３０-２","kouzui":"○","gake":"○","takashio":"○","jishin":"○","tsunami":"○","kaji":"○","naisui":"○","kazan":"×"}}
,{"type":"Feature","geometry":{"type":"Point","coordinates":[134.006,34.267]},"properties":{"Name":"川岡小学校","Jusho":"香川県高松市川部町１５５２","kouzui":"○","gake":"○","takashio":"○","jishin":"○","tsunami":"○","kaji":"○","naisui":"○","kazan":"×"}}
,{"type":"Feature","geometry":{"type":"Point","coordinates":[133.994,34.3]},"properties":{"Name":"檀紙小学校","Jusho":"香川県高松市御厩町８１６","kouzui":"○","gake":"○","takashio":"○","jishin":"○","tsunami":"○","kaji":"○","naisui":"○","kazan":"×"}}
,{"type":"Feature","geometry":{"type":"Point","coordinates":[134.005,34.329]},"properties":{"Name":"弦打小学校","Jusho":"香川県高松市鶴市町３７４-１","kouzui":"○","gake":"○","takashio":"○","jishin":"○","tsunami":"○","kaji":"○","naisui":"○","kazan":"×"}}
,{"type":"Feature","geometry":{"type":"Point","coordinates":[133.989,34.327]},"properties":{"Name":"鬼無小学校","Jusho":"香川県高松市鬼無町佐藤６０７-１","kouzui":"○","gake":"○","takashio":"○","jishin":"○","tsunami":"○","kaji":"○","naisui":"○","kazan":"×"}}
,{"type":"Feature","geometry":{"type":"Point","coordinates":[133.999,34.345]},"properties":{"Name":"香西小学校","Jusho":"香川県高松市香西南町７０３-１","kouzui":"○","gake":"○","takashio":"○","jishin":"○","tsunami":"○","kaji":"○","naisui":"○","kazan":"×"}}
,{"type":"Feature","geometry":{"type":"Point","coordinates":[133.969,34.358]},"properties":{"Name":"下笠居小学校","Jusho":"香川県高松市生島町３４５","kouzui":"○","gake":"○","takashio":"○","jishin":"○","tsunami":"○","kaji":"○","naisui":"○","kazan":"×"}}
,{"type":"Feature","geometry":{"type":"Point","coordinates":[134.053,34.392]},"properties":{"Name":"女木小学校","Jusho":"香川県高松市女木町２３６-２","kouzui":"○","gake":"○","takashio":"○","jishin":"○","tsunami":"○","kaji":"○","naisui":"○","kazan":"×"}}
,{"type":"Feature","geometry":{"type":"Point","coordinates":[134.057,34.42]},"properties":{"Name":"男木小学校","Jusho":"香川県高松市男木町１６５","kouzui":"○","gake":"○","takashio":"○","jishin":"○","tsunami":"○","kaji":"○","naisui":"○","kazan":"×"}}
,{"type":"Feature","geometry":{"type":"Point","coordinates":[134.089,34.276]},"properties":{"Name":"川島小学校","Jusho":"香川県高松市川島東町８６４-１","kouzui":"○","gake":"○","takashio":"○","jishin":"○","tsunami":"○","kaji":"○","naisui":"○","kazan":"×"}}
,{"type":"Feature","geometry":{"type":"Point","coordinates":[134.103,34.275]},"properties":{"Name":"十河小学校","Jusho":"香川県高松市十川西町３６６-５","kouzui":"○","gake":"○","takashio":"○","jishin":"○","tsunami":"○","kaji":"○","naisui":"○","kazan":"×"}}
,{"type":"Feature","geometry":{"type":"Point","coordinates":[134.079,34.239]},"properties":{"Name":"植田小学校","Jusho":"香川県高松市西植田町２３３７","kouzui":"○","gake":"×","takashio":"○","jishin":"○","tsunami":"○","kaji":"○","naisui":"○","kazan":"×"}}
,{"type":"Feature","geometry":{"type":"Point","coordinates":[134.098,34.239]},"properties":{"Name":"東植田小学校","Jusho":"香川県高松市東植田町２００８","kouzui":"○","gake":"○","takashio":"○","jishin":"○","tsunami":"○","kaji":"○","naisui":"○","kazan":"×"}}
,{"type":"Feature","geometry":{"type":"Point","coordinates":[134.098,34.194]},"properties":{"Name":"東植田小学校菅沢分校","Jusho":"香川県高松市菅沢町３３９","kouzui":"○","gake":"○","takashio":"○","jishin":"○","tsunami":"○","kaji":"○","naisui":"○","kazan":"×"}}
,{"type":"Feature","geometry":{"type":"Point","coordinates":[134.052,34.327]},"properties":{"Name":"桜町中学校","Jusho":"香川県高松市桜町２-１２-４","kouzui":"○","gake":"○","takashio":"○","jishin":"○","tsunami":"○","kaji":"○","naisui":"○","kazan":"×"}}
,{"type":"Feature","geometry":{"type":"Point","coordinates":[134.033,34.341]},"properties":{"Name":"紫雲中学校","Jusho":"香川県高松市紫雲町８-２５","kouzui":"○","gake":"○","takashio":"○","jishin":"○","tsunami":"○","kaji":"○","naisui":"○","kazan":"×"}}
,{"type":"Feature","geometry":{"type":"Point","coordinates":[134.066,34.333]},"properties":{"Name":"玉藻中学校","Jusho":"香川県高松市上福岡町７１４-１","kouzui":"○","gake":"○","takashio":"○","jishin":"○","tsunami":"○","kaji":"○","naisui":"○","kazan":"×"}}
,{"type":"Feature","geometry":{"type":"Point","coordinates":[134.062,34.339]},"properties":{"Name":"高松第一学園（高松第一小・中学校）","Jusho":"香川県高松市松島町２-１４-５","kouzui":"○","gake":"○","takashio":"○","jishin":"○","tsunami":"○","kaji":"○","naisui":"○","kazan":"×"}}
,{"type":"Feature","geometry":{"type":"Point","coordinates":[134.026,34.316]},"properties":{"Name":"鶴尾中学校","Jusho":"香川県高松市松並町６３９-１","kouzui":"○","gake":"○","takashio":"○","jishin":"○","tsunami":"○","kaji":"○","naisui":"○","kazan":"×"}}
,{"type":"Feature","geometry":{"type":"Point","coordinates":[134.105,34.341]},"properties":{"Name":"屋島中学校","Jusho":"香川県高松市屋島中町２９５","kouzui":"○","gake":"○","takashio":"○","jishin":"○","tsunami":"○","kaji":"○","naisui":"○","kazan":"×"}}
,{"type":"Feature","geometry":{"type":"Point","coordinates":[134.086,34.307]},"properties":{"Name":"協和中学校","Jusho":"香川県高松市元山町８８-２","kouzui":"○","gake":"○","takashio":"○","jishin":"○","tsunami":"○","kaji":"○","naisui":"○","kazan":"×"}}
,{"type":"Feature","geometry":{"type":"Point","coordinates":[134.051,34.283]},"properties":{"Name":"龍雲中学校","Jusho":"香川県高松市出作町３３１-２","kouzui":"○","gake":"○","takashio":"○","jishin":"○","tsunami":"○","kaji":"○","naisui":"○","kazan":"×"}}
,{"type":"Feature","geometry":{"type":"Point","coordinates":[133.999,34.343]},"properties":{"Name":"勝賀中学校","Jusho":"香川県高松市香西南町５６５","kouzui":"○","gake":"○","takashio":"○","jishin":"○","tsunami":"○","kaji":"○","naisui":"○","kazan":"×"}}
,{"type":"Feature","geometry":{"type":"Point","coordinates":[134.024,34.293]},"properties":{"Name":"一宮中学校","Jusho":"香川県高松市一宮町１１８５-１","kouzui":"○","gake":"○","takashio":"○","jishin":"○","tsunami":"○","kaji":"○","naisui":"○","kazan":"×"}}
,{"type":"Feature","geometry":{"type":"Point","coordinates":[134.01,34.295]},"properties":{"Name":"香東中学校","Jusho":"香川県高松市円座町７７１","kouzui":"○","gake":"○","takashio":"○","jishin":"○","tsunami":"○","kaji":"○","naisui":"○","kazan":"×"}}
,{"type":"Feature","geometry":{"type":"Point","coordinates":[133.967,34.358]},"properties":{"Name":"下笠居中学校","Jusho":"香川県高松市生島町３７２-１","kouzui":"○","gake":"○","takashio":"○","jishin":"○","tsunami":"○","kaji":"○","naisui":"○","kazan":"×"}}
,{"type":"Feature","geometry":{"type":"Point","coordinates":[134.092,34.268]},"properties":{"Name":"山田中学校","Jusho":"香川県高松市川島東町１２５７-１","kouzui":"○","gake":"○","takashio":"○","jishin":"○","tsunami":"○","kaji":"○","naisui":"○","kazan":"×"}}
,{"type":"Feature","geometry":{"type":"Point","coordinates":[134.045,34.306]},"properties":{"Name":"太田中学校","Jusho":"香川県高松市太田下町１８００","kouzui":"○","gake":"○","takashio":"○","jishin":"○","tsunami":"○","kaji":"○","naisui":"○","kazan":"×"}}
,{"type":"Feature","geometry":{"type":"Point","coordinates":[134.103,34.332]},"properties":{"Name":"古高松中学校","Jusho":"香川県高松市新田町甲１９０-１","kouzui":"○","gake":"○","takashio":"○","jishin":"○","tsunami":"○","kaji":"○","naisui":"○","kazan":"×"}}
,{"type":"Feature","geometry":{"type":"Point","coordinates":[134.068,34.315]},"properties":{"Name":"木太中学校","Jusho":"香川県高松市木太町２５１","kouzui":"○","gake":"○","takashio":"○","jishin":"○","tsunami":"○","kaji":"○","naisui":"○","kazan":"×"}}
,{"type":"Feature","geometry":{"type":"Point","coordinates":[134.032,34.299]},"properties":{"Name":"香川大学附属中学校（体育館）","Jusho":"香川県高松市鹿角町３９４","kouzui":"○","gake":"○","takashio":"○","jishin":"○","tsunami":"○","kaji":"×","naisui":"○","kazan":"×"}}
,{"type":"Feature","geometry":{"type":"Point","coordinates":[134.052,34.328]},"properties":{"Name":"高松第一高校","Jusho":"香川県高松市桜町２-５-１０","kouzui":"○","gake":"○","takashio":"○","jishin":"○","tsunami":"○","kaji":"○","naisui":"○","kazan":"×"}}
,{"type":"Feature","geometry":{"type":"Point","coordinates":[134.024,34.286]},"properties":{"Name":"高松南高等学校（体育館）","Jusho":"香川県高松市一宮町５３１","kouzui":"○","gake":"○","takashio":"○","jishin":"○","tsunami":"○","kaji":"×","naisui":"○","kazan":"×"}}
,{"type":"Feature","geometry":{"type":"Point","coordinates":[134.057,34.296]},"properties":{"Name":"高松桜井高等学校（体育館）","Jusho":"香川県高松市多肥上町１２５０","kouzui":"○","gake":"○","takashio":"○","jishin":"○","tsunami":"○","kaji":"×","naisui":"○","kazan":"×"}}
,{"type":"Feature","geometry":{"type":"Point","coordinates":[134.033,34.348]},"properties":{"Name":"日新コミュニティセンター","Jusho":"香川県高松市瀬戸内町２２-９","kouzui":"○","gake":"○","takashio":"○","jishin":"○","tsunami":"○","kaji":"×","naisui":"○","kazan":"×"}}
,{"type":"Feature","geometry":{"type":"Point","coordinates":[134.037,34.345]},"properties":{"Name":"二番丁コミュニティセンター","Jusho":"香川県高松市扇町２-８-７","kouzui":"○","gake":"○","takashio":"○","jishin":"○","tsunami":"○","kaji":"×","naisui":"○","kazan":"×"}}
,{"type":"Feature","geometry":{"type":"Point","coordinates":[134.045,34.344]},"properties":{"Name":"四番丁コミュニティセンター","Jusho":"香川県高松市　番町二丁目３-５","kouzui":"○","gake":"○","takashio":"○","jishin":"○","tsunami":"○","kaji":"×","naisui":"○","kazan":"×"}}
,{"type":"Feature","geometry":{"type":"Point","coordinates":[134.035,34.34]},"properties":{"Name":"亀阜コミュニティセンター","Jusho":"香川県高松市宮脇町１-６-１８","kouzui":"○","gake":"○","takashio":"○","jishin":"○","tsunami":"○","kaji":"×","naisui":"○","kazan":"×"}}
,{"type":"Feature","geometry":{"type":"Point","coordinates":[134.048,34.329]},"properties":{"Name":"栗林コミュニティセンター","Jusho":"香川県高松市栗林町３-２-１２","kouzui":"○","gake":"○","takashio":"○","jishin":"○","tsunami":"○","kaji":"×","naisui":"○","kazan":"×"}}
,{"type":"Feature","geometry":{"type":"Point","coordinates":[134.057,34.336]},"properties":{"Name":"花園コミュニティセンター","Jusho":"香川県高松市観光通２-８-９","kouzui":"○","gake":"○","takashio":"○","jishin":"○","tsunami":"○","kaji":"×","naisui":"○","kazan":"×"}}
,{"type":"Feature","geometry":{"type":"Point","coordinates":[134.065,34.34]},"properties":{"Name":"松島コミュニティセンター","Jusho":"香川県高松市松福町２-１５-２４","kouzui":"○","gake":"○","takashio":"○","jishin":"○","tsunami":"○","kaji":"×","naisui":"○","kazan":"×"}}
,{"type":"Feature","geometry":{"type":"Point","coordinates":[134.057,34.341]},"properties":{"Name":"築地コミュニティセンター","Jusho":"香川県高松市築地町１４-１","kouzui":"○","gake":"○","takashio":"○","jishin":"○","tsunami":"○","kaji":"×","naisui":"○","kazan":"×"}}
,{"type":"Feature","geometry":{"type":"Point","coordinates":[134.056,34.347]},"properties":{"Name":"新塩屋町コミュニティセンター","Jusho":"香川県高松市城東町１-１-４７","kouzui":"○","gake":"○","takashio":"○","jishin":"○","tsunami":"○","kaji":"×","naisui":"○","kazan":"×"}}
,{"type":"Feature","geometry":{"type":"Point","coordinates":[134.03,34.314]},"properties":{"Name":"鶴尾コミュニティセンター","Jusho":"香川県高松市田村町３０３-１","kouzui":"○","gake":"○","takashio":"○","jishin":"○","tsunami":"○","kaji":"×","naisui":"○","kazan":"×"}}
,{"type":"Feature","geometry":{"type":"Point","coordinates":[134.041,34.302]},"properties":{"Name":"太田南コミュニティセンター","Jusho":"香川県高松市太田上町１０４５-２","kouzui":"○","gake":"○","takashio":"○","jishin":"○","tsunami":"○","kaji":"×","naisui":"○","kazan":"×"}}
,{"type":"Feature","geometry":{"type":"Point","coordinates":[134.064,34.314]},"properties":{"Name":"太田中央コミュニティセンター","Jusho":"香川県高松市松縄町１１０８-１","kouzui":"○","gake":"○","takashio":"○","jishin":"○","tsunami":"○","kaji":"×","naisui":"○","kazan":"×"}}
,{"type":"Feature","geometry":{"type":"Point","coordinates":[134.079,34.336]},"properties":{"Name":"木太北部コミュニティセンター","Jusho":"香川県高松市木太町２６０３","kouzui":"○","gake":"○","takashio":"○","jishin":"○","tsunami":"○","kaji":"×","naisui":"○","kazan":"×"}}
,{"type":"Feature","geometry":{"type":"Point","coordinates":[134.076,34.319]},"properties":{"Name":"木太南コミュニティセンター","Jusho":"香川県高松市木太町１４８６","kouzui":"○","gake":"○","takashio":"○","jishin":"○","tsunami":"○","kaji":"×","naisui":"○","kazan":"×"}}
,{"type":"Feature","geometry":{"type":"Point","coordinates":[134.107,34.336]},"properties":{"Name":"古高松コミュニティセンター","Jusho":"香川県高松市高松町１０-２０","kouzui":"×","gake":"○","takashio":"×","jishin":"○","tsunami":"○","kaji":"×","naisui":"×","kazan":"×"}}
,{"type":"Feature","geometry":{"type":"Point","coordinates":[134.092,34.327]},"properties":{"Name":"古高松南コミュニティセンター","Jusho":"香川県高松市春日町７８２-２","kouzui":"○","gake":"○","takashio":"○","jishin":"○","tsunami":"○","kaji":"×","naisui":"○","kazan":"×"}}
,{"type":"Feature","geometry":{"type":"Point","coordinates":[134.101,34.344]},"properties":{"Name":"屋島コミュニティセンター","Jusho":"香川県高松市屋島中町４４９-１","kouzui":"○","gake":"○","takashio":"○","jishin":"○","tsunami":"○","kaji":"×","naisui":"○","kazan":"×"}}
,{"type":"Feature","geometry":{"type":"Point","coordinates":[134.089,34.352]},"properties":{"Name":"屋島西コミュニティセンター","Jusho":"香川県高松市屋島西町２４８３-２","kouzui":"○","gake":"○","takashio":"○","jishin":"○","tsunami":"○","kaji":"×","naisui":"○","kazan":"×"}}
,{"type":"Feature","geometry":{"type":"Point","coordinates":[134.116,34.355]},"properties":{"Name":"屋島東コミュニティセンター","Jusho":"香川県高松市屋島東町９２８","kouzui":"○","gake":"○","takashio":"○","jishin":"○","tsunami":"○","kaji":"×","naisui":"○","kazan":"×"}}
,{"type":"Feature","geometry":{"type":"Point","coordinates":[134.113,34.297]},"properties":{"Name":"前田コミュニティセンター","Jusho":"香川県高松市前田東町８３８","kouzui":"○","gake":"○","takashio":"○","jishin":"○","tsunami":"○","kaji":"×","naisui":"○","kazan":"×"}}
,{"type":"Feature","geometry":{"type":"Point","coordinates":[134.089,34.307]},"properties":{"Name":"川添コミュニティセンター","Jusho":"香川県高松市元山町１３６-４","kouzui":"○","gake":"○","takashio":"○","jishin":"○","tsunami":"○","kaji":"×","naisui":"○","kazan":"×"}}
,{"type":"Feature","geometry":{"type":"Point","coordinates":[134.076,34.298]},"properties":{"Name":"林コミュニティセンター","Jusho":"香川県高松市林町329-1","kouzui":"○","gake":"○","takashio":"○","jishin":"○","tsunami":"○","kaji":"×","naisui":"○","kazan":"×"}}
,{"type":"Feature","geometry":{"type":"Point","coordinates":[134.069,34.278]},"properties":{"Name":"三谷コミュニティセンター","Jusho":"香川県高松市三谷町１２０１-１","kouzui":"○","gake":"○","takashio":"○","jishin":"○","tsunami":"○","kaji":"×","naisui":"○","kazan":"×"}}
,{"type":"Feature","geometry":{"type":"Point","coordinates":[134.048,34.279]},"properties":{"Name":"仏生山コミュニティセンター","Jusho":"香川県高松市仏生山町乙４５-４","kouzui":"○","gake":"○","takashio":"○","jishin":"○","tsunami":"○","kaji":"×","naisui":"○","kazan":"×"}}
,{"type":"Feature","geometry":{"type":"Point","coordinates":[134.052,34.29]},"properties":{"Name":"多肥コミュニティセンター","Jusho":"香川県高松市多肥上町４３３-５","kouzui":"○","gake":"○","takashio":"○","jishin":"○","tsunami":"○","kaji":"×","naisui":"○","kazan":"×"}}
,{"type":"Feature","geometry":{"type":"Point","coordinates":[134.029,34.291]},"properties":{"Name":"一宮コミュニティセンター","Jusho":"香川県高松市一宮町８３８-１","kouzui":"×","gake":"○","takashio":"○","jishin":"○","tsunami":"○","kaji":"×","naisui":"○","kazan":"×"}}
,{"type":"Feature","geometry":{"type":"Point","coordinates":[134.006,34.285]},"properties":{"Name":"円座コミュニティセンター","Jusho":"香川県高松市円座町１６２２-１","kouzui":"○","gake":"○","takashio":"○","jishin":"○","tsunami":"○","kaji":"×","naisui":"○","kazan":"×"}}
,{"type":"Feature","geometry":{"type":"Point","coordinates":[134.01,34.269]},"properties":{"Name":"川岡コミュニティセンター","Jusho":"香川県高松市川部町４８６-１","kouzui":"○","gake":"○","takashio":"○","jishin":"○","tsunami":"○","kaji":"×","naisui":"○","kazan":"×"}}
,{"type":"Feature","geometry":{"type":"Point","coordinates":[133.995,34.301]},"properties":{"Name":"檀紙コミュニティセンター","Jusho":"香川県高松市御厩町７７５-１","kouzui":"○","gake":"○","takashio":"○","jishin":"○","tsunami":"○","kaji":"×","naisui":"○","kazan":"×"}}
,{"type":"Feature","geometry":{"type":"Point","coordinates":[134.006,34.329]},"properties":{"Name":"弦打コミュニティセンター","Jusho":"香川県高松市鶴市町３５６-３","kouzui":"○","gake":"○","takashio":"○","jishin":"○","tsunami":"○","kaji":"×","naisui":"○","kazan":"×"}}
,{"type":"Feature","geometry":{"type":"Point","coordinates":[133.993,34.327]},"properties":{"Name":"鬼無コミュニティセンター","Jusho":"香川県高松市鬼無町佐藤３１-３","kouzui":"○","gake":"○","takashio":"○","jishin":"○","tsunami":"○","kaji":"×","naisui":"○","kazan":"×"}}
,{"type":"Feature","geometry":{"type":"Point","coordinates":[133.996,34.347]},"properties":{"Name":"香西コミュニティセンター","Jusho":"香川県高松市香西本町４７６-１","kouzui":"○","gake":"○","takashio":"○","jishin":"○","tsunami":"○","kaji":"×","naisui":"○","kazan":"×"}}
,{"type":"Feature","geometry":{"type":"Point","coordinates":[133.969,34.359]},"properties":{"Name":"下笠居コミュニティセンター","Jusho":"香川県高松市生島町３５３-１","kouzui":"○","gake":"○","takashio":"○","jishin":"○","tsunami":"○","kaji":"×","naisui":"○","kazan":"×"}}
,{"type":"Feature","geometry":{"type":"Point","coordinates":[134.052,34.392]},"properties":{"Name":"女木コミュニティセンター","Jusho":"香川県高松市女木町２０３-１","kouzui":"○","gake":"○","takashio":"○","jishin":"○","tsunami":"○","kaji":"×","naisui":"○","kazan":"×"}}
,{"type":"Feature","geometry":{"type":"Point","coordinates":[134.086,34.276]},"properties":{"Name":"川島コミュニティセンター","Jusho":"香川県高松市川島本町１９１-２","kouzui":"○","gake":"○","takashio":"○","jishin":"○","tsunami":"○","kaji":"×","naisui":"○","kazan":"×"}}
,{"type":"Feature","geometry":{"type":"Point","coordinates":[134.079,34.24]},"properties":{"Name":"西植田コミュニティセンター","Jusho":"香川県高松市西植田町２２４７-１","kouzui":"○","gake":"○","takashio":"○","jishin":"×","tsunami":"○","kaji":"×","naisui":"○","kazan":"×"}}
,{"type":"Feature","geometry":{"type":"Point","coordinates":[134.099,34.238]},"properties":{"Name":"東植田コミュニティセンター","Jusho":"香川県高松市東植田町１８２５-１","kouzui":"○","gake":"○","takashio":"○","jishin":"×","tsunami":"○","kaji":"×","naisui":"○","kazan":"×"}}
,{"type":"Feature","geometry":{"type":"Point","coordinates":[134.143,34.345]},"properties":{"Name":"高松北高等(中）学校（体育館）","Jusho":"香川県高松市牟礼町牟礼１５８３-１","kouzui":"○","gake":"○","takashio":"○","jishin":"○","tsunami":"○","kaji":"×","naisui":"○","kazan":"×"}}
,{"type":"Feature","geometry":{"type":"Point","coordinates":[134.143,34.34]},"properties":{"Name":"牟礼中学校","Jusho":"香川県高松市牟礼町牟礼４６-２","kouzui":"○","gake":"○","takashio":"○","jishin":"○","tsunami":"○","kaji":"○","naisui":"○","kazan":"×"}}
,{"type":"Feature","geometry":{"type":"Point","coordinates":[134.139,34.338]},"properties":{"Name":"牟礼コミュニティセンター","Jusho":"香川県高松市牟礼町牟礼３０２-１","kouzui":"○","gake":"○","takashio":"○","jishin":"○","tsunami":"○","kaji":"×","naisui":"○","kazan":"×"}}
,{"type":"Feature","geometry":{"type":"Point","coordinates":[134.143,34.343]},"properties":{"Name":"牟礼総合体育館","Jusho":"香川県高松市牟礼町牟礼１５２-１０","kouzui":"○","gake":"×","takashio":"○","jishin":"○","tsunami":"○","kaji":"×","naisui":"○","kazan":"×"}}
,{"type":"Feature","geometry":{"type":"Point","coordinates":[134.126,34.351]},"properties":{"Name":"牟礼北小学校","Jusho":"香川県高松市牟礼町牟礼２９００-１","kouzui":"○","gake":"○","takashio":"○","jishin":"○","tsunami":"○","kaji":"○","naisui":"○","kazan":"×"}}
,{"type":"Feature","geometry":{"type":"Point","coordinates":[134.142,34.336]},"properties":{"Name":"牟礼小学校","Jusho":"香川県高松市牟礼町大町１５６０","kouzui":"○","gake":"○","takashio":"○","jishin":"○","tsunami":"○","kaji":"○","naisui":"○","kazan":"×"}}
,{"type":"Feature","geometry":{"type":"Point","coordinates":[134.147,34.333]},"properties":{"Name":"牟礼中央公園運動センター","Jusho":"香川県高松市牟礼町原１０１９-８","kouzui":"○","gake":"○","takashio":"○","jishin":"○","tsunami":"○","kaji":"○","naisui":"○","kazan":"×"}}
,{"type":"Feature","geometry":{"type":"Point","coordinates":[134.152,34.334]},"properties":{"Name":"牟礼南小学校","Jusho":"香川県高松市牟礼町大町１１１５-１","kouzui":"○","gake":"○","takashio":"○","jishin":"○","tsunami":"○","kaji":"○","naisui":"○","kazan":"×"}}
,{"type":"Feature","geometry":{"type":"Point","coordinates":[134.156,34.328]},"properties":{"Name":"高松市はらこども園","Jusho":"香川県高松市牟礼町原５７０-１","kouzui":"○","gake":"○","takashio":"○","jishin":"○","tsunami":"○","kaji":"×","naisui":"○","kazan":"×"}}
,{"type":"Feature","geometry":{"type":"Point","coordinates":[134.143,34.336]},"properties":{"Name":"大町コミュニティセンター","Jusho":"香川県高松市牟礼町大町１４６３-２","kouzui":"○","gake":"○","takashio":"○","jishin":"○","tsunami":"○","kaji":"×","naisui":"○","kazan":"×"}}
,{"type":"Feature","geometry":{"type":"Point","coordinates":[134.158,34.322]},"properties":{"Name":"香川県立保健医療大学（体育館）","Jusho":"香川県高松市牟礼町原２８１-１","kouzui":"○","gake":"○","takashio":"○","jishin":"○","tsunami":"○","kaji":"×","naisui":"○","kazan":"×"}}
,{"type":"Feature","geometry":{"type":"Point","coordinates":[134.121,34.368]},"properties":{"Name":"深間ふれあいセンター","Jusho":"香川県高松市庵治町６３９１-１７","kouzui":"○","gake":"×","takashio":"○","jishin":"○","tsunami":"○","kaji":"×","naisui":"○","kazan":"×"}}
,{"type":"Feature","geometry":{"type":"Point","coordinates":[134.131,34.384]},"properties":{"Name":"庵治中学校","Jusho":"香川県高松市庵治町６９１-１","kouzui":"○","gake":"○","takashio":"○","jishin":"○","tsunami":"○","kaji":"○","naisui":"○","kazan":"×"}}
,{"type":"Feature","geometry":{"type":"Point","coordinates":[134.131,34.385]},"properties":{"Name":"庵治小学校","Jusho":"香川県高松市庵治町７９０-１","kouzui":"○","gake":"○","takashio":"○","jishin":"○","tsunami":"○","kaji":"○","naisui":"○","kazan":"×"}}
,{"type":"Feature","geometry":{"type":"Point","coordinates":[134.13,34.385]},"properties":{"Name":"庵治コミュニティセンター・庵治武道館","Jusho":"香川県高松市庵治町８８８-１","kouzui":"○","gake":"○","takashio":"○","jishin":"○","tsunami":"○","kaji":"×","naisui":"○","kazan":"×"}}
,{"type":"Feature","geometry":{"type":"Point","coordinates":[134.13,34.385]},"properties":{"Name":"庵治小学校第二体育館","Jusho":"香川県高松市庵治町８６６-４","kouzui":"○","gake":"○","takashio":"○","jishin":"○","tsunami":"○","kaji":"×","naisui":"○","kazan":"×"}}
,{"type":"Feature","geometry":{"type":"Point","coordinates":[134.127,34.383]},"properties":{"Name":"庵治やすらぎ会館","Jusho":"香川県高松市庵治町６３９２-１４","kouzui":"○","gake":"○","takashio":"○","jishin":"○","tsunami":"○","kaji":"×","naisui":"○","kazan":"×"}}
,{"type":"Feature","geometry":{"type":"Point","coordinates":[134.136,34.391]},"properties":{"Name":"庵治斎場","Jusho":"香川県高松市庵治町１３９１","kouzui":"○","gake":"○","takashio":"○","jishin":"○","tsunami":"○","kaji":"×","naisui":"○","kazan":"×"}}
,{"type":"Feature","geometry":{"type":"Point","coordinates":[134.025,34.267]},"properties":{"Name":"大野コミュニティセンター","Jusho":"香川県高松市香川町大野１３２９-１","kouzui":"○","gake":"○","takashio":"○","jishin":"○","tsunami":"○","kaji":"×","naisui":"○","kazan":"×"}}
,{"type":"Feature","geometry":{"type":"Point","coordinates":[134.027,34.267]},"properties":{"Name":"大野小学校","Jusho":"香川県高松市香川町大野１０４５-１","kouzui":"○","gake":"○","takashio":"○","jishin":"○","tsunami":"○","kaji":"○","naisui":"○","kazan":"×"}}
,{"type":"Feature","geometry":{"type":"Point","coordinates":[134.041,34.259]},"properties":{"Name":"浅野小学校","Jusho":"香川県高松市香川町浅野３０８８","kouzui":"○","gake":"○","takashio":"○","jishin":"○","tsunami":"○","kaji":"○","naisui":"○","kazan":"×"}}
,{"type":"Feature","geometry":{"type":"Point","coordinates":[134.036,34.257]},"properties":{"Name":"浅野コミュニティセンター","Jusho":"香川県高松市香川町浅野８２６-２","kouzui":"○","gake":"○","takashio":"○","jishin":"○","tsunami":"○","kaji":"×","naisui":"○","kazan":"×"}}
,{"type":"Feature","geometry":{"type":"Point","coordinates":[134.029,34.255]},"properties":{"Name":"香川総合体育館","Jusho":"香川県高松市香川町川東下１９１７-１","kouzui":"○","gake":"○","takashio":"○","jishin":"○","tsunami":"○","kaji":"×","naisui":"○","kazan":"×"}}
,{"type":"Feature","geometry":{"type":"Point","coordinates":[134.034,34.241]},"properties":{"Name":"川東コミュニティセンター","Jusho":"香川県高松市香川町川東上１８６５-１３","kouzui":"○","gake":"○","takashio":"○","jishin":"○","tsunami":"○","kaji":"×","naisui":"○","kazan":"×"}}
,{"type":"Feature","geometry":{"type":"Point","coordinates":[134.035,34.241]},"properties":{"Name":"川東小学校","Jusho":"香川県高松市香川町川東上１８６５-８","kouzui":"○","gake":"○","takashio":"○","jishin":"○","tsunami":"○","kaji":"○","naisui":"○","kazan":"×"}}
,{"type":"Feature","geometry":{"type":"Point","coordinates":[134.038,34.227]},"properties":{"Name":"香川町グリーンセンター","Jusho":"香川県高松市香川町川東上６０４-８５","kouzui":"○","gake":"×","takashio":"○","jishin":"○","tsunami":"○","kaji":"×","naisui":"○","kazan":"×"}}
,{"type":"Feature","geometry":{"type":"Point","coordinates":[134.031,34.212]},"properties":{"Name":"香川町多目的研修集会施設","Jusho":"香川県高松市香川町安原下第３号１９４-１","kouzui":"○","gake":"×","takashio":"○","jishin":"○","tsunami":"○","kaji":"×","naisui":"○","kazan":"×"}}
,{"type":"Feature","geometry":{"type":"Point","coordinates":[134.05,34.217]},"properties":{"Name":"香川町高齢者活動促進センター","Jusho":"香川県高松市香川町東谷１５９-１","kouzui":"○","gake":"○","takashio":"○","jishin":"○","tsunami":"○","kaji":"×","naisui":"○","kazan":"×"}}
,{"type":"Feature","geometry":{"type":"Point","coordinates":[134.062,34.205]},"properties":{"Name":"東谷コミュニティセンター","Jusho":"香川県高松市香川町東谷８７３-３","kouzui":"○","gake":"×","takashio":"○","jishin":"○","tsunami":"○","kaji":"×","naisui":"○","kazan":"×"}}
,{"type":"Feature","geometry":{"type":"Point","coordinates":[134.009,34.242]},"properties":{"Name":"香南小学校","Jusho":"香川県高松市香南町横井１００８","kouzui":"○","gake":"○","takashio":"○","jishin":"○","tsunami":"○","kaji":"○","naisui":"○","kazan":"×"}}
,{"type":"Feature","geometry":{"type":"Point","coordinates":[134.009,34.243]},"properties":{"Name":"香南中学校","Jusho":"香川県高松市香南町横井８０１","kouzui":"○","gake":"○","takashio":"○","jishin":"○","tsunami":"○","kaji":"○","naisui":"○","kazan":"×"}}
,{"type":"Feature","geometry":{"type":"Point","coordinates":[134.013,34.24]},"properties":{"Name":"香南コミュニティセンター","Jusho":"香川県高松市香南町由佐１１７２","kouzui":"○","gake":"○","takashio":"○","jishin":"○","tsunami":"○","kaji":"×","naisui":"○","kazan":"×"}}
,{"type":"Feature","geometry":{"type":"Point","coordinates":[134.019,34.24]},"properties":{"Name":"由佐農村環境改善センター","Jusho":"香川県高松市香南町由佐３５７-２","kouzui":"○","gake":"○","takashio":"○","jishin":"○","tsunami":"○","kaji":"×","naisui":"○","kazan":"×"}}
,{"type":"Feature","geometry":{"type":"Point","coordinates":[134,34.245]},"properties":{"Name":"池西農村環境改善センター","Jusho":"香川県高松市香南町池内５２２-１","kouzui":"○","gake":"○","takashio":"○","jishin":"○","tsunami":"○","kaji":"×","naisui":"○","kazan":"×"}}
,{"type":"Feature","geometry":{"type":"Point","coordinates":[134.041,34.196]},"properties":{"Name":"塩江コミュニティセンター","Jusho":"香川県高松市塩江町安原下第２号１６４５","kouzui":"○","gake":"×","takashio":"○","jishin":"○","tsunami":"○","kaji":"×","naisui":"○","kazan":"×"}}
,{"type":"Feature","geometry":{"type":"Point","coordinates":[134.041,34.198]},"properties":{"Name":"安原小学校跡施設","Jusho":"香川県高松市塩江町安原下第２号１６８４","kouzui":"○","gake":"×","takashio":"○","jishin":"○","tsunami":"○","kaji":"○","naisui":"○","kazan":"×"}}
,{"type":"Feature","geometry":{"type":"Point","coordinates":[134.025,34.156]},"properties":{"Name":"安原小学校　戸石分校跡施設","Jusho":"香川県高松市塩江町安原下第２号８５７","kouzui":"○","gake":"×","takashio":"○","jishin":"○","tsunami":"○","kaji":"×","naisui":"○","kazan":"×"}}
,{"type":"Feature","geometry":{"type":"Point","coordinates":[134.083,34.17]},"properties":{"Name":"塩江支所　塩江連絡事務所","Jusho":"香川県高松市塩江町安原上東３９４番地の２","kouzui":"○","gake":"○","takashio":"○","jishin":"○","tsunami":"○","kaji":"×","naisui":"○","kazan":"×"}}
,{"type":"Feature","geometry":{"type":"Point","coordinates":[134.084,34.17]},"properties":{"Name":"塩江小学校跡施設","Jusho":"香川県高松市塩江町安原上東３６５","kouzui":"○","gake":"×","takashio":"○","jishin":"○","tsunami":"○","kaji":"○","naisui":"○","kazan":"×"}}
,{"type":"Feature","geometry":{"type":"Point","coordinates":[134.099,34.162]},"properties":{"Name":"椛川集会所","Jusho":"香川県高松市塩江町安原上東字椛川２１７３-８","kouzui":"○","gake":"○","takashio":"○","jishin":"○","tsunami":"○","kaji":"×","naisui":"○","kazan":"×"}}
,{"type":"Feature","geometry":{"type":"Point","coordinates":[134.074,34.182]},"properties":{"Name":"塩江小・中学校","Jusho":"香川県高松市塩江町安原上２３１","kouzui":"○","gake":"○","takashio":"○","jishin":"○","tsunami":"○","kaji":"○","naisui":"○","kazan":"×"}}
,{"type":"Feature","geometry":{"type":"Point","coordinates":[134.077,34.151]},"properties":{"Name":"塩江支所　上西連絡事務所","Jusho":"香川県高松市塩江町上西乙５４９","kouzui":"○","gake":"○","takashio":"○","jishin":"○","tsunami":"○","kaji":"×","naisui":"○","kazan":"×"}}
,{"type":"Feature","geometry":{"type":"Point","coordinates":[134.077,34.152]},"properties":{"Name":"上西小学校跡施設","Jusho":"香川県高松市塩江町上西乙４６１","kouzui":"○","gake":"○","takashio":"○","jishin":"○","tsunami":"○","kaji":"○","naisui":"○","kazan":"×"}}
,{"type":"Feature","geometry":{"type":"Point","coordinates":[134.074,34.126]},"properties":{"Name":"西山ふれあいセンター","Jusho":"香川県高松市塩江町上西甲９４７番地３","kouzui":"○","gake":"×","takashio":"○","jishin":"○","tsunami":"○","kaji":"×","naisui":"○","kazan":"×"}}
,{"type":"Feature","geometry":{"type":"Point","coordinates":[133.965,34.297]},"properties":{"Name":"国分寺中学校","Jusho":"香川県高松市国分寺町新居１１３１-１","kouzui":"○","gake":"○","takashio":"○","jishin":"○","tsunami":"○","kaji":"○","naisui":"○","kazan":"×"}}
,{"type":"Feature","geometry":{"type":"Point","coordinates":[133.964,34.306]},"properties":{"Name":"国分寺北部小学校","Jusho":"香川県高松市国分寺町新居１８８０","kouzui":"○","gake":"○","takashio":"○","jishin":"○","tsunami":"○","kaji":"○","naisui":"○","kazan":"×"}}
,{"type":"Feature","geometry":{"type":"Point","coordinates":[133.962,34.305]},"properties":{"Name":"国分寺北部コミュニティセンター","Jusho":"香川県高松市国分寺町新居１８４０-６","kouzui":"○","gake":"○","takashio":"○","jishin":"○","tsunami":"○","kaji":"×","naisui":"○","kazan":"×"}}
,{"type":"Feature","geometry":{"type":"Point","coordinates":[133.965,34.297]},"properties":{"Name":"国分寺中学校第二体育館","Jusho":"香川県高松市国分寺町新居１１５５-７","kouzui":"○","gake":"○","takashio":"○","jishin":"○","tsunami":"○","kaji":"×","naisui":"○","kazan":"×"}}
,{"type":"Feature","geometry":{"type":"Point","coordinates":[133.972,34.308]},"properties":{"Name":"新居東児童館","Jusho":"香川県高松市国分寺町新居３３７１-１","kouzui":"○","gake":"○","takashio":"○","jishin":"○","tsunami":"○","kaji":"×","naisui":"○","kazan":"×"}}
,{"type":"Feature","geometry":{"type":"Point","coordinates":[133.959,34.3]},"properties":{"Name":"国分寺文化センター","Jusho":"香川県高松市国分寺町新居１４２３-１","kouzui":"○","gake":"○","takashio":"○","jishin":"○","tsunami":"○","kaji":"×","naisui":"×","kazan":"×"}}
,{"type":"Feature","geometry":{"type":"Point","coordinates":[133.958,34.3]},"properties":{"Name":"新居児童館","Jusho":"香川県高松市国分寺町国分７８-１","kouzui":"○","gake":"○","takashio":"○","jishin":"○","tsunami":"○","kaji":"×","naisui":"×","kazan":"×"}}
,{"type":"Feature","geometry":{"type":"Point","coordinates":[133.946,34.303]},"properties":{"Name":"国分児童館","Jusho":"香川県高松市国分寺町国分２１５０-７","kouzui":"○","gake":"○","takashio":"○","jishin":"○","tsunami":"○","kaji":"×","naisui":"○","kazan":"×"}}
,{"type":"Feature","geometry":{"type":"Point","coordinates":[133.962,34.284]},"properties":{"Name":"国分寺南部小学校","Jusho":"香川県高松市国分寺町福家甲３００５","kouzui":"○","gake":"○","takashio":"○","jishin":"○","tsunami":"○","kaji":"○","naisui":"○","kazan":"×"}}
,{"type":"Feature","geometry":{"type":"Point","coordinates":[133.961,34.284]},"properties":{"Name":"国分寺南部コミュニティセンター","Jusho":"香川県高松市国分寺町福家甲３１０６-３","kouzui":"○","gake":"○","takashio":"○","jishin":"○","tsunami":"○","kaji":"×","naisui":"○","kazan":"×"}}
,{"type":"Feature","geometry":{"type":"Point","coordinates":[133.961,34.283]},"properties":{"Name":"国分寺勤労青少年ホーム","Jusho":"香川県高松市国分寺町福家甲３００５","kouzui":"○","gake":"○","takashio":"○","jishin":"○","tsunami":"○","kaji":"×","naisui":"○","kazan":"×"}}
,{"type":"Feature","geometry":{"type":"Point","coordinates":[133.973,34.274]},"properties":{"Name":"福家児童館","Jusho":"香川県高松市国分寺町福家甲１９５１-１","kouzui":"○","gake":"○","takashio":"○","jishin":"○","tsunami":"○","kaji":"×","naisui":"○","kazan":"×"}}
,{"type":"Feature","geometry":{"type":"Point","coordinates":[133.96,34.297]},"properties":{"Name":"国分寺会館","Jusho":"香川県高松市国分寺町新名４３０-２","kouzui":"○","gake":"○","takashio":"○","jishin":"○","tsunami":"○","kaji":"×","naisui":"○","kazan":"×"}}
,{"type":"Feature","geometry":{"type":"Point","coordinates":[133.942,34.299]},"properties":{"Name":"香川県青年センター","Jusho":"香川県高松市国分寺町国分１００９","kouzui":"○","gake":"○","takashio":"○","jishin":"○","tsunami":"○","kaji":"×","naisui":"○","kazan":"×"}}
,{"type":"Feature","geometry":{"type":"Point","coordinates":[133.969,34.365]},"properties":{"Name":"香川県消防学校","Jusho":"香川県高松市生島町６８９-１１","kouzui":"○","gake":"○","takashio":"○","jishin":"○","tsunami":"○","kaji":"×","naisui":"○","kazan":"×"}}
,{"type":"Feature","geometry":{"type":"Point","coordinates":[134.042,34.343]},"properties":{"Name":"高松工芸高等学校（体育館）","Jusho":"香川県高松市番町２-９-３０","kouzui":"○","gake":"○","takashio":"○","jishin":"○","tsunami":"○","kaji":"×","naisui":"○","kazan":"×"}}
,{"type":"Feature","geometry":{"type":"Point","coordinates":[134.044,34.342]},"properties":{"Name":"高松高等学校（体育館）","Jusho":"香川県高松市番町３-１-１","kouzui":"○","gake":"○","takashio":"○","jishin":"○","tsunami":"○","kaji":"×","naisui":"○","kazan":"×"}}
,{"type":"Feature","geometry":{"type":"Point","coordinates":[134.06,34.338]},"properties":{"Name":"高松商業高等学校（体育館）","Jusho":"香川県高松市松島町１-１８-５４","kouzui":"○","gake":"○","takashio":"○","jishin":"○","tsunami":"○","kaji":"×","naisui":"○","kazan":"×"}}
,{"type":"Feature","geometry":{"type":"Point","coordinates":[134.037,34.34]},"properties":{"Name":"香川大学（経済学部構内体育館）","Jusho":"香川県高松市幸町１-１","kouzui":"○","gake":"○","takashio":"○","jishin":"○","tsunami":"○","kaji":"×","naisui":"○","kazan":"×"}}
,{"type":"Feature","geometry":{"type":"Point","coordinates":[134.042,34.297]},"properties":{"Name":"香川県立聾学校（体育館）","Jusho":"香川県高松市太田上町５１３-１","kouzui":"×","gake":"×","takashio":"×","jishin":"○","tsunami":"×","kaji":"×","naisui":"×","kazan":"×"}}
,{"type":"Feature","geometry":{"type":"Point","coordinates":[134.054,34.345]},"properties":{"Name":"高松市生涯学習センター（まなびCAN)","Jusho":"香川県高松市片原町１１-１むうぶ片原町ビル内","kouzui":"○","gake":"○","takashio":"○","jishin":"○","tsunami":"○","kaji":"×","naisui":"○","kazan":"×"}}
,{"type":"Feature","geometry":{"type":"Point","coordinates":[134.074,34.342]},"properties":{"Name":"高松市総合体育館","Jusho":"香川県高松市福岡町４-３６-１","kouzui":"○","gake":"○","takashio":"○","jishin":"○","tsunami":"○","kaji":"×","naisui":"○","kazan":"×"}}
,{"type":"Feature","geometry":{"type":"Point","coordinates":[134.112,34.291]},"properties":{"Name":"高松東高校（体育館）","Jusho":"香川県高松市前田東町６９０-１","kouzui":"×","gake":"○","takashio":"○","jishin":"○","tsunami":"○","kaji":"×","naisui":"○","kazan":"×"}}
,{"type":"Feature","geometry":{"type":"Point","coordinates":[134.009,34.31]},"properties":{"Name":"香川高等専門学校（体育館）","Jusho":"香川県高松市勅使町３５５","kouzui":"○","gake":"○","takashio":"○","jishin":"○","tsunami":"○","kaji":"×","naisui":"○","kazan":"×"}}
,{"type":"Feature","geometry":{"type":"Point","coordinates":[133.955,34.29]},"properties":{"Name":"香川県営住宅国分寺団地集会場","Jusho":"香川県高松市国分寺町柏原４１","kouzui":"○","gake":"○","takashio":"○","jishin":"×","tsunami":"○","kaji":"×","naisui":"○","kazan":"×"}}
,{"type":"Feature","geometry":{"type":"Point","coordinates":[134.032,34.253]},"properties":{"Name":"香川第一中学校","Jusho":"香川県高松市香川町浅野１１８８","kouzui":"○","gake":"○","takashio":"○","jishin":"○","tsunami":"○","kaji":"○","naisui":"○","kazan":"×"}}
,{"type":"Feature","geometry":{"type":"Point","coordinates":[134.038,34.285]},"properties":{"Name":"香川県農業共済組合","Jusho":"香川県高松市三名町５-６","kouzui":"○","gake":"○","takashio":"○","jishin":"○","tsunami":"○","kaji":"×","naisui":"○","kazan":"×"}}
,{"type":"Feature","geometry":{"type":"Point","coordinates":[134.064,34.293]},"properties":{"Name":"香川大学工学部","Jusho":"香川県高松市林町２２１７-２０","kouzui":"○","gake":"○","takashio":"○","jishin":"○","tsunami":"○","kaji":"×","naisui":"○","kazan":"×"}}
,{"type":"Feature","geometry":{"type":"Point","coordinates":[134.099,34.329]},"properties":{"Name":"介護老人保健施設サンライズ屋島","Jusho":"香川県高松市新田町甲２７２３-２","kouzui":"○","gake":"○","takashio":"○","jishin":"○","tsunami":"○","kaji":"×","naisui":"○","kazan":"×"}}
,{"type":"Feature","geometry":{"type":"Point","coordinates":[134.051,34.349]},"properties":{"Name":"玉藻公園","Jusho":"香川県高松市玉藻町２-１","kouzui":"×","gake":"○","takashio":"×","jishin":"○","tsunami":"×","kaji":"×","naisui":"○","kazan":"×"}}
,{"type":"Feature","geometry":{"type":"Point","coordinates":[134.047,34.341]},"properties":{"Name":"中央公園","Jusho":"香川県高松市番町１丁目１１-１","kouzui":"○","gake":"○","takashio":"○","jishin":"○","tsunami":"×","kaji":"×","naisui":"○","kazan":"×"}}
,{"type":"Feature","geometry":{"type":"Point","coordinates":[134.059,34.325]},"properties":{"Name":"今里中央公園","Jusho":"香川県高松市今里町１丁目２０","kouzui":"×","gake":"○","takashio":"○","jishin":"○","tsunami":"×","kaji":"○","naisui":"○","kazan":"×"}}
,{"type":"Feature","geometry":{"type":"Point","coordinates":[134.055,34.314]},"properties":{"Name":"伏石中央公園","Jusho":"香川県高松市伏石町１１２６-１","kouzui":"○","gake":"○","takashio":"○","jishin":"○","tsunami":"×","kaji":"○","naisui":"○","kazan":"×"}}
,{"type":"Feature","geometry":{"type":"Point","coordinates":[134.066,34.316]},"properties":{"Name":"木太中央公園","Jusho":"香川県高松市木太町５０５２","kouzui":"○","gake":"○","takashio":"○","jishin":"○","tsunami":"×","kaji":"○","naisui":"○","kazan":"×"}}
,{"type":"Feature","geometry":{"type":"Point","coordinates":[134.115,34.331]},"properties":{"Name":"菱の池公園","Jusho":"香川県高松市高松町１２１１-２８","kouzui":"○","gake":"○","takashio":"○","jishin":"○","tsunami":"○","kaji":"×","naisui":"○","kazan":"×"}}
,{"type":"Feature","geometry":{"type":"Point","coordinates":[134.025,34.295]},"properties":{"Name":"一宮新池農村公園","Jusho":"香川県高松市一宮町１２２７","kouzui":"○","gake":"○","takashio":"○","jishin":"○","tsunami":"○","kaji":"×","naisui":"○","kazan":"×"}}
,{"type":"Feature","geometry":{"type":"Point","coordinates":[134.157,34.334]},"properties":{"Name":"房前公園・源平の里むれ（道の駅）","Jusho":"香川県高松市牟礼町原６３１-７","kouzui":"○","gake":"○","takashio":"○","jishin":"○","tsunami":"○","kaji":"×","naisui":"○","kazan":"×"}}
,{"type":"Feature","geometry":{"type":"Point","coordinates":[134.026,34.33]},"properties":{"Name":"峰山公園","Jusho":"香川県高松市峰山町１８３８-３７","kouzui":"○","gake":"×","takashio":"○","jishin":"○","tsunami":"○","kaji":"×","naisui":"○","kazan":"×"}}
,{"type":"Feature","geometry":{"type":"Point","coordinates":[134.122,34.329]},"properties":{"Name":"東部運動公園","Jusho":"香川県高松市高松町１３４７-１","kouzui":"○","gake":"○","takashio":"○","jishin":"○","tsunami":"○","kaji":"○","naisui":"○","kazan":"×"}}
,{"type":"Feature","geometry":{"type":"Point","coordinates":[134.049,34.272]},"properties":{"Name":"仏生山公園","Jusho":"香川県高松市仏生山町甲２６５４-１","kouzui":"○","gake":"○","takashio":"○","jishin":"○","tsunami":"○","kaji":"○","naisui":"○","kazan":"×"}}
,{"type":"Feature","geometry":{"type":"Point","coordinates":[134.064,34.303]},"properties":{"Name":"長池中央公園","Jusho":"香川県高松市林町１７４５","kouzui":"○","gake":"○","takashio":"○","jishin":"○","tsunami":"○","kaji":"○","naisui":"○","kazan":"×"}}
,{"type":"Feature","geometry":{"type":"Point","coordinates":[134.056,34.28]},"properties":{"Name":"彦作池公園","Jusho":"香川県高松市多肥上町２０４９-１","kouzui":"○","gake":"○","takashio":"○","jishin":"○","tsunami":"○","kaji":"×","naisui":"○","kazan":"×"}}
,{"type":"Feature","geometry":{"type":"Point","coordinates":[134.007,34.242]},"properties":{"Name":"月見ヶ原公園","Jusho":"香川県高松市香南町横井７９６-１","kouzui":"○","gake":"○","takashio":"○","jishin":"○","tsunami":"○","kaji":"○","naisui":"○","kazan":"×"}}
,{"type":"Feature","geometry":{"type":"Point","coordinates":[134.147,34.332]},"properties":{"Name":"牟礼中央公園","Jusho":"香川県高松市牟礼町原１０１９-８","kouzui":"○","gake":"○","takashio":"○","jishin":"○","tsunami":"○","kaji":"○","naisui":"○","kazan":"×"}}
,{"type":"Feature","geometry":{"type":"Point","coordinates":[134.133,34.347]},"properties":{"Name":"御山公園","Jusho":"香川県高松市牟礼町牟礼１３５５-１","kouzui":"○","gake":"○","takashio":"○","jishin":"○","tsunami":"○","kaji":"○","naisui":"○","kazan":"×"}}
,{"type":"Feature","geometry":{"type":"Point","coordinates":[133.952,34.308]},"properties":{"Name":"如意輪寺公園","Jusho":"香川県高松市国分寺町国分２５３０-２","kouzui":"○","gake":"○","takashio":"○","jishin":"○","tsunami":"○","kaji":"×","naisui":"○","kazan":"×"}}
,{"type":"Feature","geometry":{"type":"Point","coordinates":[133.953,34.274]},"properties":{"Name":"橘ノ丘公園","Jusho":"香川県高松市国分寺町新名２０６９-１","kouzui":"○","gake":"×","takashio":"○","jishin":"○","tsunami":"○","kaji":"○","naisui":"○","kazan":"×"}}
,{"type":"Feature","geometry":{"type":"Point","coordinates":[133.793,34.288]},"properties":{"Name":"城乾小学校","Jusho":"香川県丸亀市中府町五丁目15-1","kouzui":"○","gake":"○","takashio":"○","jishin":"○","tsunami":"○","kaji":"○","naisui":"○","kazan":"×"}}
,{"type":"Feature","geometry":{"type":"Point","coordinates":[133.793,34.288]},"properties":{"Name":"西幼稚園","Jusho":"香川県丸亀市南条町34-2","kouzui":"○","gake":"○","takashio":"○","jishin":"○","tsunami":"○","kaji":"×","naisui":"○","kazan":"×"}}
,{"type":"Feature","geometry":{"type":"Point","coordinates":[133.793,34.288]},"properties":{"Name":"城乾コミュニティセンター","Jusho":"香川県丸亀市南条町34-28","kouzui":"○","gake":"○","takashio":"○","jishin":"○","tsunami":"○","kaji":"×","naisui":"○","kazan":"×"}}
,{"type":"Feature","geometry":{"type":"Point","coordinates":[133.786,34.28]},"properties":{"Name":"城坤小学校","Jusho":"香川県丸亀市今津町348","kouzui":"○","gake":"○","takashio":"○","jishin":"○","tsunami":"○","kaji":"○","naisui":"○","kazan":"×"}}
,{"type":"Feature","geometry":{"type":"Point","coordinates":[133.783,34.277]},"properties":{"Name":"城坤幼稚園","Jusho":"香川県丸亀市今津町278","kouzui":"○","gake":"○","takashio":"○","jishin":"○","tsunami":"○","kaji":"○","naisui":"○","kazan":"×"}}
,{"type":"Feature","geometry":{"type":"Point","coordinates":[133.782,34.285]},"properties":{"Name":"しおや保育所","Jusho":"香川県丸亀市前塩屋町二丁目1-17","kouzui":"○","gake":"○","takashio":"○","jishin":"○","tsunami":"○","kaji":"○","naisui":"○","kazan":"×"}}
,{"type":"Feature","geometry":{"type":"Point","coordinates":[133.783,34.29]},"properties":{"Name":"旧塩屋北保育所（２階一部）","Jusho":"香川県丸亀市塩屋町五丁目6-1","kouzui":"×","gake":"○","takashio":"×","jishin":"×","tsunami":"×","kaji":"○","naisui":"×","kazan":"×"}}
,{"type":"Feature","geometry":{"type":"Point","coordinates":[133.782,34.269]},"properties":{"Name":"金倉保育所","Jusho":"香川県丸亀市金倉町1230-1","kouzui":"○","gake":"○","takashio":"○","jishin":"○","tsunami":"○","kaji":"○","naisui":"○","kazan":"×"}}
,{"type":"Feature","geometry":{"type":"Point","coordinates":[133.784,34.278]},"properties":{"Name":"城坤コミュニティセンター","Jusho":"香川県丸亀市今津町283","kouzui":"○","gake":"○","takashio":"○","jishin":"○","tsunami":"○","kaji":"○","naisui":"○","kazan":"×"}}
,{"type":"Feature","geometry":{"type":"Point","coordinates":[133.789,34.263]},"properties":{"Name":"丸亀市総合運動公園体育館（陸上競技場）","Jusho":"香川県丸亀市新田町1-1","kouzui":"○","gake":"○","takashio":"○","jishin":"○","tsunami":"○","kaji":"○","naisui":"○","kazan":"×"}}
,{"type":"Feature","geometry":{"type":"Point","coordinates":[133.785,34.262]},"properties":{"Name":"県立丸亀競技場（第1～第6会議室）","Jusho":"香川県丸亀市金倉町830","kouzui":"○","gake":"○","takashio":"○","jishin":"○","tsunami":"○","kaji":"○","naisui":"○","kazan":"×"}}
,{"type":"Feature","geometry":{"type":"Point","coordinates":[133.792,34.277]},"properties":{"Name":"丸亀城西高校（第2体育館）","Jusho":"香川県丸亀市津森町267","kouzui":"○","gake":"○","takashio":"○","jishin":"○","tsunami":"○","kaji":"○","naisui":"○","kazan":"×"}}
,{"type":"Feature","geometry":{"type":"Point","coordinates":[133.8,34.294]},"properties":{"Name":"城北小学校","Jusho":"香川県丸亀市瓦町95","kouzui":"○","gake":"○","takashio":"○","jishin":"○","tsunami":"○","kaji":"×","naisui":"○","kazan":"×"}}
,{"type":"Feature","geometry":{"type":"Point","coordinates":[133.802,34.293]},"properties":{"Name":"城北幼稚園","Jusho":"香川県丸亀市土居町三丁目9-27","kouzui":"×","gake":"○","takashio":"×","jishin":"○","tsunami":"×","kaji":"○","naisui":"×","kazan":"×"}}
,{"type":"Feature","geometry":{"type":"Point","coordinates":[133.798,34.297]},"properties":{"Name":"平山保育所","Jusho":"香川県丸亀市北平山町二丁目12-20","kouzui":"×","gake":"○","takashio":"○","jishin":"○","tsunami":"○","kaji":"×","naisui":"×","kazan":"×"}}
,{"type":"Feature","geometry":{"type":"Point","coordinates":[133.805,34.292]},"properties":{"Name":"土居保育所","Jusho":"香川県丸亀市土居町二丁目13-3","kouzui":"×","gake":"○","takashio":"○","jishin":"○","tsunami":"○","kaji":"○","naisui":"×","kazan":"×"}}
,{"type":"Feature","geometry":{"type":"Point","coordinates":[133.8,34.296]},"properties":{"Name":"城北コミュニティセンター","Jusho":"香川県丸亀市御供所町一丁目5-20","kouzui":"×","gake":"○","takashio":"×","jishin":"○","tsunami":"×","kaji":"×","naisui":"×","kazan":"×"}}
,{"type":"Feature","geometry":{"type":"Point","coordinates":[133.805,34.299]},"properties":{"Name":"二軒茶屋総合センター","Jusho":"香川県丸亀市土器町東八丁目501","kouzui":"×","gake":"○","takashio":"○","jishin":"○","tsunami":"○","kaji":"○","naisui":"×","kazan":"×"}}
,{"type":"Feature","geometry":{"type":"Point","coordinates":[133.8,34.298]},"properties":{"Name":"東汐入川けんこう公園","Jusho":"香川県丸亀市富士見町一丁目998-1","kouzui":"×","gake":"○","takashio":"×","jishin":"○","tsunami":"×","kaji":"○","naisui":"×","kazan":"×"}}
,{"type":"Feature","geometry":{"type":"Point","coordinates":[133.797,34.286]},"properties":{"Name":"城西小学校","Jusho":"香川県丸亀市六番丁12","kouzui":"○","gake":"○","takashio":"○","jishin":"○","tsunami":"○","kaji":"○","naisui":"○","kazan":"×"}}
,{"type":"Feature","geometry":{"type":"Point","coordinates":[133.798,34.279]},"properties":{"Name":"城西コミュニティセンター","Jusho":"香川県丸亀市山北町722-1","kouzui":"○","gake":"○","takashio":"○","jishin":"○","tsunami":"○","kaji":"○","naisui":"○","kazan":"×"}}
,{"type":"Feature","geometry":{"type":"Point","coordinates":[133.8,34.289]},"properties":{"Name":"中央保育所","Jusho":"香川県丸亀市大手町二丁目1-41","kouzui":"○","gake":"○","takashio":"○","jishin":"○","tsunami":"○","kaji":"×","naisui":"○","kazan":"×"}}
,{"type":"Feature","geometry":{"type":"Point","coordinates":[133.795,34.284]},"properties":{"Name":"西中学校","Jusho":"香川県丸亀市中府町三丁目11-1","kouzui":"○","gake":"○","takashio":"○","jishin":"○","tsunami":"○","kaji":"○","naisui":"○","kazan":"×"}}
,{"type":"Feature","geometry":{"type":"Point","coordinates":[133.799,34.283]},"properties":{"Name":"香川県立丸亀高等学校（第2体育館）","Jusho":"香川県丸亀市六番丁1番地","kouzui":"○","gake":"○","takashio":"○","jishin":"○","tsunami":"○","kaji":"○","naisui":"○","kazan":"×"}}
,{"type":"Feature","geometry":{"type":"Point","coordinates":[133.798,34.282]},"properties":{"Name":"丸亀武道館","Jusho":"香川県丸亀市城南町63-5","kouzui":"○","gake":"○","takashio":"○","jishin":"○","tsunami":"○","kaji":"○","naisui":"○","kazan":"×"}}
,{"type":"Feature","geometry":{"type":"Point","coordinates":[133.801,34.29]},"properties":{"Name":"東中学校","Jusho":"香川県丸亀市大手町一丁目5-1","kouzui":"○","gake":"○","takashio":"○","jishin":"○","tsunami":"○","kaji":"×","naisui":"○","kazan":"×"}}
,{"type":"Feature","geometry":{"type":"Point","coordinates":[133.798,34.269]},"properties":{"Name":"城南小学校","Jusho":"香川県丸亀市田村町973","kouzui":"○","gake":"○","takashio":"○","jishin":"○","tsunami":"○","kaji":"○","naisui":"○","kazan":"×"}}
,{"type":"Feature","geometry":{"type":"Point","coordinates":[133.799,34.27]},"properties":{"Name":"城南保育所","Jusho":"香川県丸亀市山北町261","kouzui":"○","gake":"○","takashio":"○","jishin":"○","tsunami":"○","kaji":"○","naisui":"○","kazan":"×"}}
,{"type":"Feature","geometry":{"type":"Point","coordinates":[133.79,34.258]},"properties":{"Name":"誠心保育園はらだ","Jusho":"香川県丸亀市原田町2046","kouzui":"○","gake":"○","takashio":"○","jishin":"○","tsunami":"○","kaji":"○","naisui":"○","kazan":"×"}}
,{"type":"Feature","geometry":{"type":"Point","coordinates":[133.8,34.272]},"properties":{"Name":"城南コミュニティセンター","Jusho":"香川県丸亀市山北町200-1","kouzui":"○","gake":"○","takashio":"○","jishin":"○","tsunami":"○","kaji":"○","naisui":"○","kazan":"×"}}
,{"type":"Feature","geometry":{"type":"Point","coordinates":[133.813,34.286]},"properties":{"Name":"城東小学校","Jusho":"香川県丸亀市土器町西五丁目113","kouzui":"○","gake":"○","takashio":"○","jishin":"○","tsunami":"○","kaji":"○","naisui":"○","kazan":"×"}}
,{"type":"Feature","geometry":{"type":"Point","coordinates":[133.813,34.282]},"properties":{"Name":"城東幼稚園","Jusho":"香川県丸亀市土器町西四丁目668","kouzui":"○","gake":"○","takashio":"○","jishin":"○","tsunami":"○","kaji":"○","naisui":"○","kazan":"×"}}
,{"type":"Feature","geometry":{"type":"Point","coordinates":[133.819,34.295]},"properties":{"Name":"青ノ山保育所","Jusho":"香川県丸亀市土器町東四丁目303","kouzui":"○","gake":"×","takashio":"○","jishin":"○","tsunami":"○","kaji":"○","naisui":"○","kazan":"×"}}
,{"type":"Feature","geometry":{"type":"Point","coordinates":[133.811,34.291]},"properties":{"Name":"土器コミュニティセンター","Jusho":"香川県丸亀市土器町東七丁目160","kouzui":"○","gake":"○","takashio":"○","jishin":"○","tsunami":"○","kaji":"○","naisui":"○","kazan":"×"}}
,{"type":"Feature","geometry":{"type":"Point","coordinates":[133.804,34.309]},"properties":{"Name":"クリントピア丸亀","Jusho":"香川県丸亀市土器町北一丁目72-2","kouzui":"○","gake":"○","takashio":"○","jishin":"○","tsunami":"○","kaji":"○","naisui":"○","kazan":"×"}}
,{"type":"Feature","geometry":{"type":"Point","coordinates":[133.828,34.257]},"properties":{"Name":"城辰小学校","Jusho":"香川県丸亀市川西町北151","kouzui":"○","gake":"○","takashio":"○","jishin":"○","tsunami":"○","kaji":"○","naisui":"○","kazan":"×"}}
,{"type":"Feature","geometry":{"type":"Point","coordinates":[133.829,34.257]},"properties":{"Name":"城辰幼稚園","Jusho":"香川県丸亀市川西町南161","kouzui":"○","gake":"○","takashio":"○","jishin":"○","tsunami":"○","kaji":"○","naisui":"○","kazan":"×"}}
,{"type":"Feature","geometry":{"type":"Point","coordinates":[133.83,34.246]},"properties":{"Name":"城辰保育所","Jusho":"香川県丸亀市川西町南746-1","kouzui":"×","gake":"○","takashio":"○","jishin":"○","tsunami":"○","kaji":"○","naisui":"×","kazan":"×"}}
,{"type":"Feature","geometry":{"type":"Point","coordinates":[133.83,34.253]},"properties":{"Name":"川西コミュニティセンター","Jusho":"香川県丸亀市川西町南428-1","kouzui":"×","gake":"○","takashio":"○","jishin":"○","tsunami":"○","kaji":"○","naisui":"×","kazan":"×"}}
,{"type":"Feature","geometry":{"type":"Point","coordinates":[133.829,34.247]},"properties":{"Name":"金山文化センター（集会所）","Jusho":"香川県丸亀市川西町南679-10","kouzui":"×","gake":"○","takashio":"○","jishin":"×","tsunami":"○","kaji":"○","naisui":"×","kazan":"×"}}
,{"type":"Feature","geometry":{"type":"Point","coordinates":[133.834,34.252]},"properties":{"Name":"土器川体育センター","Jusho":"香川県丸亀市川西町南307","kouzui":"○","gake":"○","takashio":"○","jishin":"○","tsunami":"○","kaji":"○","naisui":"○","kazan":"×"}}
,{"type":"Feature","geometry":{"type":"Point","coordinates":[133.815,34.251]},"properties":{"Name":"郡家小学校","Jusho":"香川県丸亀市郡家町790-1","kouzui":"○","gake":"○","takashio":"○","jishin":"○","tsunami":"○","kaji":"○","naisui":"○","kazan":"×"}}
,{"type":"Feature","geometry":{"type":"Point","coordinates":[133.814,34.252]},"properties":{"Name":"郡家幼稚園","Jusho":"香川県丸亀市郡家町787","kouzui":"○","gake":"○","takashio":"○","jishin":"○","tsunami":"○","kaji":"○","naisui":"○","kazan":"×"}}
,{"type":"Feature","geometry":{"type":"Point","coordinates":[133.815,34.25]},"properties":{"Name":"郡家コミュニティセンター","Jusho":"香川県丸亀市郡家町814-1","kouzui":"○","gake":"○","takashio":"○","jishin":"○","tsunami":"○","kaji":"○","naisui":"○","kazan":"×"}}
,{"type":"Feature","geometry":{"type":"Point","coordinates":[133.814,34.267]},"properties":{"Name":"南中学校","Jusho":"香川県丸亀市郡家町3690","kouzui":"○","gake":"○","takashio":"○","jishin":"○","tsunami":"○","kaji":"○","naisui":"○","kazan":"×"}}
,{"type":"Feature","geometry":{"type":"Point","coordinates":[133.81,34.263]},"properties":{"Name":"四国職業能力開発大学校（体育館)","Jusho":"香川県丸亀市郡家町3202","kouzui":"○","gake":"○","takashio":"○","jishin":"×","tsunami":"○","kaji":"○","naisui":"○","kazan":"×"}}
,{"type":"Feature","geometry":{"type":"Point","coordinates":[133.833,34.28]},"properties":{"Name":"飯野小学校","Jusho":"香川県丸亀市飯野町西分113","kouzui":"○","gake":"○","takashio":"○","jishin":"○","tsunami":"○","kaji":"○","naisui":"○","kazan":"×"}}
,{"type":"Feature","geometry":{"type":"Point","coordinates":[133.833,34.279]},"properties":{"Name":"飯野こども園","Jusho":"香川県丸亀市飯野町東分2576","kouzui":"○","gake":"○","takashio":"○","jishin":"○","tsunami":"○","kaji":"○","naisui":"○","kazan":"×"}}
,{"type":"Feature","geometry":{"type":"Point","coordinates":[133.834,34.282]},"properties":{"Name":"飯野コミュニティセンター","Jusho":"香川県丸亀市飯野町東分2334-2","kouzui":"○","gake":"○","takashio":"○","jishin":"×","tsunami":"○","kaji":"○","naisui":"○","kazan":"×"}}
,{"type":"Feature","geometry":{"type":"Point","coordinates":[133.825,34.292]},"properties":{"Name":"県立香川丸亀養護学校（体育館）","Jusho":"香川県丸亀市飯野町東分592-1","kouzui":"○","gake":"○","takashio":"○","jishin":"○","tsunami":"○","kaji":"○","naisui":"○","kazan":"×"}}
,{"type":"Feature","geometry":{"type":"Point","coordinates":[133.828,34.232]},"properties":{"Name":"垂水小学校","Jusho":"香川県丸亀市垂水町1408","kouzui":"○","gake":"○","takashio":"○","jishin":"○","tsunami":"○","kaji":"○","naisui":"○","kazan":"×"}}
,{"type":"Feature","geometry":{"type":"Point","coordinates":[133.824,34.231]},"properties":{"Name":"垂水こども園","Jusho":"香川県丸亀市垂水町1709","kouzui":"○","gake":"○","takashio":"○","jishin":"○","tsunami":"○","kaji":"○","naisui":"○","kazan":"×"}}
,{"type":"Feature","geometry":{"type":"Point","coordinates":[133.828,34.234]},"properties":{"Name":"垂水コミュニティセンター","Jusho":"香川県丸亀市垂水町1344-1","kouzui":"○","gake":"○","takashio":"○","jishin":"×","tsunami":"○","kaji":"○","naisui":"○","kazan":"×"}}
,{"type":"Feature","geometry":{"type":"Point","coordinates":[133.783,34.388]},"properties":{"Name":"本島小学校","Jusho":"香川県丸亀市本島町泊18","kouzui":"○","gake":"○","takashio":"○","jishin":"○","tsunami":"○","kaji":"○","naisui":"○","kazan":"×"}}
,{"type":"Feature","geometry":{"type":"Point","coordinates":[133.783,34.389]},"properties":{"Name":"本島幼稚園","Jusho":"香川県丸亀市本島町泊34","kouzui":"○","gake":"×","takashio":"○","jishin":"○","tsunami":"○","kaji":"○","naisui":"○","kazan":"×"}}
,{"type":"Feature","geometry":{"type":"Point","coordinates":[133.78,34.383]},"properties":{"Name":"本島コミュニティセンター","Jusho":"香川県丸亀市本島町泊506-1","kouzui":"○","gake":"×","takashio":"×","jishin":"×","tsunami":"×","kaji":"○","naisui":"○","kazan":"×"}}
,{"type":"Feature","geometry":{"type":"Point","coordinates":[133.757,34.387]},"properties":{"Name":"西地区集会場","Jusho":"香川県丸亀市本島町尻浜83","kouzui":"○","gake":"×","takashio":"○","jishin":"○","tsunami":"○","kaji":"○","naisui":"○","kazan":"×"}}
,{"type":"Feature","geometry":{"type":"Point","coordinates":[133.785,34.389]},"properties":{"Name":"山根文化センター","Jusho":"香川県丸亀市本島町笠島100-2","kouzui":"○","gake":"×","takashio":"○","jishin":"×","tsunami":"○","kaji":"○","naisui":"○","kazan":"×"}}
,{"type":"Feature","geometry":{"type":"Point","coordinates":[133.786,34.389]},"properties":{"Name":"山根児童館","Jusho":"香川県丸亀市本島町笠島84-3","kouzui":"○","gake":"○","takashio":"○","jishin":"○","tsunami":"○","kaji":"○","naisui":"○","kazan":"×"}}
,{"type":"Feature","geometry":{"type":"Point","coordinates":[133.781,34.386]},"properties":{"Name":"本島中学校","Jusho":"香川県丸亀市本島町泊410","kouzui":"○","gake":"○","takashio":"○","jishin":"○","tsunami":"○","kaji":"○","naisui":"○","kazan":"×"}}
,{"type":"Feature","geometry":{"type":"Point","coordinates":[133.78,34.362]},"properties":{"Name":"牛島集会場","Jusho":"香川県丸亀市牛島町385","kouzui":"○","gake":"×","takashio":"○","jishin":"×","tsunami":"○","kaji":"○","naisui":"○","kazan":"×"}}
,{"type":"Feature","geometry":{"type":"Point","coordinates":[133.714,34.365]},"properties":{"Name":"広島小学校","Jusho":"香川県丸亀市広島町江の浦439","kouzui":"○","gake":"○","takashio":"○","jishin":"○","tsunami":"○","kaji":"○","naisui":"○","kazan":"×"}}
,{"type":"Feature","geometry":{"type":"Point","coordinates":[133.715,34.365]},"properties":{"Name":"広島コミュニティセンター","Jusho":"香川県丸亀市広島町江の浦373-3","kouzui":"○","gake":"○","takashio":"○","jishin":"○","tsunami":"○","kaji":"○","naisui":"○","kazan":"×"}}
,{"type":"Feature","geometry":{"type":"Point","coordinates":[133.691,34.37]},"properties":{"Name":"へき地集会室","Jusho":"香川県丸亀市広島町青木549","kouzui":"○","gake":"×","takashio":"○","jishin":"○","tsunami":"○","kaji":"○","naisui":"○","kazan":"×"}}
,{"type":"Feature","geometry":{"type":"Point","coordinates":[133.668,34.398]},"properties":{"Name":"手島自然教育センター","Jusho":"香川県丸亀市手島町1273","kouzui":"○","gake":"○","takashio":"○","jishin":"×","tsunami":"○","kaji":"○","naisui":"○","kazan":"×"}}
,{"type":"Feature","geometry":{"type":"Point","coordinates":[133.671,34.398]},"properties":{"Name":"手島集会場","Jusho":"香川県丸亀市手島町224","kouzui":"○","gake":"×","takashio":"○","jishin":"×","tsunami":"○","kaji":"○","naisui":"○","kazan":"×"}}
,{"type":"Feature","geometry":{"type":"Point","coordinates":[133.651,34.375]},"properties":{"Name":"小手島小中学校","Jusho":"香川県丸亀市広島町小手島2782","kouzui":"○","gake":"○","takashio":"○","jishin":"○","tsunami":"○","kaji":"○","naisui":"○","kazan":"×"}}
,{"type":"Feature","geometry":{"type":"Point","coordinates":[133.858,34.227]},"properties":{"Name":"岡田小学校","Jusho":"香川県丸亀市綾歌町岡田下217","kouzui":"○","gake":"○","takashio":"○","jishin":"○","tsunami":"○","kaji":"○","naisui":"○","kazan":"×"}}
,{"type":"Feature","geometry":{"type":"Point","coordinates":[133.869,34.236]},"properties":{"Name":"あやうたこども園","Jusho":"香川県丸亀市綾歌町岡田東1150","kouzui":"○","gake":"○","takashio":"○","jishin":"○","tsunami":"○","kaji":"○","naisui":"○","kazan":"×"}}
,{"type":"Feature","geometry":{"type":"Point","coordinates":[133.859,34.228]},"properties":{"Name":"岡田保育所","Jusho":"香川県丸亀市綾歌町岡田下87-1","kouzui":"○","gake":"○","takashio":"○","jishin":"○","tsunami":"○","kaji":"○","naisui":"○","kazan":"×"}}
,{"type":"Feature","geometry":{"type":"Point","coordinates":[133.859,34.225]},"properties":{"Name":"岡田コミュニティセンター","Jusho":"香川県丸亀市綾歌町岡田下516-1","kouzui":"○","gake":"○","takashio":"○","jishin":"○","tsunami":"○","kaji":"○","naisui":"○","kazan":"×"}}
,{"type":"Feature","geometry":{"type":"Point","coordinates":[133.882,34.239]},"properties":{"Name":"栗熊小学校","Jusho":"香川県丸亀市綾歌町栗熊東323","kouzui":"○","gake":"○","takashio":"○","jishin":"○","tsunami":"○","kaji":"○","naisui":"○","kazan":"×"}}
,{"type":"Feature","geometry":{"type":"Point","coordinates":[133.884,34.237]},"properties":{"Name":"栗熊保育所","Jusho":"香川県丸亀市綾歌町栗熊東271","kouzui":"○","gake":"○","takashio":"○","jishin":"○","tsunami":"○","kaji":"○","naisui":"○","kazan":"×"}}
,{"type":"Feature","geometry":{"type":"Point","coordinates":[133.878,34.232]},"properties":{"Name":"栗熊コミュニティセンター","Jusho":"香川県丸亀市綾歌町栗熊西1638-1","kouzui":"○","gake":"○","takashio":"○","jishin":"○","tsunami":"○","kaji":"○","naisui":"○","kazan":"×"}}
,{"type":"Feature","geometry":{"type":"Point","coordinates":[133.879,34.232]},"properties":{"Name":"綾歌総合文化会館","Jusho":"香川県丸亀市綾歌町栗熊西1680","kouzui":"○","gake":"○","takashio":"○","jishin":"○","tsunami":"○","kaji":"○","naisui":"○","kazan":"×"}}
,{"type":"Feature","geometry":{"type":"Point","coordinates":[133.882,34.226]},"properties":{"Name":"綾歌保健福祉センター","Jusho":"香川県丸亀市綾歌町栗熊西782","kouzui":"○","gake":"○","takashio":"○","jishin":"○","tsunami":"○","kaji":"○","naisui":"○","kazan":"×"}}
,{"type":"Feature","geometry":{"type":"Point","coordinates":[133.883,34.237]},"properties":{"Name":"綾歌中学校","Jusho":"香川県丸亀市綾歌町栗熊東431","kouzui":"○","gake":"○","takashio":"○","jishin":"○","tsunami":"○","kaji":"○","naisui":"○","kazan":"×"}}
,{"type":"Feature","geometry":{"type":"Point","coordinates":[133.879,34.249]},"properties":{"Name":"富熊小学校","Jusho":"香川県丸亀市綾歌町富熊1227","kouzui":"○","gake":"○","takashio":"○","jishin":"○","tsunami":"○","kaji":"○","naisui":"○","kazan":"×"}}
,{"type":"Feature","geometry":{"type":"Point","coordinates":[133.88,34.249]},"properties":{"Name":"富熊保育所","Jusho":"香川県丸亀市綾歌町富熊1226","kouzui":"○","gake":"○","takashio":"○","jishin":"○","tsunami":"○","kaji":"○","naisui":"○","kazan":"×"}}
,{"type":"Feature","geometry":{"type":"Point","coordinates":[133.881,34.247]},"properties":{"Name":"富熊コミュニティセンター","Jusho":"香川県丸亀市綾歌町富熊1192-1","kouzui":"○","gake":"○","takashio":"○","jishin":"○","tsunami":"○","kaji":"○","naisui":"○","kazan":"×"}}
,{"type":"Feature","geometry":{"type":"Point","coordinates":[133.884,34.255]},"properties":{"Name":"富熊コミュニティセンター分館","Jusho":"香川県丸亀市綾歌町富熊1409-31","kouzui":"○","gake":"○","takashio":"○","jishin":"○","tsunami":"○","kaji":"○","naisui":"○","kazan":"×"}}
,{"type":"Feature","geometry":{"type":"Point","coordinates":[133.855,34.248]},"properties":{"Name":"飯山南小学校","Jusho":"香川県丸亀市飯山町上法軍寺1206","kouzui":"○","gake":"○","takashio":"○","jishin":"○","tsunami":"○","kaji":"○","naisui":"○","kazan":"×"}}
,{"type":"Feature","geometry":{"type":"Point","coordinates":[133.857,34.248]},"properties":{"Name":"飯山南保育所","Jusho":"香川県丸亀市飯山町上法軍寺1036","kouzui":"○","gake":"○","takashio":"○","jishin":"○","tsunami":"○","kaji":"○","naisui":"○","kazan":"×"}}
,{"type":"Feature","geometry":{"type":"Point","coordinates":[133.858,34.259]},"properties":{"Name":"飯山総合保健福祉 センター","Jusho":"香川県丸亀市飯山町下法軍寺581-1","kouzui":"○","gake":"○","takashio":"○","jishin":"○","tsunami":"○","kaji":"○","naisui":"○","kazan":"×"}}
,{"type":"Feature","geometry":{"type":"Point","coordinates":[133.844,34.248]},"properties":{"Name":"東小川児童センター","Jusho":"香川県丸亀市飯山町東小川1260","kouzui":"×","gake":"○","takashio":"○","jishin":"○","tsunami":"○","kaji":"○","naisui":"×","kazan":"×"}}
,{"type":"Feature","geometry":{"type":"Point","coordinates":[133.856,34.248]},"properties":{"Name":"飯山南コミュニティセンター","Jusho":"香川県丸亀市飯山町上法軍寺1067-5","kouzui":"○","gake":"○","takashio":"○","jishin":"○","tsunami":"○","kaji":"○","naisui":"○","kazan":"×"}}
,{"type":"Feature","geometry":{"type":"Point","coordinates":[133.855,34.258]},"properties":{"Name":"飯山高校（新体育館）","Jusho":"香川県丸亀市飯山町下法軍寺664-1","kouzui":"○","gake":"○","takashio":"○","jishin":"○","tsunami":"○","kaji":"○","naisui":"○","kazan":"×"}}
,{"type":"Feature","geometry":{"type":"Point","coordinates":[133.858,34.265]},"properties":{"Name":"飯山北小学校","Jusho":"香川県丸亀市飯山町川原1874","kouzui":"○","gake":"○","takashio":"○","jishin":"○","tsunami":"○","kaji":"○","naisui":"○","kazan":"×"}}
,{"type":"Feature","geometry":{"type":"Point","coordinates":[133.858,34.268]},"properties":{"Name":"飯山北第一保育所","Jusho":"香川県丸亀市飯山町川原1009","kouzui":"○","gake":"○","takashio":"○","jishin":"○","tsunami":"○","kaji":"○","naisui":"○","kazan":"×"}}
,{"type":"Feature","geometry":{"type":"Point","coordinates":[133.841,34.262]},"properties":{"Name":"飯山総合学習センター","Jusho":"香川県丸亀市飯山町西坂元547-1","kouzui":"○","gake":"○","takashio":"○","jishin":"○","tsunami":"○","kaji":"○","naisui":"○","kazan":"×"}}
,{"type":"Feature","geometry":{"type":"Point","coordinates":[133.871,34.268]},"properties":{"Name":"飯山総合運動公園","Jusho":"香川県丸亀市飯山町東坂元2713-1","kouzui":"○","gake":"○","takashio":"○","jishin":"○","tsunami":"○","kaji":"○","naisui":"○","kazan":"×"}}
,{"type":"Feature","geometry":{"type":"Point","coordinates":[133.861,34.264]},"properties":{"Name":"飯山北コミュニティセンター","Jusho":"香川県丸亀市飯山町川原1112-5","kouzui":"○","gake":"○","takashio":"○","jishin":"×","tsunami":"○","kaji":"○","naisui":"○","kazan":"×"}}
,{"type":"Feature","geometry":{"type":"Point","coordinates":[133.861,34.264]},"properties":{"Name":"飯山中学校","Jusho":"香川県丸亀市飯山町川原1110","kouzui":"○","gake":"○","takashio":"○","jishin":"○","tsunami":"○","kaji":"○","naisui":"○","kazan":"×"}}
,{"type":"Feature","geometry":{"type":"Point","coordinates":[133.851,34.257]},"properties":{"Name":"飯山こども園","Jusho":"香川県丸亀市飯山町真時71-1","kouzui":"○","gake":"○","takashio":"○","jishin":"○","tsunami":"○","kaji":"○","naisui":"○","kazan":"×"}}
,{"type":"Feature","geometry":{"type":"Point","coordinates":[133.846,34.314]},"properties":{"Name":"坂出小学校","Jusho":"香川県坂出市白金町1-3-7","kouzui":"○","gake":"○","takashio":"×","jishin":"○","tsunami":"×","kaji":"○","naisui":"○","kazan":"×"}}
,{"type":"Feature","geometry":{"type":"Point","coordinates":[133.842,34.318]},"properties":{"Name":"坂出工業高等学校 心技館","Jusho":"香川県坂出市御供所町1-1-2","kouzui":"○","gake":"○","takashio":"×","jishin":"○","tsunami":"×","kaji":"○","naisui":"×","kazan":"×"}}
,{"type":"Feature","geometry":{"type":"Point","coordinates":[133.854,34.306]},"properties":{"Name":"坂出商業高等学校 新体育館","Jusho":"香川県坂出市青葉町1-13","kouzui":"○","gake":"○","takashio":"○","jishin":"○","tsunami":"○","kaji":"○","naisui":"○","kazan":"×"}}
,{"type":"Feature","geometry":{"type":"Point","coordinates":[133.853,34.309]},"properties":{"Name":"坂出高等学校 新体育館","Jusho":"香川県坂出市文京町2-1-5","kouzui":"○","gake":"○","takashio":"×","jishin":"○","tsunami":"×","kaji":"○","naisui":"×","kazan":"×"}}
,{"type":"Feature","geometry":{"type":"Point","coordinates":[133.853,34.305]},"properties":{"Name":"南部公民館","Jusho":"香川県坂出市池園町3-46","kouzui":"○","gake":"○","takashio":"○","jishin":"○","tsunami":"○","kaji":"○","naisui":"○","kazan":"×"}}
,{"type":"Feature","geometry":{"type":"Point","coordinates":[133.85,34.317]},"properties":{"Name":"中央体育館","Jusho":"香川県坂出市寿町3-1-2","kouzui":"○","gake":"○","takashio":"×","jishin":"○","tsunami":"×","kaji":"○","naisui":"×","kazan":"×"}}
,{"type":"Feature","geometry":{"type":"Point","coordinates":[133.852,34.313]},"properties":{"Name":"市民ふれあい会館","Jusho":"香川県坂出市本町1-2-1","kouzui":"○","gake":"○","takashio":"×","jishin":"○","tsunami":"×","kaji":"×","naisui":"○","kazan":"×"}}
,{"type":"Feature","geometry":{"type":"Point","coordinates":[133.858,34.323]},"properties":{"Name":"坂出市立体育館","Jusho":"香川県坂出市入船町2-1-59","kouzui":"○","gake":"○","takashio":"×","jishin":"○","tsunami":"×","kaji":"×","naisui":"○","kazan":"×"}}
,{"type":"Feature","geometry":{"type":"Point","coordinates":[133.861,34.314]},"properties":{"Name":"東部小学校","Jusho":"香川県坂出市室町1-1-21","kouzui":"○","gake":"○","takashio":"×","jishin":"○","tsunami":"×","kaji":"○","naisui":"×","kazan":"×"}}
,{"type":"Feature","geometry":{"type":"Point","coordinates":[133.865,34.32]},"properties":{"Name":"東部中学校","Jusho":"香川県坂出市久米町2-7-46","kouzui":"○","gake":"○","takashio":"×","jishin":"○","tsunami":"×","kaji":"○","naisui":"×","kazan":"×"}}
,{"type":"Feature","geometry":{"type":"Point","coordinates":[133.858,34.314]},"properties":{"Name":"市民広場","Jusho":"香川県坂出市京町1-3793-49","kouzui":"×","gake":"×","takashio":"×","jishin":"○","tsunami":"×","kaji":"○","naisui":"×","kazan":"×"}}
,{"type":"Feature","geometry":{"type":"Point","coordinates":[133.867,34.31]},"properties":{"Name":"金山小学校","Jusho":"香川県坂出市谷町3-1-23","kouzui":"○","gake":"○","takashio":"○","jishin":"○","tsunami":"○","kaji":"○","naisui":"○","kazan":"×"}}
,{"type":"Feature","geometry":{"type":"Point","coordinates":[133.891,34.314]},"properties":{"Name":"西庄小学校","Jusho":"香川県坂出市西庄町524-5","kouzui":"×","gake":"○","takashio":"○","jishin":"○","tsunami":"○","kaji":"○","naisui":"×","kazan":"×"}}
,{"type":"Feature","geometry":{"type":"Point","coordinates":[133.889,34.317]},"properties":{"Name":"西庄公民館","Jusho":"香川県坂出市西庄町456-9","kouzui":"×","gake":"○","takashio":"○","jishin":"○","tsunami":"○","kaji":"○","naisui":"×","kazan":"×"}}
,{"type":"Feature","geometry":{"type":"Point","coordinates":[133.898,34.31]},"properties":{"Name":"西庄文化センター(西庄児童館含む)","Jusho":"香川県坂出市西庄町1155-1","kouzui":"×","gake":"×","takashio":"○","jishin":"○","tsunami":"○","kaji":"○","naisui":"×","kazan":"×"}}
,{"type":"Feature","geometry":{"type":"Point","coordinates":[133.89,34.328]},"properties":{"Name":"林田小学校","Jusho":"香川県坂出市林田町2215-1","kouzui":"×","gake":"○","takashio":"×","jishin":"○","tsunami":"○","kaji":"○","naisui":"×","kazan":"×"}}
,{"type":"Feature","geometry":{"type":"Point","coordinates":[133.9,34.326]},"properties":{"Name":"白峰中学校","Jusho":"香川県坂出市林田町181-1","kouzui":"×","gake":"○","takashio":"○","jishin":"○","tsunami":"○","kaji":"○","naisui":"×","kazan":"×"}}
,{"type":"Feature","geometry":{"type":"Point","coordinates":[133.891,34.327]},"properties":{"Name":"林田公民館","Jusho":"香川県坂出市林田町636-5","kouzui":"×","gake":"○","takashio":"×","jishin":"○","tsunami":"○","kaji":"○","naisui":"×","kazan":"×"}}
,{"type":"Feature","geometry":{"type":"Point","coordinates":[133.91,34.312]},"properties":{"Name":"加茂小学校","Jusho":"香川県坂出市加茂町1098-3","kouzui":"×","gake":"○","takashio":"○","jishin":"○","tsunami":"○","kaji":"○","naisui":"×","kazan":"×"}}
,{"type":"Feature","geometry":{"type":"Point","coordinates":[133.91,34.309]},"properties":{"Name":"加茂公民館","Jusho":"香川県坂出市加茂町645-7","kouzui":"×","gake":"○","takashio":"○","jishin":"○","tsunami":"○","kaji":"○","naisui":"×","kazan":"×"}}
,{"type":"Feature","geometry":{"type":"Point","coordinates":[133.85,34.352]},"properties":{"Name":"瀬居小学校","Jusho":"香川県坂出市瀬居町1500-1","kouzui":"○","gake":"○","takashio":"×","jishin":"○","tsunami":"○","kaji":"○","naisui":"○","kazan":"×"}}
,{"type":"Feature","geometry":{"type":"Point","coordinates":[133.857,34.352]},"properties":{"Name":"瀬居中学校","Jusho":"香川県坂出市番の州町11","kouzui":"○","gake":"○","takashio":"×","jishin":"○","tsunami":"○","kaji":"○","naisui":"○","kazan":"×"}}
,{"type":"Feature","geometry":{"type":"Point","coordinates":[133.823,34.347]},"properties":{"Name":"万葉会館","Jusho":"香川県坂出市沙弥島70-1","kouzui":"○","gake":"○","takashio":"○","jishin":"○","tsunami":"○","kaji":"○","naisui":"○","kazan":"×"}}
,{"type":"Feature","geometry":{"type":"Point","coordinates":[133.823,34.385]},"properties":{"Name":"中央公民館与島分館","Jusho":"香川県坂出市与島町102","kouzui":"○","gake":"○","takashio":"×","jishin":"○","tsunami":"×","kaji":"○","naisui":"○","kazan":"×"}}
,{"type":"Feature","geometry":{"type":"Point","coordinates":[133.819,34.39]},"properties":{"Name":"与島開発総合センター","Jusho":"香川県坂出市与島町514-22","kouzui":"○","gake":"○","takashio":"○","jishin":"○","tsunami":"○","kaji":"○","naisui":"○","kazan":"×"}}
,{"type":"Feature","geometry":{"type":"Point","coordinates":[133.812,34.408]},"properties":{"Name":"岩黒小・中学校","Jusho":"香川県坂出市岩黒240","kouzui":"○","gake":"○","takashio":"○","jishin":"○","tsunami":"○","kaji":"○","naisui":"○","kazan":"×"}}
,{"type":"Feature","geometry":{"type":"Point","coordinates":[133.807,34.421]},"properties":{"Name":"櫃石小・中学校","Jusho":"香川県坂出市櫃石585-17","kouzui":"○","gake":"○","takashio":"×","jishin":"○","tsunami":"○","kaji":"○","naisui":"○","kazan":"×"}}
,{"type":"Feature","geometry":{"type":"Point","coordinates":[133.917,34.289]},"properties":{"Name":"府中小学校","Jusho":"香川県坂出市府中町1193-3","kouzui":"×","gake":"○","takashio":"○","jishin":"○","tsunami":"○","kaji":"○","naisui":"×","kazan":"×"}}
,{"type":"Feature","geometry":{"type":"Point","coordinates":[133.919,34.29]},"properties":{"Name":"府中公民館","Jusho":"香川県坂出市府中町1145-6","kouzui":"×","gake":"○","takashio":"○","jishin":"○","tsunami":"○","kaji":"○","naisui":"×","kazan":"×"}}
,{"type":"Feature","geometry":{"type":"Point","coordinates":[133.921,34.285]},"properties":{"Name":"香川県県営水道事務所","Jusho":"香川県坂出市府中町1265-1","kouzui":"○","gake":"○","takashio":"○","jishin":"○","tsunami":"○","kaji":"○","naisui":"○","kazan":"×"}}
,{"type":"Feature","geometry":{"type":"Point","coordinates":[133.916,34.291]},"properties":{"Name":"香川県埋蔵文化財センター","Jusho":"香川県坂出市府中町5001-4","kouzui":"○","gake":"○","takashio":"○","jishin":"○","tsunami":"○","kaji":"○","naisui":"○","kazan":"×"}}
,{"type":"Feature","geometry":{"type":"Point","coordinates":[133.853,34.299]},"properties":{"Name":"坂出中学校","Jusho":"香川県坂出市小山町2-1","kouzui":"○","gake":"○","takashio":"○","jishin":"○","tsunami":"○","kaji":"○","naisui":"○","kazan":"×"}}
,{"type":"Feature","geometry":{"type":"Point","coordinates":[133.857,34.294]},"properties":{"Name":"川津小学校","Jusho":"香川県坂出市川津町3093-3","kouzui":"○","gake":"○","takashio":"○","jishin":"○","tsunami":"○","kaji":"○","naisui":"○","kazan":"×"}}
,{"type":"Feature","geometry":{"type":"Point","coordinates":[133.852,34.292]},"properties":{"Name":"川津公民館","Jusho":"香川県坂出市川津町4939","kouzui":"○","gake":"○","takashio":"○","jishin":"○","tsunami":"○","kaji":"○","naisui":"○","kazan":"×"}}
,{"type":"Feature","geometry":{"type":"Point","coordinates":[133.84,34.286]},"properties":{"Name":"川津文化センター","Jusho":"香川県坂出市川津町6100","kouzui":"○","gake":"○","takashio":"○","jishin":"○","tsunami":"○","kaji":"○","naisui":"○","kazan":"×"}}
,{"type":"Feature","geometry":{"type":"Point","coordinates":[133.908,34.338]},"properties":{"Name":"松山小学校","Jusho":"香川県坂出市高屋町1050-1","kouzui":"○","gake":"○","takashio":"×","jishin":"○","tsunami":"×","kaji":"○","naisui":"○","kazan":"×"}}
,{"type":"Feature","geometry":{"type":"Point","coordinates":[133.908,34.339]},"properties":{"Name":"松山公民館","Jusho":"香川県坂出市高屋町1100-1","kouzui":"○","gake":"○","takashio":"×","jishin":"○","tsunami":"×","kaji":"○","naisui":"○","kazan":"×"}}
,{"type":"Feature","geometry":{"type":"Point","coordinates":[133.916,34.366]},"properties":{"Name":"旧王越小学校","Jusho":"香川県坂出市王越町木沢1197-8","kouzui":"○","gake":"×","takashio":"○","jishin":"○","tsunami":"○","kaji":"○","naisui":"○","kazan":"×"}}
,{"type":"Feature","geometry":{"type":"Point","coordinates":[133.781,34.223]},"properties":{"Name":"西中学校","Jusho":"香川県善通寺市文京町４-１-１","kouzui":"○","gake":"○","takashio":"×","jishin":"○","tsunami":"×","kaji":"×","naisui":"○","kazan":"×"}}
,{"type":"Feature","geometry":{"type":"Point","coordinates":[133.779,34.224]},"properties":{"Name":"中央小学校","Jusho":"香川県善通寺市文京町４-５-１","kouzui":"○","gake":"○","takashio":"×","jishin":"○","tsunami":"×","kaji":"×","naisui":"○","kazan":"×"}}
,{"type":"Feature","geometry":{"type":"Point","coordinates":[133.787,34.225]},"properties":{"Name":"東中学校","Jusho":"香川県善通寺市生野本町２-１４-１","kouzui":"○","gake":"○","takashio":"×","jishin":"○","tsunami":"×","kaji":"×","naisui":"○","kazan":"×"}}
,{"type":"Feature","geometry":{"type":"Point","coordinates":[133.79,34.216]},"properties":{"Name":"南部小学校","Jusho":"香川県善通寺市生野町２９９０-１","kouzui":"○","gake":"×","takashio":"×","jishin":"○","tsunami":"×","kaji":"×","naisui":"○","kazan":"×"}}
,{"type":"Feature","geometry":{"type":"Point","coordinates":[133.773,34.22]},"properties":{"Name":"西部小学校","Jusho":"香川県善通寺市善通寺町１１４６","kouzui":"○","gake":"×","takashio":"×","jishin":"○","tsunami":"×","kaji":"×","naisui":"○","kazan":"×"}}
,{"type":"Feature","geometry":{"type":"Point","coordinates":[133.782,34.235]},"properties":{"Name":"東部小学校","Jusho":"香川県善通寺市稲木町４５０-１","kouzui":"○","gake":"○","takashio":"×","jishin":"○","tsunami":"×","kaji":"×","naisui":"○","kazan":"×"}}
,{"type":"Feature","geometry":{"type":"Point","coordinates":[133.808,34.233]},"properties":{"Name":"与北小学校","Jusho":"香川県善通寺市与北町１２３８","kouzui":"○","gake":"○","takashio":"×","jishin":"○","tsunami":"×","kaji":"×","naisui":"○","kazan":"×"}}
,{"type":"Feature","geometry":{"type":"Point","coordinates":[133.793,34.249]},"properties":{"Name":"竜川小学校","Jusho":"香川県善通寺市原田町３０６-１","kouzui":"○","gake":"○","takashio":"×","jishin":"○","tsunami":"×","kaji":"○","naisui":"○","kazan":"×"}}
,{"type":"Feature","geometry":{"type":"Point","coordinates":[133.792,34.239]},"properties":{"Name":"市民体育館","Jusho":"香川県善通寺市金蔵寺町３９８-６","kouzui":"○","gake":"○","takashio":"×","jishin":"○","tsunami":"×","kaji":"○","naisui":"○","kazan":"×"}}
,{"type":"Feature","geometry":{"type":"Point","coordinates":[133.765,34.239]},"properties":{"Name":"筆岡小学校","Jusho":"香川県善通寺市中村町１５７５-２","kouzui":"○","gake":"○","takashio":"×","jishin":"○","tsunami":"×","kaji":"×","naisui":"○","kazan":"×"}}
,{"type":"Feature","geometry":{"type":"Point","coordinates":[133.751,34.23]},"properties":{"Name":"吉原小学校","Jusho":"香川県善通寺市吉原町２８１１","kouzui":"○","gake":"○","takashio":"×","jishin":"○","tsunami":"×","kaji":"○","naisui":"○","kazan":"×"}}
,{"type":"Feature","geometry":{"type":"Point","coordinates":[133.533,34.128]},"properties":{"Name":"伊吹支所","Jusho":"香川県観音寺市伊吹町２０９-２","kouzui":"○","gake":"○","takashio":"○","jishin":"×","tsunami":"○","kaji":"○","naisui":"○","kazan":"×"}}
,{"type":"Feature","geometry":{"type":"Point","coordinates":[133.539,34.129]},"properties":{"Name":"伊吹中学校・小学校（体育館）","Jusho":"香川県観音寺市伊吹町５４９","kouzui":"○","gake":"○","takashio":"○","jishin":"○","tsunami":"○","kaji":"○","naisui":"○","kazan":"×"}}
,{"type":"Feature","geometry":{"type":"Point","coordinates":[133.539,34.129]},"properties":{"Name":"伊吹中学校・小学校（運動場）","Jusho":"香川県観音寺市伊吹町５４９","kouzui":"○","gake":"○","takashio":"○","jishin":"○","tsunami":"○","kaji":"○","naisui":"○","kazan":"×"}}
,{"type":"Feature","geometry":{"type":"Point","coordinates":[133.645,34.153]},"properties":{"Name":"蓮光院","Jusho":"香川県観音寺市室本町３１４","kouzui":"×","gake":"×","takashio":"×","jishin":"×","tsunami":"○","kaji":"×","naisui":"×","kazan":"×"}}
,{"type":"Feature","geometry":{"type":"Point","coordinates":[133.655,34.147]},"properties":{"Name":"高室小学校 （体育館）","Jusho":"香川県観音寺市高屋町１８７７-１","kouzui":"○","gake":"○","takashio":"○","jishin":"○","tsunami":"○","kaji":"○","naisui":"○","kazan":"×"}}
,{"type":"Feature","geometry":{"type":"Point","coordinates":[133.655,34.147]},"properties":{"Name":"高室小学校（運動場）","Jusho":"香川県観音寺市高屋町１８７７-１","kouzui":"○","gake":"○","takashio":"○","jishin":"○","tsunami":"○","kaji":"○","naisui":"○","kazan":"×"}}
,{"type":"Feature","geometry":{"type":"Point","coordinates":[133.654,34.146]},"properties":{"Name":"高室公民館","Jusho":"香川県観音寺市高屋町８８４","kouzui":"○","gake":"○","takashio":"○","jishin":"○","tsunami":"○","kaji":"○","naisui":"○","kazan":"×"}}
,{"type":"Feature","geometry":{"type":"Point","coordinates":[133.649,34.138]},"properties":{"Name":"興昌寺山","Jusho":"香川県観音寺市八幡町二丁目７-２","kouzui":"×","gake":"×","takashio":"×","jishin":"×","tsunami":"○","kaji":"×","naisui":"×","kazan":"×"}}
,{"type":"Feature","geometry":{"type":"Point","coordinates":[133.646,34.137]},"properties":{"Name":"観音寺中学校（体育館）","Jusho":"香川県観音寺市八幡町二丁目１０-７","kouzui":"○","gake":"○","takashio":"○","jishin":"○","tsunami":"○","kaji":"○","naisui":"○","kazan":"×"}}
,{"type":"Feature","geometry":{"type":"Point","coordinates":[133.646,34.136]},"properties":{"Name":"観音寺中学校（運動場）","Jusho":"香川県観音寺市八幡町二丁目１０-７","kouzui":"○","gake":"○","takashio":"○","jishin":"○","tsunami":"○","kaji":"○","naisui":"○","kazan":"×"}}
,{"type":"Feature","geometry":{"type":"Point","coordinates":[133.643,34.132]},"properties":{"Name":"琴弾荘 （本館２階）","Jusho":"香川県観音寺市有明町１０-２２","kouzui":"×","gake":"×","takashio":"×","jishin":"×","tsunami":"○","kaji":"×","naisui":"×","kazan":"×"}}
,{"type":"Feature","geometry":{"type":"Point","coordinates":[133.646,34.133]},"properties":{"Name":"琴弾山","Jusho":"香川県観音寺市八幡町一丁目１-１","kouzui":"○","gake":"○","takashio":"○","jishin":"○","tsunami":"○","kaji":"○","naisui":"○","kazan":"×"}}
,{"type":"Feature","geometry":{"type":"Point","coordinates":[133.651,34.13]},"properties":{"Name":"観音寺信用金庫本店（６階大会議室、各階ホール）","Jusho":"香川県観音寺市観音寺町甲３３７７-３","kouzui":"×","gake":"×","takashio":"×","jishin":"×","tsunami":"○","kaji":"×","naisui":"×","kazan":"×"}}
,{"type":"Feature","geometry":{"type":"Point","coordinates":[133.659,34.127]},"properties":{"Name":"香川県西讃合同庁舎（３階会議室、２階以上西側外階段）","Jusho":"香川県観音寺市坂本町七丁目３-１８","kouzui":"×","gake":"×","takashio":"×","jishin":"×","tsunami":"○","kaji":"×","naisui":"×","kazan":"×"}}
,{"type":"Feature","geometry":{"type":"Point","coordinates":[133.656,34.126]},"properties":{"Name":"市営明星団地 ほか（階段、踊り場）","Jusho":"香川県観音寺市観音寺町甲１０１１-１１","kouzui":"×","gake":"×","takashio":"×","jishin":"×","tsunami":"○","kaji":"×","naisui":"×","kazan":"×"}}
,{"type":"Feature","geometry":{"type":"Point","coordinates":[133.651,34.126]},"properties":{"Name":"鶴亀ハウス （階段、踊り場）","Jusho":"香川県観音寺市観音寺町甲２９７２-７","kouzui":"×","gake":"×","takashio":"×","jishin":"×","tsunami":"○","kaji":"×","naisui":"×","kazan":"×"}}
,{"type":"Feature","geometry":{"type":"Point","coordinates":[133.648,34.126]},"properties":{"Name":"観音寺小学校（校舎２階以上）","Jusho":"香川県観音寺市観音寺町甲２５５８-１","kouzui":"○","gake":"○","takashio":"○","jishin":"○","tsunami":"○","kaji":"○","naisui":"○","kazan":"×"}}
,{"type":"Feature","geometry":{"type":"Point","coordinates":[133.651,34.124]},"properties":{"Name":"主要地方道観音寺佐野線 昭和橋歩道","Jusho":"香川県観音寺市観音寺町甲２５７９-１地先","kouzui":"×","gake":"×","takashio":"×","jishin":"×","tsunami":"○","kaji":"×","naisui":"×","kazan":"×"}}
,{"type":"Feature","geometry":{"type":"Point","coordinates":[133.644,34.122]},"properties":{"Name":"田代マンション （階段、踊り場）","Jusho":"香川県観音寺市三本松町二丁目７-１５","kouzui":"×","gake":"×","takashio":"×","jishin":"×","tsunami":"○","kaji":"×","naisui":"×","kazan":"×"}}
,{"type":"Feature","geometry":{"type":"Point","coordinates":[133.641,34.123]},"properties":{"Name":"旧観音寺競輪場 （管理棟２階）","Jusho":"香川県観音寺市琴浪町二丁目１-３","kouzui":"○","gake":"○","takashio":"○","jishin":"○","tsunami":"○","kaji":"○","naisui":"○","kazan":"×"}}
,{"type":"Feature","geometry":{"type":"Point","coordinates":[133.639,34.115]},"properties":{"Name":"（一財）阪大微生物病研究会瀬戸センター（管理棟３階研修ホール、９階講堂ホール）","Jusho":"香川県観音寺市瀬戸町四丁目１-７０","kouzui":"×","gake":"×","takashio":"×","jishin":"×","tsunami":"○","kaji":"×","naisui":"×","kazan":"×"}}
,{"type":"Feature","geometry":{"type":"Point","coordinates":[133.65,34.122]},"properties":{"Name":"市営下津団地 （階段、踊り場）","Jusho":"香川県観音寺市南町二丁目１番","kouzui":"×","gake":"×","takashio":"×","jishin":"×","tsunami":"○","kaji":"×","naisui":"×","kazan":"×"}}
,{"type":"Feature","geometry":{"type":"Point","coordinates":[133.673,34.137]},"properties":{"Name":"コミュニティー 防災センター","Jusho":"香川県観音寺市流岡町４７５","kouzui":"○","gake":"○","takashio":"○","jishin":"○","tsunami":"○","kaji":"○","naisui":"○","kazan":"×"}}
,{"type":"Feature","geometry":{"type":"Point","coordinates":[133.676,34.127]},"properties":{"Name":"常磐小学校 （体育館）","Jusho":"香川県観音寺市植田町３６５","kouzui":"○","gake":"○","takashio":"○","jishin":"○","tsunami":"○","kaji":"○","naisui":"○","kazan":"×"}}
,{"type":"Feature","geometry":{"type":"Point","coordinates":[133.675,34.128]},"properties":{"Name":"常磐小学校 （運動場）","Jusho":"香川県観音寺市植田町３６５","kouzui":"○","gake":"○","takashio":"○","jishin":"○","tsunami":"○","kaji":"○","naisui":"○","kazan":"×"}}
,{"type":"Feature","geometry":{"type":"Point","coordinates":[133.666,34.119]},"properties":{"Name":"中部中学校 （体育館）","Jusho":"香川県観音寺市柞田町甲１２３７","kouzui":"○","gake":"○","takashio":"○","jishin":"○","tsunami":"○","kaji":"○","naisui":"○","kazan":"×"}}
,{"type":"Feature","geometry":{"type":"Point","coordinates":[133.664,34.119]},"properties":{"Name":"中部中学校 （運動場）","Jusho":"香川県観音寺市柞田町甲１２３７","kouzui":"○","gake":"○","takashio":"○","jishin":"○","tsunami":"○","kaji":"○","naisui":"○","kazan":"×"}}
,{"type":"Feature","geometry":{"type":"Point","coordinates":[133.66,34.109]},"properties":{"Name":"柞田小学校 （体育館）","Jusho":"香川県観音寺市柞田町乙１０００-１","kouzui":"○","gake":"○","takashio":"○","jishin":"○","tsunami":"○","kaji":"○","naisui":"○","kazan":"×"}}
,{"type":"Feature","geometry":{"type":"Point","coordinates":[133.66,34.109]},"properties":{"Name":"柞田小学校 （運動場）","Jusho":"香川県観音寺市柞田町乙１０００-１","kouzui":"○","gake":"○","takashio":"○","jishin":"○","tsunami":"○","kaji":"○","naisui":"○","kazan":"×"}}
,{"type":"Feature","geometry":{"type":"Point","coordinates":[133.699,34.13]},"properties":{"Name":"一ノ谷公民館","Jusho":"香川県観音寺市古川町８５-１","kouzui":"○","gake":"○","takashio":"○","jishin":"○","tsunami":"○","kaji":"○","naisui":"○","kazan":"×"}}
,{"type":"Feature","geometry":{"type":"Point","coordinates":[133.698,34.129]},"properties":{"Name":"一ノ谷小学校（体育館）","Jusho":"香川県観音寺市古川町１０２-１","kouzui":"○","gake":"○","takashio":"○","jishin":"○","tsunami":"○","kaji":"○","naisui":"○","kazan":"×"}}
,{"type":"Feature","geometry":{"type":"Point","coordinates":[133.697,34.129]},"properties":{"Name":"一ノ谷小学校（運動場）","Jusho":"香川県観音寺市古川町１０２-１","kouzui":"○","gake":"○","takashio":"○","jishin":"○","tsunami":"○","kaji":"○","naisui":"○","kazan":"×"}}
,{"type":"Feature","geometry":{"type":"Point","coordinates":[133.687,34.111]},"properties":{"Name":"総合運動公園","Jusho":"香川県観音寺市池之尻町１０７１","kouzui":"○","gake":"○","takashio":"○","jishin":"○","tsunami":"○","kaji":"○","naisui":"○","kazan":"×"}}
,{"type":"Feature","geometry":{"type":"Point","coordinates":[133.686,34.109]},"properties":{"Name":"市立総合体育館","Jusho":"香川県観音寺市池之尻町１０７１","kouzui":"○","gake":"○","takashio":"○","jishin":"○","tsunami":"○","kaji":"○","naisui":"○","kazan":"×"}}
,{"type":"Feature","geometry":{"type":"Point","coordinates":[133.703,34.111]},"properties":{"Name":"豊田公民館","Jusho":"香川県観音寺市原町２７０-１","kouzui":"○","gake":"○","takashio":"○","jishin":"×","tsunami":"○","kaji":"○","naisui":"○","kazan":"×"}}
,{"type":"Feature","geometry":{"type":"Point","coordinates":[133.702,34.11]},"properties":{"Name":"豊田小学校 （体育館）","Jusho":"香川県観音寺市新田町１４１３","kouzui":"○","gake":"○","takashio":"○","jishin":"○","tsunami":"○","kaji":"○","naisui":"○","kazan":"×"}}
,{"type":"Feature","geometry":{"type":"Point","coordinates":[133.703,34.11]},"properties":{"Name":"豊田小学校 （運動場）","Jusho":"香川県観音寺市新田町１４１３","kouzui":"○","gake":"○","takashio":"○","jishin":"○","tsunami":"○","kaji":"○","naisui":"○","kazan":"×"}}
,{"type":"Feature","geometry":{"type":"Point","coordinates":[133.701,34.096]},"properties":{"Name":"粟井小学校 （体育館）","Jusho":"香川県観音寺市粟井町１４５２","kouzui":"○","gake":"○","takashio":"○","jishin":"○","tsunami":"○","kaji":"○","naisui":"○","kazan":"×"}}
,{"type":"Feature","geometry":{"type":"Point","coordinates":[133.701,34.096]},"properties":{"Name":"粟井小学校 （運動場）","Jusho":"香川県観音寺市粟井町１４５２","kouzui":"○","gake":"○","takashio":"○","jishin":"○","tsunami":"○","kaji":"○","naisui":"○","kazan":"×"}}
,{"type":"Feature","geometry":{"type":"Point","coordinates":[133.701,34.095]},"properties":{"Name":"粟井公民館","Jusho":"香川県観音寺市粟井町１５１６","kouzui":"○","gake":"○","takashio":"○","jishin":"○","tsunami":"○","kaji":"○","naisui":"○","kazan":"×"}}
,{"type":"Feature","geometry":{"type":"Point","coordinates":[133.715,34.072]},"properties":{"Name":"ヤマギシズム 生活館（研鑽室）","Jusho":"香川県観音寺市粟井町４８００-９","kouzui":"○","gake":"○","takashio":"○","jishin":"○","tsunami":"○","kaji":"○","naisui":"○","kazan":"×"}}
,{"type":"Feature","geometry":{"type":"Point","coordinates":[133.699,34.091]},"properties":{"Name":"燧望苑（建物）","Jusho":"香川県観音寺市大野原町丸井１１８３","kouzui":"○","gake":"○","takashio":"○","jishin":"○","tsunami":"○","kaji":"○","naisui":"○","kazan":"×"}}
,{"type":"Feature","geometry":{"type":"Point","coordinates":[133.698,34.091]},"properties":{"Name":"燧望苑（駐車場）","Jusho":"香川県観音寺市大野原町丸井１１８３","kouzui":"○","gake":"○","takashio":"○","jishin":"○","tsunami":"○","kaji":"○","naisui":"○","kazan":"×"}}
,{"type":"Feature","geometry":{"type":"Point","coordinates":[133.69,34.094]},"properties":{"Name":"旧紀伊小学校 （体育館）","Jusho":"香川県観音寺市大野原町丸井３１３","kouzui":"○","gake":"○","takashio":"○","jishin":"○","tsunami":"○","kaji":"○","naisui":"○","kazan":"×"}}
,{"type":"Feature","geometry":{"type":"Point","coordinates":[133.69,34.095]},"properties":{"Name":"旧紀伊小学校 （運動場）","Jusho":"香川県観音寺市大野原町丸井３１３","kouzui":"○","gake":"○","takashio":"○","jishin":"○","tsunami":"○","kaji":"○","naisui":"○","kazan":"×"}}
,{"type":"Feature","geometry":{"type":"Point","coordinates":[133.668,34.088]},"properties":{"Name":"大野原中学校 （体育館）","Jusho":"香川県観音寺市大野原町中姫１１８９-３","kouzui":"○","gake":"○","takashio":"○","jishin":"○","tsunami":"○","kaji":"○","naisui":"○","kazan":"×"}}
,{"type":"Feature","geometry":{"type":"Point","coordinates":[133.668,34.088]},"properties":{"Name":"大野原中学校 （運動場）","Jusho":"香川県観音寺市大野原町中姫１１８９-３","kouzui":"○","gake":"○","takashio":"○","jishin":"○","tsunami":"○","kaji":"○","naisui":"○","kazan":"×"}}
,{"type":"Feature","geometry":{"type":"Point","coordinates":[133.664,34.086]},"properties":{"Name":"大野原農業者 トレーニングセンター","Jusho":"香川県観音寺市大野原町大野原１９９４","kouzui":"○","gake":"○","takashio":"○","jishin":"○","tsunami":"○","kaji":"○","naisui":"○","kazan":"×"}}
,{"type":"Feature","geometry":{"type":"Point","coordinates":[133.664,34.087]},"properties":{"Name":"大野原小学校 （運動場）","Jusho":"香川県観音寺市大野原町大野原１９０５","kouzui":"○","gake":"○","takashio":"○","jishin":"○","tsunami":"○","kaji":"○","naisui":"○","kazan":"×"}}
,{"type":"Feature","geometry":{"type":"Point","coordinates":[133.68,34.077]},"properties":{"Name":"旧萩原小学校（体育館）","Jusho":"香川県観音寺市大野原町萩原２３５４","kouzui":"○","gake":"○","takashio":"○","jishin":"○","tsunami":"○","kaji":"○","naisui":"○","kazan":"×"}}
,{"type":"Feature","geometry":{"type":"Point","coordinates":[133.68,34.077]},"properties":{"Name":"旧萩原小学校（運動場）","Jusho":"香川県観音寺市大野原町萩原２３５４","kouzui":"○","gake":"○","takashio":"○","jishin":"○","tsunami":"○","kaji":"○","naisui":"○","kazan":"×"}}
,{"type":"Feature","geometry":{"type":"Point","coordinates":[133.687,34.061]},"properties":{"Name":"天理教西香川分教会","Jusho":"香川県観音寺市大野原町井関６８７-１","kouzui":"○","gake":"○","takashio":"○","jishin":"○","tsunami":"○","kaji":"○","naisui":"○","kazan":"×"}}
,{"type":"Feature","geometry":{"type":"Point","coordinates":[133.659,34.04]},"properties":{"Name":"田野々自治会館","Jusho":"香川県観音寺市大野原町田野々７４３-１","kouzui":"○","gake":"×","takashio":"○","jishin":"○","tsunami":"○","kaji":"○","naisui":"○","kazan":"×"}}
,{"type":"Feature","geometry":{"type":"Point","coordinates":[133.643,34.077]},"properties":{"Name":"豊浜中学校（体育館）","Jusho":"香川県観音寺市豊浜町和田浜７１７","kouzui":"○","gake":"○","takashio":"○","jishin":"○","tsunami":"○","kaji":"○","naisui":"○","kazan":"×"}}
,{"type":"Feature","geometry":{"type":"Point","coordinates":[133.643,34.077]},"properties":{"Name":"豊浜中学校（運動場）","Jusho":"香川県観音寺市豊浜町和田浜７１７","kouzui":"○","gake":"○","takashio":"○","jishin":"○","tsunami":"○","kaji":"○","naisui":"○","kazan":"×"}}
,{"type":"Feature","geometry":{"type":"Point","coordinates":[133.642,34.075]},"properties":{"Name":"豊浜総合体育館","Jusho":"香川県観音寺市豊浜町和田浜７８４-１","kouzui":"○","gake":"○","takashio":"○","jishin":"○","tsunami":"○","kaji":"○","naisui":"○","kazan":"×"}}
,{"type":"Feature","geometry":{"type":"Point","coordinates":[133.641,34.075]},"properties":{"Name":"豊浜総合体育館（駐車場）","Jusho":"香川県観音寺市豊浜町和田浜７８４-１","kouzui":"○","gake":"○","takashio":"○","jishin":"○","tsunami":"○","kaji":"○","naisui":"○","kazan":"×"}}
,{"type":"Feature","geometry":{"type":"Point","coordinates":[133.643,34.072]},"properties":{"Name":"豊浜小学校（体育館）","Jusho":"香川県観音寺市豊浜町和田浜１０００","kouzui":"○","gake":"○","takashio":"○","jishin":"○","tsunami":"○","kaji":"○","naisui":"○","kazan":"×"}}
,{"type":"Feature","geometry":{"type":"Point","coordinates":[133.642,34.073]},"properties":{"Name":"豊浜小学校（運動場）","Jusho":"香川県観音寺市豊浜町和田浜１０００","kouzui":"○","gake":"○","takashio":"○","jishin":"○","tsunami":"○","kaji":"○","naisui":"○","kazan":"×"}}
,{"type":"Feature","geometry":{"type":"Point","coordinates":[133.637,34.058]},"properties":{"Name":"西日本高速道路豊浜SA （上り線職員用駐車場）","Jusho":"香川県観音寺市豊浜町箕浦甲２２００-１","kouzui":"×","gake":"×","takashio":"×","jishin":"×","tsunami":"○","kaji":"×","naisui":"×","kazan":"×"}}
,{"type":"Feature","geometry":{"type":"Point","coordinates":[134.25,34.288]},"properties":{"Name":"津田公民館","Jusho":"香川県さぬき市津田町津田１３８番地１６","kouzui":"○","gake":"○","takashio":"×","jishin":"×","tsunami":"×","kaji":"×","naisui":"○","kazan":"×"}}
,{"type":"Feature","geometry":{"type":"Point","coordinates":[134.251,34.287]},"properties":{"Name":"津田小学校","Jusho":"香川県さぬき市津田町津田１４４番地","kouzui":"○","gake":"○","takashio":"×","jishin":"○","tsunami":"×","kaji":"○","naisui":"○","kazan":"×"}}
,{"type":"Feature","geometry":{"type":"Point","coordinates":[134.247,34.28]},"properties":{"Name":"県道富田中津田線市道神野３７号線交差点","Jusho":"香川県さぬき市津田町津田４１７番地付近","kouzui":"×","gake":"×","takashio":"○","jishin":"×","tsunami":"○","kaji":"×","naisui":"×","kazan":"×"}}
,{"type":"Feature","geometry":{"type":"Point","coordinates":[134.25,34.288]},"properties":{"Name":"津田保健センター","Jusho":"香川県さぬき市津田町津田９１５番地１","kouzui":"○","gake":"○","takashio":"○","jishin":"○","tsunami":"×","kaji":"○","naisui":"○","kazan":"×"}}
,{"type":"Feature","geometry":{"type":"Point","coordinates":[134.245,34.292]},"properties":{"Name":"津田高等学校","Jusho":"香川県さぬき市津田町津田１６３２−１","kouzui":"×","gake":"×","takashio":"×","jishin":"○","tsunami":"×","kaji":"○","naisui":"×","kazan":"×"}}
,{"type":"Feature","geometry":{"type":"Point","coordinates":[134.235,34.296]},"properties":{"Name":"津田総合公園","Jusho":"香川県さぬき市津田町津田２０２０番地","kouzui":"×","gake":"×","takashio":"○","jishin":"○","tsunami":"○","kaji":"○","naisui":"×","kazan":"×"}}
,{"type":"Feature","geometry":{"type":"Point","coordinates":[134.239,34.294]},"properties":{"Name":"さわやか荘駐車場","Jusho":"香川県さぬき市津田町津田２２０７番地","kouzui":"×","gake":"×","takashio":"○","jishin":"○","tsunami":"○","kaji":"○","naisui":"×","kazan":"×"}}
,{"type":"Feature","geometry":{"type":"Point","coordinates":[134.263,34.32]},"properties":{"Name":"津田公民館北山分館","Jusho":"香川県さぬき市津田町津田３６４５番地５","kouzui":"○","gake":"○","takashio":"○","jishin":"○","tsunami":"○","kaji":"○","naisui":"○","kazan":"×"}}
,{"type":"Feature","geometry":{"type":"Point","coordinates":[134.272,34.281]},"properties":{"Name":"津田多目的研修集会施設","Jusho":"香川県さぬき市津田町鶴羽１７４６番地","kouzui":"○","gake":"○","takashio":"○","jishin":"○","tsunami":"×","kaji":"○","naisui":"○","kazan":"×"}}
,{"type":"Feature","geometry":{"type":"Point","coordinates":[134.268,34.282]},"properties":{"Name":"旧鶴羽小学校運動場","Jusho":"香川県さぬき市津田町鶴羽７８１番地２","kouzui":"×","gake":"×","takashio":"×","jishin":"○","tsunami":"×","kaji":"○","naisui":"×","kazan":"×"}}
,{"type":"Feature","geometry":{"type":"Point","coordinates":[134.264,34.278]},"properties":{"Name":"津田の松原ＳＡ駐車場（上り）","Jusho":"香川県さぬき市津田町鶴羽９３５番地５","kouzui":"×","gake":"×","takashio":"○","jishin":"○","tsunami":"○","kaji":"○","naisui":"×","kazan":"×"}}
,{"type":"Feature","geometry":{"type":"Point","coordinates":[134.27,34.288]},"properties":{"Name":"鵜部展望ふれあい公園","Jusho":"香川県さぬき市津田町鶴羽１５２０番地１３４","kouzui":"×","gake":"×","takashio":"○","jishin":"×","tsunami":"○","kaji":"×","naisui":"×","kazan":"×"}}
,{"type":"Feature","geometry":{"type":"Point","coordinates":[134.284,34.277]},"properties":{"Name":"大川オアシス駐車場","Jusho":"香川県さぬき市津田町鶴羽２３２６番地１２","kouzui":"×","gake":"×","takashio":"○","jishin":"○","tsunami":"○","kaji":"○","naisui":"×","kazan":"×"}}
,{"type":"Feature","geometry":{"type":"Point","coordinates":[134.219,34.268]},"properties":{"Name":"さぬき南中学校","Jusho":"香川県さぬき市大川町富田西２８２３番地１","kouzui":"○","gake":"○","takashio":"×","jishin":"○","tsunami":"×","kaji":"○","naisui":"○","kazan":"×"}}
,{"type":"Feature","geometry":{"type":"Point","coordinates":[134.234,34.265]},"properties":{"Name":"大川公民館","Jusho":"香川県さぬき市大川町富田中２２１５番地１","kouzui":"○","gake":"○","takashio":"×","jishin":"○","tsunami":"×","kaji":"○","naisui":"○","kazan":"×"}}
,{"type":"Feature","geometry":{"type":"Point","coordinates":[134.244,34.259]},"properties":{"Name":"大川コミュニティセンター","Jusho":"香川県さぬき市大川町富田中３３０６番地１","kouzui":"○","gake":"○","takashio":"×","jishin":"×","tsunami":"×","kaji":"×","naisui":"○","kazan":"×"}}
,{"type":"Feature","geometry":{"type":"Point","coordinates":[134.234,34.259]},"properties":{"Name":"さぬき南小学校","Jusho":"香川県さぬき市大川町南川６１番地","kouzui":"○","gake":"○","takashio":"×","jishin":"○","tsunami":"×","kaji":"○","naisui":"○","kazan":"×"}}
,{"type":"Feature","geometry":{"type":"Point","coordinates":[134.249,34.255]},"properties":{"Name":"松尾ふれあい会館","Jusho":"香川県さぬき市大川町田面１４０−２","kouzui":"○","gake":"○","takashio":"×","jishin":"○","tsunami":"×","kaji":"○","naisui":"○","kazan":"×"}}
,{"type":"Feature","geometry":{"type":"Point","coordinates":[134.169,34.322]},"properties":{"Name":"志度高等学校","Jusho":"香川県さぬき市志度３６６−５","kouzui":"○","gake":"○","takashio":"×","jishin":"○","tsunami":"×","kaji":"○","naisui":"○","kazan":"×"}}
,{"type":"Feature","geometry":{"type":"Point","coordinates":[134.177,34.318]},"properties":{"Name":"志度中学校","Jusho":"香川県さぬき市志度２２１４番地４","kouzui":"○","gake":"○","takashio":"○","jishin":"○","tsunami":"×","kaji":"○","naisui":"○","kazan":"×"}}
,{"type":"Feature","geometry":{"type":"Point","coordinates":[134.174,34.313]},"properties":{"Name":"志度幼稚園","Jusho":"香川県さぬき市志度３７２６番地１","kouzui":"×","gake":"×","takashio":"○","jishin":"○","tsunami":"○","kaji":"○","naisui":"×","kazan":"×"}}
,{"type":"Feature","geometry":{"type":"Point","coordinates":[134.188,34.311]},"properties":{"Name":"志度南交流センター","Jusho":"香川県さぬき市志度４６２６番地４２","kouzui":"○","gake":"○","takashio":"○","jishin":"×","tsunami":"×","kaji":"×","naisui":"○","kazan":"×"}}
,{"type":"Feature","geometry":{"type":"Point","coordinates":[134.193,34.304]},