var kochi={"type":"FeatureCollection","name":"kochi","features":[
{"type":"Feature","geometry":{"type":"Point","coordinates":[133.524,33.558]},"properties":{"Name":"第四小学校","Jusho":"高知県高知市上町2丁目1-11","kouzui":"○","gake":"×","takashio":"×","jishin":"○","tsunami":"×","kaji":"×","naisui":"×","kazan":"×"}}
,{"type":"Feature","geometry":{"type":"Point","coordinates":[133.529,33.556]},"properties":{"Name":"第六小学校","Jusho":"高知県高知市升形9-4","kouzui":"○","gake":"×","takashio":"×","jishin":"○","tsunami":"×","kaji":"×","naisui":"×","kazan":"×"}}
,{"type":"Feature","geometry":{"type":"Point","coordinates":[133.547,33.561]},"properties":{"Name":"はりまや橋小学校","Jusho":"高知県高知市はりまや町2丁目14-8","kouzui":"○","gake":"×","takashio":"×","jishin":"○","tsunami":"○","kaji":"×","naisui":"×","kazan":"×"}}
,{"type":"Feature","geometry":{"type":"Point","coordinates":[133.558,33.56]},"properties":{"Name":"昭和小学校","Jusho":"高知県高知市日の出町7-61","kouzui":"○","gake":"×","takashio":"×","jishin":"○","tsunami":"○","kaji":"×","naisui":"×","kazan":"×"}}
,{"type":"Feature","geometry":{"type":"Point","coordinates":[133.533,33.572]},"properties":{"Name":"一ツ橋小学校","Jusho":"高知県高知市吉田町4-10","kouzui":"○","gake":"×","takashio":"×","jishin":"○","tsunami":"○","kaji":"×","naisui":"×","kazan":"×"}}
,{"type":"Feature","geometry":{"type":"Point","coordinates":[133.552,33.567]},"properties":{"Name":"江陽小学校","Jusho":"高知県高知市江陽町1-30","kouzui":"○","gake":"×","takashio":"×","jishin":"○","tsunami":"×","kaji":"×","naisui":"×","kazan":"×"}}
,{"type":"Feature","geometry":{"type":"Point","coordinates":[133.539,33.569]},"properties":{"Name":"江ノ口小学校","Jusho":"高知県高知市新本町1丁目8-12","kouzui":"○","gake":"×","takashio":"×","jishin":"○","tsunami":"○","kaji":"×","naisui":"×","kazan":"×"}}
,{"type":"Feature","geometry":{"type":"Point","coordinates":[133.524,33.565]},"properties":{"Name":"小高坂小学校","Jusho":"高知県高知市新屋敷1丁目11-5","kouzui":"○","gake":"×","takashio":"×","jishin":"○","tsunami":"○","kaji":"×","naisui":"×","kazan":"×"}}
,{"type":"Feature","geometry":{"type":"Point","coordinates":[133.501,33.557]},"properties":{"Name":"旭小学校","Jusho":"高知県高知市本宮町15","kouzui":"○","gake":"×","takashio":"×","jishin":"○","tsunami":"×","kaji":"×","naisui":"×","kazan":"×"}}
,{"type":"Feature","geometry":{"type":"Point","coordinates":[133.508,33.56]},"properties":{"Name":"旭東小学校","Jusho":"高知県高知市北端町50","kouzui":"○","gake":"×","takashio":"×","jishin":"○","tsunami":"×","kaji":"×","naisui":"×","kazan":"×"}}
,{"type":"Feature","geometry":{"type":"Point","coordinates":[133.498,33.564]},"properties":{"Name":"横内小学校","Jusho":"高知県高知市横内242-12","kouzui":"○","gake":"×","takashio":"×","jishin":"○","tsunami":"×","kaji":"×","naisui":"×","kazan":"×"}}
,{"type":"Feature","geometry":{"type":"Point","coordinates":[133.551,33.551]},"properties":{"Name":"潮江東小学校","Jusho":"高知県高知市潮新町2丁目1-54","kouzui":"○","gake":"×","takashio":"×","jishin":"○","tsunami":"○","kaji":"×","naisui":"×","kazan":"×"}}
,{"type":"Feature","geometry":{"type":"Point","coordinates":[133.542,33.549]},"properties":{"Name":"潮江小学校","Jusho":"高知県高知市百石町2丁目4-40","kouzui":"○","gake":"×","takashio":"×","jishin":"○","tsunami":"○","kaji":"×","naisui":"×","kazan":"×"}}
,{"type":"Feature","geometry":{"type":"Point","coordinates":[133.54,33.541]},"properties":{"Name":"潮江南小学校","Jusho":"高知県高知市高見町248-1","kouzui":"○","gake":"×","takashio":"×","jishin":"○","tsunami":"○","kaji":"×","naisui":"×","kazan":"×"}}
,{"type":"Feature","geometry":{"type":"Point","coordinates":[133.583,33.519]},"properties":{"Name":"三里小学校","Jusho":"高知県高知市仁井田1356","kouzui":"○","gake":"×","takashio":"×","jishin":"○","tsunami":"○","kaji":"×","naisui":"×","kazan":"×"}}
,{"type":"Feature","geometry":{"type":"Point","coordinates":[133.578,33.529]},"properties":{"Name":"十津小学校","Jusho":"高知県高知市十津4丁目27-1","kouzui":"○","gake":"×","takashio":"×","jishin":"○","tsunami":"×","kaji":"×","naisui":"×","kazan":"×"}}
,{"type":"Feature","geometry":{"type":"Point","coordinates":[133.58,33.544]},"properties":{"Name":"五台山小学校","Jusho":"高知県高知市五台山3371","kouzui":"○","gake":"×","takashio":"×","jishin":"○","tsunami":"○","kaji":"×","naisui":"×","kazan":"×"}}
,{"type":"Feature","geometry":{"type":"Point","coordinates":[133.581,33.558]},"properties":{"Name":"高須小学校","Jusho":"高知県高知市高須1丁目1-55","kouzui":"○","gake":"×","takashio":"×","jishin":"○","tsunami":"○","kaji":"×","naisui":"×","kazan":"×"}}
,{"type":"Feature","geometry":{"type":"Point","coordinates":[133.591,33.583]},"properties":{"Name":"布師田小学校","Jusho":"高知県高知市布師田1781-1","kouzui":"○","gake":"×","takashio":"×","jishin":"○","tsunami":"○","kaji":"×","naisui":"×","kazan":"×"}}
,{"type":"Feature","geometry":{"type":"Point","coordinates":[133.562,33.612]},"properties":{"Name":"久重小学校","Jusho":"高知県高知市久礼野2340-2","kouzui":"○","gake":"×","takashio":"×","jishin":"○","tsunami":"×","kaji":"×","naisui":"×","kazan":"×"}}
,{"type":"Feature","geometry":{"type":"Point","coordinates":[133.568,33.585]},"properties":{"Name":"一宮小学校","Jusho":"高知県高知市一宮西町1丁目9-1","kouzui":"○","gake":"×","takashio":"×","jishin":"○","tsunami":"○","kaji":"×","naisui":"×","kazan":"×"}}
,{"type":"Feature","geometry":{"type":"Point","coordinates":[133.577,33.584]},"properties":{"Name":"一宮東小学校","Jusho":"高知県高知市一宮東町1丁目20-1","kouzui":"○","gake":"×","takashio":"×","jishin":"○","tsunami":"○","kaji":"×","naisui":"×","kazan":"×"}}
,{"type":"Feature","geometry":{"type":"Point","coordinates":[133.536,33.577]},"properties":{"Name":"秦小学校","Jusho":"高知県高知市愛宕山18","kouzui":"○","gake":"×","takashio":"×","jishin":"○","tsunami":"×","kaji":"×","naisui":"×","kazan":"×"}}
,{"type":"Feature","geometry":{"type":"Point","coordinates":[133.548,33.582]},"properties":{"Name":"泉野小学校","Jusho":"高知県高知市東秦泉寺788","kouzui":"○","gake":"×","takashio":"×","jishin":"○","tsunami":"×","kaji":"×","naisui":"×","kazan":"×"}}
,{"type":"Feature","geometry":{"type":"Point","coordinates":[133.519,33.574]},"properties":{"Name":"初月小学校","Jusho":"高知県高知市南久万128","kouzui":"○","gake":"×","takashio":"×","jishin":"○","tsunami":"○","kaji":"×","naisui":"×","kazan":"×"}}
,{"type":"Feature","geometry":{"type":"Point","coordinates":[133.458,33.587]},"properties":{"Name":"行川学園","Jusho":"高知県高知市行川472","kouzui":"○","gake":"×","takashio":"×","jishin":"○","tsunami":"×","kaji":"×","naisui":"×","kazan":"×"}}
,{"type":"Feature","geometry":{"type":"Point","coordinates":[133.487,33.547]},"properties":{"Name":"朝倉小学校","Jusho":"高知県高知市朝倉本町2丁目11-20","kouzui":"○","gake":"×","takashio":"×","jishin":"○","tsunami":"×","kaji":"×","naisui":"×","kazan":"×"}}
,{"type":"Feature","geometry":{"type":"Point","coordinates":[133.488,33.541]},"properties":{"Name":"朝倉第二小学校","Jusho":"高知県高知市若草南町23-56","kouzui":"○","gake":"×","takashio":"×","jishin":"○","tsunami":"×","kaji":"×","naisui":"×","kazan":"×"}}
,{"type":"Feature","geometry":{"type":"Point","coordinates":[133.508,33.547]},"properties":{"Name":"鴨田小学校","Jusho":"高知県高知市鴨部1155","kouzui":"○","gake":"×","takashio":"×","jishin":"○","tsunami":"×","kaji":"×","naisui":"×","kazan":"×"}}
,{"type":"Feature","geometry":{"type":"Point","coordinates":[133.513,33.542]},"properties":{"Name":"神田小学校","Jusho":"高知県高知市神田1174-1","kouzui":"○","gake":"×","takashio":"×","jishin":"○","tsunami":"×","kaji":"×","naisui":"×","kazan":"×"}}
,{"type":"Feature","geometry":{"type":"Point","coordinates":[133.547,33.5]},"properties":{"Name":"長浜小学校","Jusho":"高知県高知市長浜4811","kouzui":"○","gake":"×","takashio":"×","jishin":"○","tsunami":"○","kaji":"×","naisui":"×","kazan":"×"}}
,{"type":"Feature","geometry":{"type":"Point","coordinates":[133.548,33.515]},"properties":{"Name":"横浜小学校","Jusho":"高知県高知市瀬戸東町1丁目26","kouzui":"○","gake":"×","takashio":"×","jishin":"○","tsunami":"×","kaji":"×","naisui":"×","kazan":"×"}}
,{"type":"Feature","geometry":{"type":"Point","coordinates":[133.537,33.514]},"properties":{"Name":"横浜新町小学校","Jusho":"高知県高知市横浜新町5丁目2201","kouzui":"○","gake":"×","takashio":"×","jishin":"○","tsunami":"×","kaji":"×","naisui":"×","kazan":"×"}}
,{"type":"Feature","geometry":{"type":"Point","coordinates":[133.569,33.496]},"properties":{"Name":"浦戸小学校","Jusho":"高知県高知市浦戸410-1","kouzui":"○","gake":"×","takashio":"×","jishin":"○","tsunami":"×","kaji":"×","naisui":"×","kazan":"×"}}
,{"type":"Feature","geometry":{"type":"Point","coordinates":[133.599,33.572]},"properties":{"Name":"大津小学校","Jusho":"高知県高知市大津乙972","kouzui":"○","gake":"×","takashio":"×","jishin":"○","tsunami":"○","kaji":"×","naisui":"×","kazan":"×"}}
,{"type":"Feature","geometry":{"type":"Point","coordinates":[133.602,33.557]},"properties":{"Name":"介良小学校","Jusho":"高知県高知市介良乙2735-1","kouzui":"○","gake":"×","takashio":"×","jishin":"○","tsunami":"○","kaji":"×","naisui":"×","kazan":"×"}}
,{"type":"Feature","geometry":{"type":"Point","coordinates":[133.62,33.562]},"properties":{"Name":"介良潮見台小学校","Jusho":"高知県高知市潮見台1丁目2602-1","kouzui":"○","gake":"×","takashio":"×","jishin":"○","tsunami":"×","kaji":"×","naisui":"×","kazan":"×"}}
,{"type":"Feature","geometry":{"type":"Point","coordinates":[133.472,33.603]},"properties":{"Name":"鏡小学校","Jusho":"高知県高知市鏡今井7","kouzui":"○","gake":"×","takashio":"×","jishin":"○","tsunami":"×","kaji":"×","naisui":"×","kazan":"×"}}
,{"type":"Feature","geometry":{"type":"Point","coordinates":[133.527,33.633]},"properties":{"Name":"土佐山学舎","Jusho":"高知県高知市土佐山桑尾13","kouzui":"○","gake":"×","takashio":"×","jishin":"○","tsunami":"×","kaji":"×","naisui":"×","kazan":"×"}}
,{"type":"Feature","geometry":{"type":"Point","coordinates":[133.514,33.495]},"properties":{"Name":"春野東小学校","Jusho":"高知県高知市春野町東諸木3978","kouzui":"×","gake":"×","takashio":"×","jishin":"○","tsunami":"○","kaji":"×","naisui":"×","kazan":"×"}}
,{"type":"Feature","geometry":{"type":"Point","coordinates":[133.462,33.498]},"properties":{"Name":"春野西小学校","Jusho":"高知県高知市春野町弘岡中2501","kouzui":"×","gake":"×","takashio":"×","jishin":"○","tsunami":"×","kaji":"×","naisui":"×","kazan":"×"}}
,{"type":"Feature","geometry":{"type":"Point","coordinates":[133.535,33.57]},"properties":{"Name":"愛宕中学校","Jusho":"高知県高知市相模町1-54","kouzui":"○","gake":"×","takashio":"×","jishin":"○","tsunami":"○","kaji":"×","naisui":"×","kazan":"×"}}
,{"type":"Feature","geometry":{"type":"Point","coordinates":[133.554,33.567]},"properties":{"Name":"城東中学校","Jusho":"高知県高知市江陽町1-20","kouzui":"○","gake":"×","takashio":"×","jishin":"○","tsunami":"○","kaji":"×","naisui":"×","kazan":"×"}}
,{"type":"Feature","geometry":{"type":"Point","coordinates":[133.524,33.56]},"properties":{"Name":"城西中学校","Jusho":"高知県高知市大膳町3-4","kouzui":"○","gake":"×","takashio":"×","jishin":"○","tsunami":"○","kaji":"×","naisui":"×","kazan":"×"}}
,{"type":"Feature","geometry":{"type":"Point","coordinates":[133.526,33.568]},"properties":{"Name":"城北中学校","Jusho":"高知県高知市八反町1丁目8-14","kouzui":"○","gake":"×","takashio":"×","jishin":"○","tsunami":"○","kaji":"×","naisui":"×","kazan":"×"}}
,{"type":"Feature","geometry":{"type":"Point","coordinates":[133.493,33.568]},"properties":{"Name":"旭中学校","Jusho":"高知県高知市口細山164-1","kouzui":"○","gake":"×","takashio":"×","jishin":"○","tsunami":"×","kaji":"×","naisui":"×","kazan":"×"}}
,{"type":"Feature","geometry":{"type":"Point","coordinates":[133.541,33.553]},"properties":{"Name":"潮江中学校","Jusho":"高知県高知市塩屋崎町1丁目2-20","kouzui":"○","gake":"×","takashio":"×","jishin":"○","tsunami":"○","kaji":"×","naisui":"×","kazan":"×"}}
,{"type":"Feature","geometry":{"type":"Point","coordinates":[133.584,33.518]},"properties":{"Name":"三里中学校","Jusho":"高知県高知市仁井田3363","kouzui":"○","gake":"×","takashio":"×","jishin":"○","tsunami":"○","kaji":"×","naisui":"×","kazan":"×"}}
,{"type":"Feature","geometry":{"type":"Point","coordinates":[133.59,33.55]},"properties":{"Name":"青柳中学校","Jusho":"高知県高知市五台山3923","kouzui":"○","gake":"×","takashio":"×","jishin":"○","tsunami":"○","kaji":"×","naisui":"×","kazan":"×"}}
,{"type":"Feature","geometry":{"type":"Point","coordinates":[133.566,33.577]},"properties":{"Name":"一宮中学校","Jusho":"高知県高知市一宮南町1丁目3-1","kouzui":"○","gake":"×","takashio":"×","jishin":"○","tsunami":"○","kaji":"×","naisui":"×","kazan":"×"}}
,{"type":"Feature","geometry":{"type":"Point","coordinates":[133.48,33.544]},"properties":{"Name":"朝倉中学校","Jusho":"高知県高知市朝倉丁604-1","kouzui":"○","gake":"×","takashio":"×","jishin":"○","tsunami":"×","kaji":"×","naisui":"×","kazan":"×"}}
,{"type":"Feature","geometry":{"type":"Point","coordinates":[133.506,33.551]},"properties":{"Name":"西部中学校","Jusho":"高知県高知市鴨部1丁目9-1","kouzui":"○","gake":"×","takashio":"×","jishin":"○","tsunami":"×","kaji":"×","naisui":"×","kazan":"×"}}
,{"type":"Feature","geometry":{"type":"Point","coordinates":[133.547,33.497]},"properties":{"Name":"南海中学校","Jusho":"高知県高知市長浜5235","kouzui":"○","gake":"×","takashio":"×","jishin":"○","tsunami":"○","kaji":"×","naisui":"×","kazan":"×"}}
,{"type":"Feature","geometry":{"type":"Point","coordinates":[133.534,33.522]},"properties":{"Name":"横浜中学校","Jusho":"高知県高知市横浜新町1丁目401","kouzui":"○","gake":"×","takashio":"×","jishin":"○","tsunami":"×","kaji":"×","naisui":"×","kazan":"×"}}
,{"type":"Feature","geometry":{"type":"Point","coordinates":[133.596,33.569]},"properties":{"Name":"大津中学校","Jusho":"高知県高知市大津乙740-1","kouzui":"○","gake":"×","takashio":"×","jishin":"○","tsunami":"○","kaji":"×","naisui":"×","kazan":"×"}}
,{"type":"Feature","geometry":{"type":"Point","coordinates":[133.604,33.556]},"properties":{"Name":"介良中学校","Jusho":"高知県高知市介良乙2620","kouzui":"○","gake":"×","takashio":"×","jishin":"○","tsunami":"○","kaji":"×","naisui":"×","kazan":"×"}}
,{"type":"Feature","geometry":{"type":"Point","coordinates":[133.472,33.607]},"properties":{"Name":"鏡中学校","Jusho":"高知県高知市鏡今井191","kouzui":"○","gake":"×","takashio":"×","jishin":"○","tsunami":"×","kaji":"×","naisui":"×","kazan":"×"}}
,{"type":"Feature","geometry":{"type":"Point","coordinates":[133.49,33.502]},"properties":{"Name":"春野中学校","Jusho":"高知県高知市春野町西分328","kouzui":"○","gake":"×","takashio":"×","jishin":"○","tsunami":"×","kaji":"×","naisui":"×","kazan":"×"}}
,{"type":"Feature","geometry":{"type":"Point","coordinates":[133.499,33.558]},"properties":{"Name":"高知特別支援学校","Jusho":"高知県高知市本宮町125","kouzui":"○","gake":"×","takashio":"×","jishin":"○","tsunami":"×","kaji":"×","naisui":"×","kazan":"×"}}
,{"type":"Feature","geometry":{"type":"Point","coordinates":[133.495,33.56]},"properties":{"Name":"高知商業高等学校","Jusho":"高知県高知市大谷6","kouzui":"○","gake":"×","takashio":"×","jishin":"○","tsunami":"×","kaji":"×","naisui":"×","kazan":"×"}}
,{"type":"Feature","geometry":{"type":"Point","coordinates":[133.575,33.513]},"properties":{"Name":"三里ふれあいセンター","Jusho":"高知県高知市仁井田4229-2","kouzui":"○","gake":"×","takashio":"×","jishin":"○","tsunami":"×","kaji":"×","naisui":"×","kazan":"×"}}
,{"type":"Feature","geometry":{"type":"Point","coordinates":[133.583,33.544]},"properties":{"Name":"五台山ふれあいセンター","Jusho":"高知県高知市五台山2945-2","kouzui":"○","gake":"×","takashio":"×","jishin":"○","tsunami":"×","kaji":"×","naisui":"×","kazan":"×"}}
,{"type":"Feature","geometry":{"type":"Point","coordinates":[133.58,33.558]},"properties":{"Name":"高須ふれあいセンター","Jusho":"高知県高知市高須新町2丁目5-15","kouzui":"○","gake":"×","takashio":"×","jishin":"○","tsunami":"×","kaji":"×","naisui":"×","kazan":"×"}}
,{"type":"Feature","geometry":{"type":"Point","coordinates":[133.595,33.583]},"properties":{"Name":"布師田ふれあいセンター","Jusho":"高知県高知市布師田1647","kouzui":"○","gake":"×","takashio":"×","jishin":"○","tsunami":"×","kaji":"×","naisui":"×","kazan":"×"}}
,{"type":"Feature","geometry":{"type":"Point","coordinates":[133.569,33.584]},"properties":{"Name":"一宮ふれあいセンター","Jusho":"高知県高知市一宮中町1丁目5-20","kouzui":"○","gake":"×","takashio":"×","jishin":"○","tsunami":"×","kaji":"×","naisui":"×","kazan":"×"}}
,{"type":"Feature","geometry":{"type":"Point","coordinates":[133.537,33.58]},"properties":{"Name":"秦ふれあいセンター","Jusho":"高知県高知市中秦泉寺54-3","kouzui":"○","gake":"×","takashio":"×","jishin":"○","tsunami":"×","kaji":"×","naisui":"×","kazan":"×"}}
,{"type":"Feature","geometry":{"type":"Point","coordinates":[133.52,33.574]},"properties":{"Name":"初月ふれあいセンター","Jusho":"高知県高知市南久万119-1","kouzui":"○","gake":"×","takashio":"×","jishin":"○","tsunami":"×","kaji":"×","naisui":"×","kazan":"×"}}
,{"type":"Feature","geometry":{"type":"Point","coordinates":[133.49,33.55]},"properties":{"Name":"朝倉ふれあいセンター","Jusho":"高知県高知市曙町1丁目14-12","kouzui":"○","gake":"×","takashio":"×","jishin":"○","tsunami":"×","kaji":"×","naisui":"×","kazan":"×"}}
,{"type":"Feature","geometry":{"type":"Point","coordinates":[133.545,33.503]},"properties":{"Name":"長浜ふれあいセンター","Jusho":"高知県高知市長浜690-5","kouzui":"○","gake":"×","takashio":"×","jishin":"○","tsunami":"×","kaji":"×","naisui":"×","kazan":"×"}}
,{"type":"Feature","geometry":{"type":"Point","coordinates":[133.556,33.505]},"properties":{"Name":"御畳瀬ふれあいセンター","Jusho":"高知県高知市御畳瀬252","kouzui":"○","gake":"×","takashio":"×","jishin":"○","tsunami":"×","kaji":"×","naisui":"×","kazan":"×"}}
,{"type":"Feature","geometry":{"type":"Point","coordinates":[133.567,33.498]},"properties":{"Name":"浦戸ふれあいセンター","Jusho":"高知県高知市浦戸274-9","kouzui":"○","gake":"×","takashio":"×","jishin":"○","tsunami":"×","kaji":"×","naisui":"×","kazan":"×"}}
,{"type":"Feature","geometry":{"type":"Point","coordinates":[133.598,33.571]},"properties":{"Name":"大津ふれあいセンター","Jusho":"高知県高知市大津乙930-5","kouzui":"○","gake":"×","takashio":"×","jishin":"○","tsunami":"×","kaji":"×","naisui":"×","kazan":"×"}}
,{"type":"Feature","geometry":{"type":"Point","coordinates":[133.606,33.558]},"properties":{"Name":"介良ふれあいセンター","Jusho":"高知県高知市介良乙2286","kouzui":"○","gake":"×","takashio":"×","jishin":"○","tsunami":"×","kaji":"×","naisui":"×","kazan":"×"}}
,{"type":"Feature","geometry":{"type":"Point","coordinates":[133.547,33.558]},"properties":{"Name":"文化プラザ「かるぽーと」","Jusho":"高知県高知市九反田2-1","kouzui":"○","gake":"×","takashio":"×","jishin":"○","tsunami":"○","kaji":"×","naisui":"×","kazan":"×"}}
,{"type":"Feature","geometry":{"type":"Point","coordinates":[133.564,33.545]},"properties":{"Name":"卸売市場","Jusho":"高知県高知市弘化台12-12","kouzui":"○","gake":"×","takashio":"×","jishin":"○","tsunami":"×","kaji":"×","naisui":"×","kazan":"×"}}
,{"type":"Feature","geometry":{"type":"Point","coordinates":[133.566,33.562]},"properties":{"Name":"下知水再生センター","Jusho":"高知県高知市小倉町5-25","kouzui":"○","gake":"×","takashio":"×","jishin":"×","tsunami":"○","kaji":"×","naisui":"×","kazan":"×"}}
,{"type":"Feature","geometry":{"type":"Point","coordinates":[133.558,33.569]},"properties":{"Name":"弥右衛門ふれあいセンター","Jusho":"高知県高知市北御座2-60","kouzui":"○","gake":"×","takashio":"×","jishin":"○","tsunami":"×","kaji":"×","naisui":"×","kazan":"×"}}
,{"type":"Feature","geometry":{"type":"Point","coordinates":[133.557,33.557]},"properties":{"Name":"下知コミュニティセンター","Jusho":"高知県高知市二葉町10-7","kouzui":"○","gake":"×","takashio":"×","jishin":"○","tsunami":"○","kaji":"×","naisui":"×","kazan":"×"}}
,{"type":"Feature","geometry":{"type":"Point","coordinates":[133.536,33.566]},"properties":{"Name":"江ノ口コミュニティセンター","Jusho":"高知県高知市愛宕町1丁目10-7","kouzui":"○","gake":"×","takashio":"×","jishin":"○","tsunami":"○","kaji":"×","naisui":"×","kazan":"×"}}
,{"type":"Feature","geometry":{"type":"Point","coordinates":[133.545,33.573]},"properties":{"Name":"保健福祉センター","Jusho":"高知県高知市塩田町18-10","kouzui":"○","gake":"×","takashio":"×","jishin":"○","tsunami":"×","kaji":"×","naisui":"×","kazan":"×"}}
,{"type":"Feature","geometry":{"type":"Point","coordinates":[133.525,33.556]},"properties":{"Name":"龍馬の生まれたまち記念館","Jusho":"高知県高知市上町2丁目６-３３","kouzui":"○","gake":"×","takashio":"×","jishin":"○","tsunami":"○","kaji":"×","naisui":"×","kazan":"×"}}
,{"type":"Feature","geometry":{"type":"Point","coordinates":[133.518,33.561]},"properties":{"Name":"小高坂市民会館","Jusho":"高知県高知市山ノ端町32-5","kouzui":"○","gake":"×","takashio":"×","jishin":"○","tsunami":"×","kaji":"×","naisui":"×","kazan":"×"}}
,{"type":"Feature","geometry":{"type":"Point","coordinates":[133.508,33.556]},"properties":{"Name":"木村会館","Jusho":"高知県高知市旭町3丁目121","kouzui":"○","gake":"×","takashio":"×","jishin":"○","tsunami":"×","kaji":"×","naisui":"×","kazan":"×"}}
,{"type":"Feature","geometry":{"type":"Point","coordinates":[133.512,33.569]},"properties":{"Name":"福寿園","Jusho":"高知県高知市福井町748","kouzui":"○","gake":"×","takashio":"×","jishin":"○","tsunami":"×","kaji":"×","naisui":"×","kazan":"×"}}
,{"type":"Feature","geometry":{"type":"Point","coordinates":[133.558,33.547]},"properties":{"Name":"潮江水再生センター","Jusho":"高知県高知市南新田町5-69","kouzui":"○","gake":"×","takashio":"×","jishin":"×","tsunami":"○","kaji":"×","naisui":"×","kazan":"×"}}
,{"type":"Feature","geometry":{"type":"Point","coordinates":[133.547,33.55]},"properties":{"Name":"アスパルこうち","Jusho":"高知県高知市桟橋通2丁目1-50","kouzui":"○","gake":"×","takashio":"×","jishin":"○","tsunami":"○","kaji":"×","naisui":"×","kazan":"×"}}
,{"type":"Feature","geometry":{"type":"Point","coordinates":[133.547,33.55]},"properties":{"Name":"潮江市民図書館","Jusho":"高知県高知市桟橋通2丁目1-50","kouzui":"○","gake":"×","takashio":"×","jishin":"×","tsunami":"×","kaji":"×","naisui":"×","kazan":"×"}}
,{"type":"Feature","geometry":{"type":"Point","coordinates":[133.548,33.545]},"properties":{"Name":"南部健康福祉センター","Jusho":"高知県高知市百石町3丁目1-30","kouzui":"○","gake":"×","takashio":"×","jishin":"○","tsunami":"×","kaji":"×","naisui":"×","kazan":"×"}}
,{"type":"Feature","geometry":{"type":"Point","coordinates":[133.529,33.551]},"properties":{"Name":"小石木市民会館","Jusho":"高知県高知市小石木町182-4","kouzui":"○","gake":"×","takashio":"×","jishin":"×","tsunami":"×","kaji":"×","naisui":"×","kazan":"×"}}
,{"type":"Feature","geometry":{"type":"Point","coordinates":[133.53,33.553]},"properties":{"Name":"総合体育館","Jusho":"高知県高知市大原町158","kouzui":"○","gake":"×","takashio":"×","jishin":"○","tsunami":"×","kaji":"×","naisui":"×","kazan":"×"}}
,{"type":"Feature","geometry":{"type":"Point","coordinates":[133.524,33.548]},"properties":{"Name":"潮江市民会館","Jusho":"高知県高知市南河ノ瀬町161","kouzui":"○","gake":"×","takashio":"×","jishin":"×","tsunami":"×","kaji":"×","naisui":"×","kazan":"×"}}
,{"type":"Feature","geometry":{"type":"Point","coordinates":[133.574,33.515]},"properties":{"Name":"三里文化会館","Jusho":"高知県高知市仁井田1652-1","kouzui":"○","gake":"×","takashio":"×","jishin":"○","tsunami":"×","kaji":"×","naisui":"×","kazan":"×"}}
,{"type":"Feature","geometry":{"type":"Point","coordinates":[133.568,33.507]},"properties":{"Name":"種崎地区津波避難センター","Jusho":"高知県高知市種崎405-6","kouzui":"○","gake":"×","takashio":"×","jishin":"○","tsunami":"○","kaji":"×","naisui":"×","kazan":"×"}}
,{"type":"Feature","geometry":{"type":"Point","coordinates":[133.568,33.51]},"properties":{"Name":"舟倉津波避難センター","Jusho":"高知県高知市仁井田1646-14","kouzui":"○","gake":"×","takashio":"×","jishin":"○","tsunami":"○","kaji":"×","naisui":"×","kazan":"×"}}
,{"type":"Feature","geometry":{"type":"Point","coordinates":[133.565,33.503]},"properties":{"Name":"貴船ノ森津波避難センター","Jusho":"高知県高知市種崎662-6","kouzui":"○","gake":"×","takashio":"×","jishin":"○","tsunami":"○","kaji":"×","naisui":"×","kazan":"×"}}
,{"type":"Feature","geometry":{"type":"Point","coordinates":[133.597,33.546]},"properties":{"Name":"東部総合運動場くろしおアリーナ","Jusho":"高知県高知市五台山1736-１","kouzui":"○","gake":"×","takashio":"×","jishin":"○","tsunami":"×","kaji":"×","naisui":"×","kazan":"×"}}
,{"type":"Feature","geometry":{"type":"Point","coordinates":[133.573,33.556]},"properties":{"Name":"東部健康福祉センター","Jusho":"高知県高知市葛島4丁目3-3","kouzui":"○","gake":"×","takashio":"×","jishin":"○","tsunami":"×","kaji":"×","naisui":"×","kazan":"×"}}
,{"type":"Feature","geometry":{"type":"Point","coordinates":[133.57,33.589]},"properties":{"Name":"一宮市民会館","Jusho":"高知県高知市一宮西町3丁目22-14","kouzui":"○","gake":"×","takashio":"×","jishin":"×","tsunami":"×","kaji":"×","naisui":"×","kazan":"×"}}
,{"type":"Feature","geometry":{"type":"Point","coordinates":[133.489,33.538]},"properties":{"Name":"朝倉総合市民会館","Jusho":"高知県高知市朝倉戊585-1","kouzui":"○","gake":"×","takashio":"×","jishin":"×","tsunami":"×","kaji":"×","naisui":"×","kazan":"×"}}
,{"type":"Feature","geometry":{"type":"Point","coordinates":[133.491,33.533]},"properties":{"Name":"海老川市民会館","Jusho":"高知県高知市朝倉己422-1","kouzui":"○","gake":"×","takashio":"×","jishin":"×","tsunami":"×","kaji":"×","naisui":"×","kazan":"×"}}
,{"type":"Feature","geometry":{"type":"Point","coordinates":[133.494,33.538]},"properties":{"Name":"松田市民会館","Jusho":"高知県高知市朝倉己959-1","kouzui":"○","gake":"×","takashio":"×","jishin":"×","tsunami":"×","kaji":"×","naisui":"×","kazan":"×"}}
,{"type":"Feature","geometry":{"type":"Point","coordinates":[133.497,33.546]},"properties":{"Name":"朝倉市民会館","Jusho":"高知県高知市朝倉東町24-33","kouzui":"○","gake":"×","takashio":"×","jishin":"×","tsunami":"×","kaji":"×","naisui":"×","kazan":"×"}}
,{"type":"Feature","geometry":{"type":"Point","coordinates":[133.503,33.544]},"properties":{"Name":"西部健康福祉センター","Jusho":"高知県高知市鴨部860-1","kouzui":"○","gake":"×","takashio":"×","jishin":"○","tsunami":"×","kaji":"×","naisui":"×","kazan":"×"}}
,{"type":"Feature","geometry":{"type":"Point","coordinates":[133.499,33.537]},"properties":{"Name":"西山市民会館","Jusho":"高知県高知市神田134-26","kouzui":"○","gake":"×","takashio":"×","jishin":"×","tsunami":"×","kaji":"×","naisui":"×","kazan":"×"}}
,{"type":"Feature","geometry":{"type":"Point","coordinates":[133.542,33.491]},"properties":{"Name":"長浜市民会館","Jusho":"高知県高知市長浜4250","kouzui":"○","gake":"×","takashio":"×","jishin":"○","tsunami":"×","kaji":"×","naisui":"×","kazan":"×"}}
,{"type":"Feature","geometry":{"type":"Point","coordinates":[133.555,33.505]},"properties":{"Name":"旧御畳瀬小学校","Jusho":"高知県高知市長浜209","kouzui":"○","gake":"×","takashio":"×","jishin":"○","tsunami":"○","kaji":"×","naisui":"×","kazan":"×"}}
,{"type":"Feature","geometry":{"type":"Point","coordinates":[133.572,33.497]},"properties":{"Name":"桂浜荘","Jusho":"高知県高知市浦戸830-25","kouzui":"○","gake":"×","takashio":"×","jishin":"○","tsunami":"×","kaji":"×","naisui":"×","kazan":"×"}}
,{"type":"Feature","geometry":{"type":"Point","coordinates":[133.607,33.55]},"properties":{"Name":"介良市民会館","Jusho":"高知県高知市介良丙329-6","kouzui":"○","gake":"×","takashio":"×","jishin":"○","tsunami":"×","kaji":"×","naisui":"×","kazan":"×"}}
,{"type":"Feature","geometry":{"type":"Point","coordinates":[133.598,33.55]},"properties":{"Name":"東部総合運動場体育センター","Jusho":"高知県高知市介良丙1000-２","kouzui":"○","gake":"×","takashio":"×","jishin":"○","tsunami":"×","kaji":"×","naisui":"×","kazan":"×"}}
,{"type":"Feature","geometry":{"type":"Point","coordinates":[133.472,33.602]},"properties":{"Name":"中山間地域構造改善センター","Jusho":"高知県高知市鏡小浜８","kouzui":"○","gake":"×","takashio":"×","jishin":"○","tsunami":"×","kaji":"×","naisui":"×","kazan":"×"}}
,{"type":"Feature","geometry":{"type":"Point","coordinates":[133.528,33.635]},"properties":{"Name":"土佐山公民館","Jusho":"高知県高知市土佐山122-1","kouzui":"○","gake":"×","takashio":"×","jishin":"○","tsunami":"×","kaji":"×","naisui":"×","kazan":"×"}}
,{"type":"Feature","geometry":{"type":"Point","coordinates":[133.527,33.632]},"properties":{"Name":"土佐山健康福祉センター","Jusho":"高知県高知市土佐山桑尾1842-2","kouzui":"○","gake":"×","takashio":"×","jishin":"○","tsunami":"×","kaji":"×","naisui":"×","kazan":"×"}}
,{"type":"Feature","geometry":{"type":"Point","coordinates":[133.499,33.623]},"properties":{"Name":"旧土佐山中学校","Jusho":"高知県高知市土佐山弘瀬405","kouzui":"×","gake":"×","takashio":"×","jishin":"○","tsunami":"×","kaji":"×","naisui":"×","kazan":"×"}}
,{"type":"Feature","geometry":{"type":"Point","coordinates":[133.453,33.504]},"properties":{"Name":"春野公民館弘岡上分館","Jusho":"高知県高知市春野町弘岡上1646-1","kouzui":"×","gake":"×","takashio":"×","jishin":"○","tsunami":"×","kaji":"×","naisui":"×","kazan":"×"}}
,{"type":"Feature","geometry":{"type":"Point","coordinates":[133.466,33.505]},"properties":{"Name":"春野公民館弘岡中分館","Jusho":"高知県高知市春野町弘岡中711","kouzui":"×","gake":"×","takashio":"×","jishin":"○","tsunami":"×","kaji":"×","naisui":"×","kazan":"×"}}
,{"type":"Feature","geometry":{"type":"Point","coordinates":[133.469,33.495]},"properties":{"Name":"春野弘岡中市民会館","Jusho":"高知県高知市春野町弘岡中134-1","kouzui":"×","gake":"×","takashio":"×","jishin":"○","tsunami":"×","kaji":"×","naisui":"×","kazan":"×"}}
,{"type":"Feature","geometry":{"type":"Point","coordinates":[133.477,33.502]},"properties":{"Name":"春野公民館弘岡下分館","Jusho":"高知県高知市春野町弘岡下1500","kouzui":"×","gake":"×","takashio":"×","jishin":"○","tsunami":"×","kaji":"×","naisui":"×","kazan":"×"}}
,{"type":"Feature","geometry":{"type":"Point","coordinates":[133.488,33.498]},"properties":{"Name":"春野あじさい会館","Jusho":"高知県高知市春野町西分1-1","kouzui":"×","gake":"×","takashio":"×","jishin":"○","tsunami":"×","kaji":"×","naisui":"×","kazan":"×"}}
,{"type":"Feature","geometry":{"type":"Point","coordinates":[133.488,33.499]},"properties":{"Name":"春野公民館","Jusho":"高知県高知市春野町西分19","kouzui":"×","gake":"×","takashio":"×","jishin":"×","tsunami":"×","kaji":"×","naisui":"×","kazan":"×"}}
,{"type":"Feature","geometry":{"type":"Point","coordinates":[133.489,33.5]},"properties":{"Name":"春野文化ホールピアステージ","Jusho":"高知県高知市春野町西分340","kouzui":"○","gake":"×","takashio":"×","jishin":"○","tsunami":"×","kaji":"×","naisui":"×","kazan":"×"}}
,{"type":"Feature","geometry":{"type":"Point","coordinates":[133.496,33.499]},"properties":{"Name":"春野公民館西分分館","Jusho":"高知県高知市春野町西分2079-2","kouzui":"×","gake":"×","takashio":"×","jishin":"○","tsunami":"×","kaji":"×","naisui":"×","kazan":"×"}}
,{"type":"Feature","geometry":{"type":"Point","coordinates":[133.51,33.508]},"properties":{"Name":"春野公民館芳原分館","Jusho":"高知県高知市春野町芳原784-1","kouzui":"○","gake":"×","takashio":"×","jishin":"○","tsunami":"×","kaji":"×","naisui":"×","kazan":"×"}}
,{"type":"Feature","geometry":{"type":"Point","coordinates":[133.521,33.51]},"properties":{"Name":"春野公民館内ノ谷分館","Jusho":"高知県高知市春野町内ノ谷810","kouzui":"○","gake":"×","takashio":"×","jishin":"○","tsunami":"×","kaji":"×","naisui":"×","kazan":"×"}}
,{"type":"Feature","geometry":{"type":"Point","coordinates":[133.519,33.49]},"properties":{"Name":"春野公民館諸木分館","Jusho":"高知県高知市春野町東諸木3441-1","kouzui":"×","gake":"×","takashio":"×","jishin":"○","tsunami":"×","kaji":"×","naisui":"×","kazan":"×"}}
,{"type":"Feature","geometry":{"type":"Point","coordinates":[133.486,33.493]},"properties":{"Name":"春野秋山市民会館","Jusho":"高知県高知市春野町秋山107-1","kouzui":"×","gake":"×","takashio":"×","jishin":"○","tsunami":"×","kaji":"×","naisui":"×","kazan":"×"}}
,{"type":"Feature","geometry":{"type":"Point","coordinates":[133.499,33.49]},"properties":{"Name":"春野公民館秋山分館","Jusho":"高知県高知市春野町秋山1111-3","kouzui":"×","gake":"×","takashio":"×","jishin":"○","tsunami":"×","kaji":"×","naisui":"×","kazan":"×"}}
,{"type":"Feature","geometry":{"type":"Point","coordinates":[133.516,33.482]},"properties":{"Name":"春野公民館甲殿分館","Jusho":"高知県高知市春野町甲殿341-1","kouzui":"×","gake":"×","takashio":"×","jishin":"○","tsunami":"×","kaji":"×","naisui":"×","kazan":"×"}}
,{"type":"Feature","geometry":{"type":"Point","coordinates":[133.486,33.467]},"properties":{"Name":"春野公民館仁ノ分館","Jusho":"高知県高知市春野町仁ノ384-5","kouzui":"×","gake":"×","takashio":"×","jishin":"×","tsunami":"×","kaji":"×","naisui":"×","kazan":"×"}}
,{"type":"Feature","geometry":{"type":"Point","coordinates":[133.47,33.479]},"properties":{"Name":"春野公民館西畑分館","Jusho":"高知県高知市春野町西畑1034-4","kouzui":"×","gake":"×","takashio":"×","jishin":"○","tsunami":"×","kaji":"×","naisui":"×","kazan":"×"}}
,{"type":"Feature","geometry":{"type":"Point","coordinates":[133.46,33.494]},"properties":{"Name":"春野公民館新川分館","Jusho":"高知県高知市春野町森山203-4","kouzui":"×","gake":"×","takashio":"×","jishin":"○","tsunami":"×","kaji":"×","naisui":"×","kazan":"×"}}
,{"type":"Feature","geometry":{"type":"Point","coordinates":[133.467,33.492]},"properties":{"Name":"春野公民館森山分館","Jusho":"高知県高知市春野町森山1207-4","kouzui":"×","gake":"×","takashio":"×","jishin":"○","tsunami":"×","kaji":"×","naisui":"×","kazan":"×"}}
,{"type":"Feature","geometry":{"type":"Point","coordinates":[133.519,33.502]},"properties":{"Name":"春野公民館平和分館","Jusho":"高知県高知市春野町平和149","kouzui":"○","gake":"×","takashio":"×","jishin":"○","tsunami":"×","kaji":"×","naisui":"×","kazan":"×"}}
,{"type":"Feature","geometry":{"type":"Point","coordinates":[133.519,33.516]},"properties":{"Name":"春野公民館南ケ丘分館","Jusho":"高知県高知市春野町南ケ丘1丁目2-1","kouzui":"○","gake":"×","takashio":"×","jishin":"○","tsunami":"×","kaji":"×","naisui":"×","kazan":"×"}}
,{"type":"Feature","geometry":{"type":"Point","coordinates":[133.573,33.509]},"properties":{"Name":"種崎公園津波避難タワー","Jusho":"高知県高知市種崎773-1","kouzui":"○","gake":"×","takashio":"×","jishin":"○","tsunami":"○","kaji":"×","naisui":"×","kazan":"×"}}
,{"type":"Feature","geometry":{"type":"Point","coordinates":[133.572,33.516]},"properties":{"Name":"新築津波避難タワー","Jusho":"高知県高知市仁井田4314-3","kouzui":"○","gake":"×","takashio":"×","jishin":"○","tsunami":"○","kaji":"×","naisui":"×","kazan":"×"}}
,{"type":"Feature","geometry":{"type":"Point","coordinates":[133.58,33.516]},"properties":{"Name":"神幸道津波避難タワー","Jusho":"高知県高知市仁井田4100-38","kouzui":"○","gake":"×","takashio":"×","jishin":"○","tsunami":"○","kaji":"×","naisui":"×","kazan":"×"}}
,{"type":"Feature","geometry":{"type":"Point","coordinates":[133.595,33.521]},"properties":{"Name":"砂地津波避難タワー","Jusho":"高知県高知市仁井田1014-3ほか","kouzui":"○","gake":"×","takashio":"×","jishin":"○","tsunami":"○","kaji":"×","naisui":"×","kazan":"×"}}
,{"type":"Feature","geometry":{"type":"Point","coordinates":[133.54,33.49]},"properties":{"Name":"長浜地区津波避難タワー","Jusho":"高知県高知市長浜431-4","kouzui":"○","gake":"×","takashio":"×","jishin":"○","tsunami":"○","kaji":"×","naisui":"×","kazan":"×"}}
,{"type":"Feature","geometry":{"type":"Point","coordinates":[133.516,33.477]},"properties":{"Name":"甲殿西津波避難タワー","Jusho":"高知県高知市春野町甲殿782-2","kouzui":"○","gake":"×","takashio":"×","jishin":"○","tsunami":"○","kaji":"×","naisui":"×","kazan":"×"}}
,{"type":"Feature","geometry":{"type":"Point","coordinates":[133.518,33.478]},"properties":{"Name":"甲殿東津波避難タワー","Jusho":"高知県高知市春野町甲殿274-3，274-10","kouzui":"○","gake":"×","takashio":"×","jishin":"○","tsunami":"○","kaji":"×","naisui":"×","kazan":"×"}}
,{"type":"Feature","geometry":{"type":"Point","coordinates":[133.526,33.483]},"properties":{"Name":"戸原西津波避難タワー","Jusho":"高知県高知市春野町東諸木2591-2","kouzui":"○","gake":"×","takashio":"×","jishin":"○","tsunami":"○","kaji":"×","naisui":"×","kazan":"×"}}
,{"type":"Feature","geometry":{"type":"Point","coordinates":[133.531,33.484]},"properties":{"Name":"戸原東津波避難タワー","Jusho":"高知県高知市春野町東諸木1344-2ほか","kouzui":"○","gake":"×","takashio":"×","jishin":"○","tsunami":"○","kaji":"×","naisui":"×","kazan":"×"}}
,{"type":"Feature","geometry":{"type":"Point","coordinates":[133.602,33.57]},"properties":{"Name":"高知県教育センター","Jusho":"高知県高知市大津乙181","kouzui":"○","gake":"×","takashio":"×","jishin":"×","tsunami":"×","kaji":"×","naisui":"×","kazan":"×"}}
,{"type":"Feature","geometry":{"type":"Point","coordinates":[133.572,33.496]},"properties":{"Name":"高知県立坂本龍馬記念館","Jusho":"高知県高知市浦戸城山830","kouzui":"○","gake":"×","takashio":"×","jishin":"○","tsunami":"×","kaji":"×","naisui":"×","kazan":"×"}}
,{"type":"Feature","geometry":{"type":"Point","coordinates":[133.599,33.589]},"properties":{"Name":"高知刑務所","Jusho":"高知県高知市布師田3604-1","kouzui":"○","gake":"×","takashio":"×","jishin":"×","tsunami":"×","kaji":"×","naisui":"×","kazan":"×"}}
,{"type":"Feature","geometry":{"type":"Point","coordinates":[133.541,33.56]},"properties":{"Name":"中央公園","Jusho":"高知県高知市帯屋町1丁目11-27","kouzui":"×","gake":"×","takashio":"×","jishin":"○","tsunami":"×","kaji":"○","naisui":"×","kazan":"×"}}
,{"type":"Feature","geometry":{"type":"Point","coordinates":[133.531,33.561]},"properties":{"Name":"高知公園","Jusho":"高知県高知市丸ノ内1丁目2-1","kouzui":"×","gake":"×","takashio":"×","jishin":"○","tsunami":"○","kaji":"○","naisui":"×","kazan":"×"}}
,{"type":"Feature","geometry":{"type":"Point","coordinates":[133.528,33.562]},"properties":{"Name":"城西公園","Jusho":"高知県高知市丸ノ内1丁目5-2","kouzui":"×","gake":"×","takashio":"×","jishin":"○","tsunami":"×","kaji":"○","naisui":"×","kazan":"×"}}
,{"type":"Feature","geometry":{"type":"Point","coordinates":[133.533,33.561]},"properties":{"Name":"丸ノ内緑地","Jusho":"高知県高知市丸ノ内1丁目20","kouzui":"×","gake":"×","takashio":"×","jishin":"○","tsunami":"×","kaji":"○","naisui":"×","kazan":"×"}}
,{"type":"Feature","geometry":{"type":"Point","coordinates":[133.564,33.562]},"properties":{"Name":"丸池公園","Jusho":"高知県高知市丸池町9","kouzui":"×","gake":"×","takashio":"×","jishin":"○","tsunami":"×","kaji":"○","naisui":"×","kazan":"×"}}
,{"type":"Feature","geometry":{"type":"Point","coordinates":[133.559,33.557]},"properties":{"Name":"青柳公園","Jusho":"高知県高知市稲荷町1-3","kouzui":"×","gake":"×","takashio":"×","jishin":"○","tsunami":"×","kaji":"○","naisui":"×","kazan":"×"}}
,{"type":"Feature","geometry":{"type":"Point","coordinates":[133.557,33.573]},"properties":{"Name":"弥右衛門公園（予定地含む）","Jusho":"高知県高知市高埇12","kouzui":"×","gake":"×","takashio":"×","jishin":"○","tsunami":"×","kaji":"○","naisui":"×","kazan":"×"}}
,{"type":"Feature","geometry":{"type":"Point","coordinates":[133.551,33.573]},"properties":{"Name":"比島公園","Jusho":"高知県高知市比島町4丁目8","kouzui":"×","gake":"×","takashio":"×","jishin":"○","tsunami":"×","kaji":"○","naisui":"×","kazan":"×"}}
,{"type":"Feature","geometry":{"type":"Point","coordinates":[133.501,33.555]},"properties":{"Name":"旭緑地（予定地含む）","Jusho":"高知県高知市本宮町265-2","kouzui":"×","gake":"×","takashio":"×","jishin":"○","tsunami":"×","kaji":"○","naisui":"×","kazan":"×"}}
,{"type":"Feature","geometry":{"type":"Point","coordinates":[133.508,33.565]},"properties":{"Name":"福井公園","Jusho":"高知県高知市福井町1006-1","kouzui":"×","gake":"×","takashio":"×","jishin":"○","tsunami":"×","kaji":"○","naisui":"×","kazan":"×"}}
,{"type":"Feature","geometry":{"type":"Point","coordinates":[133.555,33.55]},"properties":{"Name":"萩公園","Jusho":"高知県高知市新田町16","kouzui":"×","gake":"×","takashio":"×","jishin":"○","tsunami":"×","kaji":"○","naisui":"×","kazan":"×"}}
,{"type":"Feature","geometry":{"type":"Point","coordinates":[133.545,33.542]},"properties":{"Name":"竹島公園","Jusho":"高知県高知市竹島町54-3","kouzui":"×","gake":"×","takashio":"×","jishin":"○","tsunami":"×","kaji":"○","naisui":"×","kazan":"×"}}
,{"type":"Feature","geometry":{"type":"Point","coordinates":[133.536,33.551]},"properties":{"Name":"筆山公園","Jusho":"高知県高知市小石木町・大原町","kouzui":"×","gake":"×","takashio":"×","jishin":"○","tsunami":"○","kaji":"○","naisui":"×","kazan":"×"}}
,{"type":"Feature","geometry":{"type":"Point","coordinates":[133.521,33.548]},"properties":{"Name":"源内山緑地","Jusho":"高知県高知市南河ノ瀬町","kouzui":"×","gake":"×","takashio":"×","jishin":"○","tsunami":"×","kaji":"○","naisui":"×","kazan":"×"}}
,{"type":"Feature","geometry":{"type":"Point","coordinates":[133.575,33.523]},"properties":{"Name":"仁井田公園","Jusho":"高知県高知市十津6丁目3-1","kouzui":"×","gake":"×","takashio":"×","jishin":"○","tsunami":"×","kaji":"○","naisui":"×","kazan":"×"}}
,{"type":"Feature","geometry":{"type":"Point","coordinates":[133.573,33.509]},"properties":{"Name":"種崎公園","Jusho":"高知県高知市種崎777-1","kouzui":"×","gake":"×","takashio":"×","jishin":"○","tsunami":"×","kaji":"○","naisui":"×","kazan":"×"}}
,{"type":"Feature","geometry":{"type":"Point","coordinates":[133.573,33.548]},"properties":{"Name":"五台山公園","Jusho":"高知県高知市五台山","kouzui":"×","gake":"×","takashio":"×","jishin":"○","tsunami":"○","kaji":"○","naisui":"×","kazan":"×"}}
,{"type":"Feature","geometry":{"type":"Point","coordinates":[133.572,33.562]},"properties":{"Name":"高須浄化センター敷地","Jusho":"高知県高知市高須","kouzui":"×","gake":"×","takashio":"×","jishin":"○","tsunami":"×","kaji":"○","naisui":"×","kazan":"×"}}
,{"type":"Feature","geometry":{"type":"Point","coordinates":[133.571,33.554]},"properties":{"Name":"高須公園","Jusho":"高知県高知市葛島3丁目","kouzui":"×","gake":"×","takashio":"×","jishin":"○","tsunami":"×","kaji":"○","naisui":"×","kazan":"×"}}
,{"type":"Feature","geometry":{"type":"Point","coordinates":[133.532,33.583]},"properties":{"Name":"秦泉寺公園","Jusho":"高知県高知市中秦泉寺318-1","kouzui":"×","gake":"×","takashio":"×","jishin":"○","tsunami":"×","kaji":"○","naisui":"×","kazan":"×"}}
,{"type":"Feature","geometry":{"type":"Point","coordinates":[133.52,33.572]},"properties":{"Name":"初月公園（予定地含む）","Jusho":"高知県高知市南久万189","kouzui":"×","gake":"×","takashio":"×","jishin":"○","tsunami":"×","kaji":"○","naisui":"×","kazan":"×"}}
,{"type":"Feature","geometry":{"type":"Point","coordinates":[133.499,33.541]},"properties":{"Name":"沖田公園","Jusho":"高知県高知市朝倉甲201-1","kouzui":"×","gake":"×","takashio":"×","jishin":"○","tsunami":"×","kaji":"○","naisui":"×","kazan":"×"}}
,{"type":"Feature","geometry":{"type":"Point","coordinates":[133.481,33.536]},"properties":{"Name":"大谷公園","Jusho":"高知県高知市大谷公園町16-85","kouzui":"×","gake":"×","takashio":"×","jishin":"○","tsunami":"×","kaji":"○","naisui":"×","kazan":"×"}}
,{"type":"Feature","geometry":{"type":"Point","coordinates":[133.514,33.542]},"properties":{"Name":"神田公園","Jusho":"高知県高知市神田1338-3","kouzui":"×","gake":"×","takashio":"×","jishin":"○","tsunami":"×","kaji":"○","naisui":"×","kazan":"×"}}
,{"type":"Feature","geometry":{"type":"Point","coordinates":[133.548,33.495]},"properties":{"Name":"長浜公園","Jusho":"高知県高知市長浜5618-1","kouzui":"×","gake":"×","takashio":"×","jishin":"○","tsunami":"×","kaji":"○","naisui":"×","kazan":"×"}}
,{"type":"Feature","geometry":{"type":"Point","coordinates":[133.546,33.493]},"properties":{"Name":"鎮守の森公園緑地","Jusho":"高知県高知市長浜6602-6","kouzui":"×","gake":"×","takashio":"×","jishin":"○","tsunami":"×","kaji":"○","naisui":"×","kazan":"×"}}
,{"type":"Feature","geometry":{"type":"Point","coordinates":[133.54,33.514]},"properties":{"Name":"瀬戸公園","Jusho":"高知県高知市横浜新町5-33","kouzui":"×","gake":"×","takashio":"×","jishin":"○","tsunami":"○","kaji":"○","naisui":"×","kazan":"×"}}
,{"type":"Feature","geometry":{"type":"Point","coordinates":[133.571,33.498]},"properties":{"Name":"桂浜公園","Jusho":"高知県高知市浦戸6","kouzui":"×","gake":"×","takashio":"×","jishin":"○","tsunami":"×","kaji":"○","naisui":"×","kazan":"×"}}
,{"type":"Feature","geometry":{"type":"Point","coordinates":[133.62,33.561]},"properties":{"Name":"潮見台公園","Jusho":"高知県高知市潮見台1丁目2601","kouzui":"×","gake":"×","takashio":"×","jishin":"○","tsunami":"×","kaji":"○","naisui":"×","kazan":"×"}}
,{"type":"Feature","geometry":{"type":"Point","coordinates":[133.484,33.6]},"properties":{"Name":"大利新宮の森公園","Jusho":"高知県高知市鏡大利554","kouzui":"×","gake":"×","takashio":"×","jishin":"○","tsunami":"×","kaji":"○","naisui":"×","kazan":"×"}}
,{"type":"Feature","geometry":{"type":"Point","coordinates":[133.547,33.491]},"properties":{"Name":"特別養護老人ホームつむぐ","Jusho":"高知県高知市長浜6598-4","kouzui":"×","gake":"×","takashio":"×","jishin":"×","tsunami":"○","kaji":"×","naisui":"×","kazan":"×"}}
,{"type":"Feature","geometry":{"type":"Point","coordinates":[133.572,33.513]},"properties":{"Name":"パールマリン","Jusho":"高知県高知市仁井田1618-18","kouzui":"×","gake":"×","takashio":"×","jishin":"×","tsunami":"○","kaji":"×","naisui":"×","kazan":"×"}}
,{"type":"Feature","geometry":{"type":"Point","coordinates":[133.568,33.505]},"properties":{"Name":"てくたね","Jusho":"高知県高知市種崎593-１","kouzui":"×","gake":"×","takashio":"×","jishin":"×","tsunami":"○","kaji":"×","naisui":"×","kazan":"×"}}
,{"type":"Feature","geometry":{"type":"Point","coordinates":[133.574,33.514]},"properties":{"Name":"三里交番","Jusho":"高知県高知市仁井田1612-３","kouzui":"×","gake":"×","takashio":"×","jishin":"×","tsunami":"○","kaji":"×","naisui":"×","kazan":"×"}}
,{"type":"Feature","geometry":{"type":"Point","coordinates":[133.569,33.506]},"properties":{"Name":"マリベール種崎","Jusho":"高知県高知市種崎733番地３","kouzui":"×","gake":"×","takashio":"×","jishin":"×","tsunami":"○","kaji":"×","naisui":"×","kazan":"×"}}
,{"type":"Feature","geometry":{"type":"Point","coordinates":[133.594,33.522]},"properties":{"Name":"高知高等技術学校","Jusho":"高知県高知市仁井田1188番地","kouzui":"×","gake":"×","takashio":"×","jishin":"×","tsunami":"○","kaji":"×","naisui":"×","kazan":"×"}}
,{"type":"Feature","geometry":{"type":"Point","coordinates":[133.576,33.57]},"properties":{"Name":"サンピアセリーズ","Jusho":"高知県高知市高須砂地155","kouzui":"×","gake":"×","takashio":"×","jishin":"×","tsunami":"○","kaji":"×","naisui":"×","kazan":"×"}}
,{"type":"Feature","geometry":{"type":"Point","coordinates":[133.573,33.555]},"properties":{"Name":"四電葛島アパート","Jusho":"高知県高知市葛島４丁目４-３","kouzui":"×","gake":"×","takashio":"×","jishin":"×","tsunami":"○","kaji":"×","naisui":"×","kazan":"×"}}
,{"type":"Feature","geometry":{"type":"Point","coordinates":[133.589,33.56]},"properties":{"Name":"岡林マンション","Jusho":"高知県高知市高須２丁目17-36","kouzui":"×","gake":"×","takashio":"×","jishin":"×","tsunami":"○","kaji":"×","naisui":"×","kazan":"×"}}
,{"type":"Feature","geometry":{"type":"Point","coordinates":[133.588,33.559]},"properties":{"Name":"アーバンヒル青山","Jusho":"高知県高知市高須２丁目６-64","kouzui":"×","gake":"×","takashio":"×","jishin":"×","tsunami":"○","kaji":"×","naisui":"×","kazan":"×"}}
,{"type":"Feature","geometry":{"type":"Point","coordinates":[133.586,33.562]},"properties":{"Name":"ボンジュール宗円","Jusho":"高知県高知市高須２丁目13-10","kouzui":"×","gake":"×","takashio":"×","jishin":"×","tsunami":"○","kaji":"×","naisui":"×","kazan":"×"}}
,{"type":"Feature","geometry":{"type":"Point","coordinates":[133.586,33.562]},"properties":{"Name":"ホワイエ高須","Jusho":"高知県高知市高須新木３-36","kouzui":"×","gake":"×","takashio":"×","jishin":"×","tsunami":"○","kaji":"×","naisui":"×","kazan":"×"}}
,{"type":"Feature","geometry":{"type":"Point","coordinates":[133.586,33.561]},"properties":{"Name":"セレクト高須","Jusho":"高知県高知市高須２丁目13-21","kouzui":"×","gake":"×","takashio":"×","jishin":"×","tsunami":"○","kaji":"×","naisui":"×","kazan":"×"}}
,{"type":"Feature","geometry":{"type":"Point","coordinates":[133.573,33.559]},"properties":{"Name":"ルーカス高須","Jusho":"高知県高知市葛島１丁目10-68","kouzui":"×","gake":"×","takashio":"×","jishin":"×","tsunami":"○","kaji":"×","naisui":"×","kazan":"×"}}
,{"type":"Feature","geometry":{"type":"Point","coordinates":[133.573,33.559]},"properties":{"Name":"マイセル高須","Jusho":"高知県高知市葛島１丁目10-68","kouzui":"×","gake":"×","takashio":"×","jishin":"×","tsunami":"○","kaji":"×","naisui":"×","kazan":"×"}}
,{"type":"Feature","geometry":{"type":"Point","coordinates":[133.586,33.56]},"properties":{"Name":"マンションベスタ","Jusho":"高知県高知市高須２丁目３-21","kouzui":"×","gake":"×","takashio":"×","jishin":"×","tsunami":"○","kaji":"×","naisui":"×","kazan":"×"}}
,{"type":"Feature","geometry":{"type":"Point","coordinates":[133.588,33.563]},"properties":{"Name":"カーサローズヴェール","Jusho":"高知県高知市高須３丁目１-59","kouzui":"×","gake":"×","takashio":"×","jishin":"×","tsunami":"○","kaji":"×","naisui":"×","kazan":"×"}}
,{"type":"Feature","geometry":{"type":"Point","coordinates":[133.584,33.561]},"properties":{"Name":"ドルフ高須","Jusho":"高知県高知市高須新木１-29","kouzui":"×","gake":"×","takashio":"×","jishin":"×","tsunami":"○","kaji":"×","naisui":"×","kazan":"×"}}
,{"type":"Feature","geometry":{"type":"Point","coordinates":[133.589,33.562]},"properties":{"Name":"メゾン・ド・ケイ","Jusho":"高知県高知市高須３丁目２-47","kouzui":"×","gake":"×","takashio":"×","jishin":"×","tsunami":"○","kaji":"×","naisui":"×","kazan":"×"}}
,{"type":"Feature","geometry":{"type":"Point","coordinates":[133.59,33.561]},"properties":{"Name":"アバイド","Jusho":"高知県高知市高須３丁目４-44","kouzui":"×","gake":"×","takashio":"×","jishin":"×","tsunami":"○","kaji":"×","naisui":"×","kazan":"×"}}
,{"type":"Feature","geometry":{"type":"Point","coordinates":[133.571,33.559]},"properties":{"Name":"インペリアル西本１","Jusho":"高知県高知市葛島１丁目６-37","kouzui":"×","gake":"×","takashio":"×","jishin":"×","tsunami":"○","kaji":"×","naisui":"×","kazan":"×"}}
,{"type":"Feature","geometry":{"type":"Point","coordinates":[133.571,33.559]},"properties":{"Name":"インペリアル西本２","Jusho":"高知県高知市葛島１丁目６-28","kouzui":"×","gake":"×","takashio":"×","jishin":"×","tsunami":"○","kaji":"×","naisui":"×","kazan":"×"}}
,{"type":"Feature","geometry":{"type":"Point","coordinates":[133.572,33.559]},"properties":{"Name":"ヴィラージュ葛島","Jusho":"高知県高知市葛島１丁目７-９","kouzui":"×","gake":"×","takashio":"×","jishin":"×","tsunami":"○","kaji":"×","naisui":"×","kazan":"×"}}
,{"type":"Feature","geometry":{"type":"Point","coordinates":[133.577,33.558]},"properties":{"Name":"パークサイド高須Ⅱ","Jusho":"高知県高知市高須新町１丁目５-11","kouzui":"×","gake":"×","takashio":"×","jishin":"×","tsunami":"○","kaji":"×","naisui":"×","kazan":"×"}}
,{"type":"Feature","geometry":{"type":"Point","coordinates":[133.571,33.558]},"properties":{"Name":"ロイヤルガーデン２","Jusho":"高知県高知市葛島１丁目６-６","kouzui":"×","gake":"×","takashio":"×","jishin":"×","tsunami":"○","kaji":"×","naisui":"×","kazan":"×"}}
,{"type":"Feature","geometry":{"type":"Point","coordinates":[133.571,33.559]},"properties":{"Name":"ロイヤルガーデン","Jusho":"高知県高知市葛島１丁目６-８","kouzui":"×","gake":"×","takashio":"×","jishin":"×","tsunami":"○","kaji":"×","naisui":"×","kazan":"×"}}
,{"type":"Feature","geometry":{"type":"Point","coordinates":[133.59,33.56]},"properties":{"Name":"ピュアコート高須","Jusho":"高知県高知市高須２丁目18-11","kouzui":"×","gake":"×","takashio":"×","jishin":"×","tsunami":"○","kaji":"×","naisui":"×","kazan":"×"}}
,{"type":"Feature","geometry":{"type":"Point","coordinates":[133.572,33.558]},"properties":{"Name":"高知厚生病院","Jusho":"高知県高知市葛島１丁目９-50","kouzui":"×","gake":"×","takashio":"×","jishin":"×","tsunami":"○","kaji":"×","naisui":"×","kazan":"×"}}
,{"type":"Feature","geometry":{"type":"Point","coordinates":[133.594,33.558]},"properties":{"Name":"ジューヌ高須","Jusho":"高知県高知市高須東町13-１","kouzui":"×","gake":"×","takashio":"×","jishin":"×","tsunami":"○","kaji":"×","naisui":"×","kazan":"×"}}
,{"type":"Feature","geometry":{"type":"Point","coordinates":[133.596,33.559]},"properties":{"Name":"高見屋クリーニング","Jusho":"高知県高知市高須東町19-33","kouzui":"×","gake":"×","takashio":"×","jishin":"×","tsunami":"○","kaji":"×","naisui":"×","kazan":"×"}}
,{"type":"Feature","geometry":{"type":"Point","coordinates":[133.577,33.56]},"properties":{"Name":"東ノ丸マンション","Jusho":"高知県高知市高須本町２-50","kouzui":"×","gake":"×","takashio":"×","jishin":"×","tsunami":"○","kaji":"×","naisui":"×","kazan":"×"}}
,{"type":"Feature","geometry":{"type":"Point","coordinates":[133.59,33.564]},"properties":{"Name":"レオパレスヴィラ高須","Jusho":"高知県高知市高須３丁目16-７","kouzui":"×","gake":"×","takashio":"×","jishin":"×","tsunami":"○","kaji":"×","naisui":"×","kazan":"×"}}
,{"type":"Feature","geometry":{"type":"Point","coordinates":[133.59,33.561]},"properties":{"Name":"メゾン・レーヴ高須","Jusho":"高知県高知市高須２丁目17-20","kouzui":"×","gake":"×","takashio":"×","jishin":"×","tsunami":"○","kaji":"×","naisui":"×","kazan":"×"}}
,{"type":"Feature","geometry":{"type":"Point","coordinates":[133.582,33.559]},"properties":{"Name":"アムールハイツ高須","Jusho":"高知県高知市高須１丁目４-６","kouzui":"×","gake":"×","takashio":"×","jishin":"×","tsunami":"○","kaji":"×","naisui":"×","kazan":"×"}}
,{"type":"Feature","geometry":{"type":"Point","coordinates":[133.573,33.555]},"properties":{"Name":"中勝建設（株）","Jusho":"高知県高知市葛島４丁目５-14","kouzui":"×","gake":"×","takashio":"×","jishin":"×","tsunami":"○","kaji":"×","naisui":"×","kazan":"×"}}
,{"type":"Feature","geometry":{"type":"Point","coordinates":[133.588,33.558]},"properties":{"Name":"百万石ビル","Jusho":"高知県高知市高須１丁目18-８","kouzui":"×","gake":"×","takashio":"×","jishin":"×","tsunami":"○","kaji":"×","naisui":"×","kazan":"×"}}
,{"type":"Feature","geometry":{"type":"Point","coordinates":[133.583,33.559]},"properties":{"Name":"メゾン・ド・エマイユ","Jusho":"高知県高知市高須１丁目10-20","kouzui":"×","gake":"×","takashio":"×","jishin":"×","tsunami":"○","kaji":"×","naisui":"×","kazan":"×"}}
,{"type":"Feature","geometry":{"type":"Point","coordinates":[133.582,33.559]},"properties":{"Name":"ピクシー高須","Jusho":"高知県高知市高須１丁目４-５","kouzui":"×","gake":"×","takashio":"×","jishin":"×","tsunami":"○","kaji":"×","naisui":"×","kazan":"×"}}
,{"type":"Feature","geometry":{"type":"Point","coordinates":[133.572,33.554]},"properties":{"Name":"コーポ田中１号館","Jusho":"高知県高知市葛島４丁目10-７","kouzui":"×","gake":"×","takashio":"×","jishin":"×","tsunami":"○","kaji":"×","naisui":"×","kazan":"×"}}
,{"type":"Feature","geometry":{"type":"Point","coordinates":[133.572,33.553]},"properties":{"Name":"コーポ田中２号館","Jusho":"高知県高知市葛島４丁目10-８","kouzui":"×","gake":"×","takashio":"×","jishin":"×","tsunami":"○","kaji":"×","naisui":"×","kazan":"×"}}
,{"type":"Feature","geometry":{"type":"Point","coordinates":[133.575,33.555]},"properties":{"Name":"コーポ田中５号館","Jusho":"高知県高知市葛島４丁目７-20","kouzui":"×","gake":"×","takashio":"×","jishin":"×","tsunami":"○","kaji":"×","naisui":"×","kazan":"×"}}
,{"type":"Feature","geometry":{"type":"Point","coordinates":[133.585,33.559]},"properties":{"Name":"ロイヤル高須Ⅱ","Jusho":"高知県高知市高須１丁目14-18","kouzui":"×","gake":"×","takashio":"×","jishin":"×","tsunami":"○","kaji":"×","naisui":"×","kazan":"×"}}
,{"type":"Feature","geometry":{"type":"Point","coordinates":[133.576,33.555]},"properties":{"Name":"高須ハウス２０","Jusho":"高知県高知市高須新町３丁目５-13","kouzui":"×","gake":"×","takashio":"×","jishin":"×","tsunami":"○","kaji":"×","naisui":"×","kazan":"×"}}
,{"type":"Feature","geometry":{"type":"Point","coordinates":[133.577,33.555]},"properties":{"Name":"コーポ浜田","Jusho":"高知県高知市高須新町３丁目７-５","kouzui":"×","gake":"×","takashio":"×","jishin":"×","tsunami":"○","kaji":"×","naisui":"×","kazan":"×"}}
,{"type":"Feature","geometry":{"type":"Point","coordinates":[133.569,33.552]},"properties":{"Name":"コーポマルミ","Jusho":"高知県高知市葛島３丁目14-３","kouzui":"×","gake":"×","takashio":"×","jishin":"×","tsunami":"○","kaji":"×","naisui":"×","kazan":"×"}}
,{"type":"Feature","geometry":{"type":"Point","coordinates":[133.577,33.558]},"properties":{"Name":"青木脳神経外科形成外科","Jusho":"高知県高知市高須新町１丁目６-26","kouzui":"×","gake":"×","takashio":"×","jishin":"×","tsunami":"○","kaji":"×","naisui":"×","kazan":"×"}}
,{"type":"Feature","geometry":{"type":"Point","coordinates":[133.579,33.556]},"properties":{"Name":"コーポ山﨑","Jusho":"高知県高知市高須新町４丁目２-12","kouzui":"×","gake":"×","takashio":"×","jishin":"×","tsunami":"○","kaji":"×","naisui":"×","kazan":"×"}}
,{"type":"Feature","geometry":{"type":"Point","coordinates":[133.58,33.558]},"properties":{"Name":"ルミエールSawa","Jusho":"高知県高知市高須新町２丁目７-８","kouzui":"×","gake":"×","takashio":"×","jishin":"×","tsunami":"○","kaji":"×","naisui":"×","kazan":"×"}}
,{"type":"Feature","geometry":{"type":"Point","coordinates":[133.579,33.555]},"properties":{"Name":"第３山崎マンション","Jusho":"高知県高知市高須新町４丁目７-８","kouzui":"×","gake":"×","takashio":"×","jishin":"×","tsunami":"○","kaji":"×","naisui":"×","kazan":"×"}}
,{"type":"Feature","geometry":{"type":"Point","coordinates":[133.576,33.558]},"properties":{"Name":"ピュア高須新町","Jusho":"高知県高知市高須新町１丁目７-７","kouzui":"×","gake":"×","takashio":"×","jishin":"×","tsunami":"○","kaji":"×","naisui":"×","kazan":"×"}}
,{"type":"Feature","geometry":{"type":"Point","coordinates":[133.595,33.559]},"properties":{"Name":"ピュア高須Ⅱ","Jusho":"高知県高知市高須東町14-11","kouzui":"×","gake":"×","takashio":"×","jishin":"×","tsunami":"○","kaji":"×","naisui":"×","kazan":"×"}}
,{"type":"Feature","geometry":{"type":"Point","coordinates":[133.588,33.561]},"properties":{"Name":"美和ハイツ３","Jusho":"高知県高知市高須２丁目15-44","kouzui":"×","gake":"×","takashio":"×","jishin":"×","tsunami":"○","kaji":"×","naisui":"×","kazan":"×"}}
,{"type":"Feature","geometry":{"type":"Point","coordinates":[133.58,33.558]},"properties":{"Name":"土佐塾高須教室","Jusho":"高知県高知市高須新町２丁目６-９","kouzui":"×","gake":"×","takashio":"×","jishin":"×","tsunami":"○","kaji":"×","naisui":"×","kazan":"×"}}
,{"type":"Feature","geometry":{"type":"Point","coordinates":[133.569,33.552]},"properties":{"Name":"平成ビル","Jusho":"高知県高知市葛島３丁目14-１","kouzui":"×","gake":"×","takashio":"×","jishin":"×","tsunami":"○","kaji":"×","naisui":"×","kazan":"×"}}
,{"type":"Feature","geometry":{"type":"Point","coordinates":[133.586,33.559]},"properties":{"Name":"サーパス高須中央","Jusho":"高知県高知市高須１丁目16-２","kouzui":"×","gake":"×","takashio":"×","jishin":"×","tsunami":"○","kaji":"×","naisui":"×","kazan":"×"}}
,{"type":"Feature","geometry":{"type":"Point","coordinates":[133.574,33.556]},"properties":{"Name":"サーパス高須","Jusho":"高知県高知市葛島４丁目３-14","kouzui":"×","gake":"×","takashio":"×","jishin":"×","tsunami":"○","kaji":"×","naisui":"×","kazan":"×"}}
,{"type":"Feature","geometry":{"type":"Point","coordinates":[133.577,33.556]},"properties":{"Name":"グランディ","Jusho":"高知県高知市高須新町３丁目１-36","kouzui":"×","gake":"×","takashio":"×","jishin":"×","tsunami":"○","kaji":"×","naisui":"×","kazan":"×"}}
,{"type":"Feature","geometry":{"type":"Point","coordinates":[133.577,33.556]},"properties":{"Name":"パル・グランディ","Jusho":"高知県高知市高須新町３丁目１-20","kouzui":"×","gake":"×","takashio":"×","jishin":"×","tsunami":"○","kaji":"×","naisui":"×","kazan":"×"}}
,{"type":"Feature","geometry":{"type":"Point","coordinates":[133.576,33.556]},"properties":{"Name":"高須グランドハイツ","Jusho":"高知県高知市高須新町３丁目２-４","kouzui":"×","gake":"×","takashio":"×","jishin":"×","tsunami":"○","kaji":"×","naisui":"×","kazan":"×"}}
,{"type":"Feature","geometry":{"type":"Point","coordinates":[133.584,33.56]},"properties":{"Name":"ハイツフジオ","Jusho":"高知県高知市高須２丁目１-７","kouzui":"×","gake":"×","takashio":"×","jishin":"×","tsunami":"○","kaji":"×","naisui":"×","kazan":"×"}}
,{"type":"Feature","geometry":{"type":"Point","coordinates":[133.577,33.559]},"properties":{"Name":"ロゼ１","Jusho":"高知県高知市高須新町１丁目13-26","kouzui":"×","gake":"×","takashio":"×","jishin":"×","tsunami":"○","kaji":"×","naisui":"×","kazan":"×"}}
,{"type":"Feature","geometry":{"type":"Point","coordinates":[133.59,33.562]},"properties":{"Name":"コスモハイツ高須２ A棟","Jusho":"高知県高知市高須３丁目３-14","kouzui":"×","gake":"×","takashio":"×","jishin":"×","tsunami":"○","kaji":"×","naisui":"×","kazan":"×"}}
,{"type":"Feature","geometry":{"type":"Point","coordinates":[133.59,33.562]},"properties":{"Name":"コスモハイツ高須２ B棟","Jusho":"高知県高知市高須３丁目３-15","kouzui":"×","gake":"×","takashio":"×","jishin":"×","tsunami":"○","kaji":"×","naisui":"×","kazan":"×"}}
,{"type":"Feature","geometry":{"type":"Point","coordinates":[133.59,33.562]},"properties":{"Name":"コスモハイツ高須２ C棟","Jusho":"高知県高知市高須３丁目３-16","kouzui":"×","gake":"×","takashio":"×","jishin":"×","tsunami":"○","kaji":"×","naisui":"×","kazan":"×"}}
,{"type":"Feature","geometry":{"type":"Point","coordinates":[133.576,33.557]},"properties":{"Name":"コーポ高須","Jusho":"高知県高知市高須新町１丁目１-14","kouzui":"×","gake":"×","takashio":"×","jishin":"×","tsunami":"○","kaji":"×","naisui":"×","kazan":"×"}}
,{"type":"Feature","geometry":{"type":"Point","coordinates":[133.574,33.56]},"properties":{"Name":"アルファステイツ高須","Jusho":"高知県高知市葛島1丁目10-57","kouzui":"×","gake":"×","takashio":"×","jishin":"×","tsunami":"○","kaji":"×","naisui":"×","kazan":"×"}}
,{"type":"Feature","geometry":{"type":"Point","coordinates":[133.589,33.564]},"properties":{"Name":"サーパス高須二番館","Jusho":"高知県高知市高須三丁目14-31","kouzui":"×","gake":"×","takashio":"×","jishin":"×","tsunami":"○","kaji":"×","naisui":"×","kazan":"×"}}
,{"type":"Feature","geometry":{"type":"Point","coordinates":[133.588,33.562]},"properties":{"Name":"メゾンキタムラ","Jusho":"高知県高知市高須３丁目1-45","kouzui":"×","gake":"×","takashio":"×","jishin":"×","tsunami":"○","kaji":"×","naisui":"×","kazan":"×"}}
,{"type":"Feature","geometry":{"type":"Point","coordinates":[133.59,33.562]},"properties":{"Name":"メゾン北村Ⅱ","Jusho":"高知県高知市高須３丁目2-20","kouzui":"×","gake":"×","takashio":"×","jishin":"×","tsunami":"○","kaji":"×","naisui":"×","kazan":"×"}}
,{"type":"Feature","geometry":{"type":"Point","coordinates":[133.59,33.564]},"properties":{"Name":"サーパス高須一番館","Jusho":"高知県高知市高須３丁目14-30","kouzui":"×","gake":"×","takashio":"×","jishin":"×","tsunami":"○","kaji":"×","naisui":"×","kazan":"×"}}
,{"type":"Feature","geometry":{"type":"Point","coordinates":[133.582,33.559]},"properties":{"Name":"サーパス高須第３","Jusho":"高知県高知市高須１丁目8-15","kouzui":"×","gake":"×","takashio":"×","jishin":"×","tsunami":"○","kaji":"×","naisui":"×","kazan":"×"}}
,{"type":"Feature","geometry":{"type":"Point","coordinates":[133.595,33.562]},"properties":{"Name":"高知東郵便局","Jusho":"高知県高知市介良乙952-１","kouzui":"×","gake":"×","takashio":"×","jishin":"×","tsunami":"○","kaji":"×","naisui":"×","kazan":"×"}}
,{"type":"Feature","geometry":{"type":"Point","coordinates":[133.595,33.561]},"properties":{"Name":"サーパス高須東弐番館","Jusho":"高知県高知市介良乙1028-１","kouzui":"×","gake":"×","takashio":"×","jishin":"×","tsunami":"○","kaji":"×","naisui":"×","kazan":"×"}}
,{"type":"Feature","geometry":{"type":"Point","coordinates":[133.601,33.558]},"properties":{"Name":"イチゴいちえ","Jusho":"高知県高知市介良乙3042-１","kouzui":"×","gake":"×","takashio":"×","jishin":"×","tsunami":"○","kaji":"×","naisui":"×","kazan":"×"}}
,{"type":"Feature","geometry":{"type":"Point","coordinates":[133.596,33.561]},"properties":{"Name":"サーパス高須東","Jusho":"高知県高知市介良乙1028-６","kouzui":"×","gake":"×","takashio":"×","jishin":"×","tsunami":"○","kaji":"×","naisui":"×","kazan":"×"}}
,{"type":"Feature","geometry":{"type":"Point","coordinates":[133.6,33.552]},"properties":{"Name":"本江田川排水機場","Jusho":"高知県高知市介良乙3659-2","kouzui":"×","gake":"×","takashio":"×","jishin":"×","tsunami":"○","kaji":"×","naisui":"×","kazan":"×"}}
,{"type":"Feature","geometry":{"type":"Point","coordinates":[133.595,33.569]},"properties":{"Name":"ハーモナイズおおつ1号棟","Jusho":"高知県高知市大津乙845","kouzui":"×","gake":"×","takashio":"×","jishin":"×","tsunami":"○","kaji":"×","naisui":"×","kazan":"×"}}
,{"type":"Feature","geometry":{"type":"Point","coordinates":[133.595,33.569]},"properties":{"Name":"ハーモナイズおおつ2号棟","Jusho":"高知県高知市大津乙845","kouzui":"×","gake":"×","takashio":"×","jishin":"×","tsunami":"○","kaji":"×","naisui":"×","kazan":"×"}}
,{"type":"Feature","geometry":{"type":"Point","coordinates":[133.602,33.568]},"properties":{"Name":"県営住宅大津団地１号棟","Jusho":"高知県高知市大津乙318","kouzui":"×","gake":"×","takashio":"×","jishin":"×","tsunami":"○","kaji":"×","naisui":"×","kazan":"×"}}
,{"type":"Feature","geometry":{"type":"Point","coordinates":[133.602,33.568]},"properties":{"Name":"県営住宅大津団地２号棟","Jusho":"高知県高知市大津乙318","kouzui":"×","gake":"×","takashio":"×","jishin":"×","tsunami":"○","kaji":"×","naisui":"×","kazan":"×"}}
,{"type":"Feature","geometry":{"type":"Point","coordinates":[133.587,33.565]},"properties":{"Name":"土佐リハビリテーションカレッジ（講義棟）","Jusho":"高知県高知市大津乙2500-２","kouzui":"×","gake":"×","takashio":"×","jishin":"×","tsunami":"○","kaji":"×","naisui":"×","kazan":"×"}}
,{"type":"Feature","geometry":{"type":"Point","coordinates":[133.592,33.574]},"properties":{"Name":"（株）青柳本社工場","Jusho":"高知県高知市大津乙1741","kouzui":"×","gake":"×","takashio":"×","jishin":"×","tsunami":"○","kaji":"×","naisui":"×","kazan":"×"}}
,{"type":"Feature","geometry":{"type":"Point","coordinates":[133.606,33.575]},"properties":{"Name":"テポーレヒル","Jusho":"高知県高知市大津乙1245-７","kouzui":"×","gake":"×","takashio":"×","jishin":"×","tsunami":"○","kaji":"×","naisui":"×","kazan":"×"}}
,{"type":"Feature","geometry":{"type":"Point","coordinates":[133.606,33.575]},"properties":{"Name":"マリベールグローリエ","Jusho":"高知県高知市大津乙1245-２","kouzui":"×","gake":"×","takashio":"×","jishin":"×","tsunami":"○","kaji":"×","naisui":"×","kazan":"×"}}
,{"type":"Feature","geometry":{"type":"Point","coordinates":[133.597,33.571]},"properties":{"Name":"サンシティ２","Jusho":"高知県高知市大津乙879-２","kouzui":"×","gake":"×","takashio":"×","jishin":"×","tsunami":"○","kaji":"×","naisui":"×","kazan":"×"}}
,{"type":"Feature","geometry":{"type":"Point","coordinates":[133.597,33.57]},"properties":{"Name":"ロゼ３","Jusho":"高知県高知市大津乙878-１","kouzui":"×","gake":"×","takashio":"×","jishin":"×","tsunami":"○","kaji":"×","naisui":"×","kazan":"×"}}
,{"type":"Feature","geometry":{"type":"Point","coordinates":[133.595,33.571]},"properties":{"Name":"サーパス大津","Jusho":"高知県高知市大津乙1822-1","kouzui":"×","gake":"×","takashio":"×","jishin":"×","tsunami":"○","kaji":"×","naisui":"×","kazan":"×"}}
,{"type":"Feature","geometry":{"type":"Point","coordinates":[133.556,33.54]},"properties":{"Name":"高知県赤十字血液センター","Jusho":"高知県高知市桟橋通６丁目７-44","kouzui":"×","gake":"×","takashio":"×","jishin":"×","tsunami":"○","kaji":"×","naisui":"×","kazan":"×"}}
,{"type":"Feature","geometry":{"type":"Point","coordinates":[133.551,33.539]},"properties":{"Name":"ステラ桟橋","Jusho":"高知県高知市桟橋通５丁目６-12","kouzui":"×","gake":"×","takashio":"×","jishin":"×","tsunami":"○","kaji":"×","naisui":"×","kazan":"×"}}
,{"type":"Feature","geometry":{"type":"Point","coordinates":[133.547,33.55]},"properties":{"Name":"高知市青年センター","Jusho":"高知県高知市桟橋通２丁目１-50","kouzui":"×","gake":"×","takashio":"×","jishin":"×","tsunami":"○","kaji":"×","naisui":"×","kazan":"×"}}
,{"type":"Feature","geometry":{"type":"Point","coordinates":[133.548,33.549]},"properties":{"Name":"（株）四電工高知支店","Jusho":"高知県高知市桟橋通２丁目２-25","kouzui":"×","gake":"×","takashio":"×","jishin":"×","tsunami":"○","kaji":"×","naisui":"×","kazan":"×"}}
,{"type":"Feature","geometry":{"type":"Point","coordinates":[133.545,33.552]},"properties":{"Name":"シンセイ高知店（立体駐車場）","Jusho":"高知県高知市桟橋通１丁目１-30","kouzui":"×","gake":"×","takashio":"×","jishin":"×","tsunami":"○","kaji":"×","naisui":"×","kazan":"×"}}
,{"type":"Feature","geometry":{"type":"Point","coordinates":[133.547,33.551]},"properties":{"Name":"アステールＫ","Jusho":"高知県高知市桟橋通１丁目10-６","kouzui":"×","gake":"×","takashio":"×","jishin":"×","tsunami":"○","kaji":"×","naisui":"×","kazan":"×"}}
,{"type":"Feature","geometry":{"type":"Point","coordinates":[133.555,33.542]},"properties":{"Name":"高知南高等学校","Jusho":"高知県高知市桟橋通６丁目２-１","kouzui":"×","gake":"×","takashio":"×","jishin":"×","tsunami":"○","kaji":"×","naisui":"×","kazan":"×"}}
,{"type":"Feature","geometry":{"type":"Point","coordinates":[133.543,33.555]},"properties":{"Name":"フィッシングハヤシ","Jusho":"高知県高知市梅ノ辻５-１","kouzui":"×","gake":"×","takashio":"×","jishin":"×","tsunami":"○","kaji":"×","naisui":"×","kazan":"×"}}
,{"type":"Feature","geometry":{"type":"Point","coordinates":[133.546,33.551]},"properties":{"Name":"有料老人ホームつばさ","Jusho":"高知県高知市桟橋通１丁目７-17","kouzui":"×","gake":"×","takashio":"×","jishin":"×","tsunami":"○","kaji":"×","naisui":"×","kazan":"×"}}
,{"type":"Feature","geometry":{"type":"Point","coordinates":[133.545,33.554]},"properties":{"Name":"介護老人保健施設　梅壽苑","Jusho":"高知県高知市土居町９-18","kouzui":"×","gake":"×","takashio":"×","jishin":"×","tsunami":"○","kaji":"×","naisui":"×","kazan":"×"}}
,{"type":"Feature","geometry":{"type":"Point","coordinates":[133.545,33.554]},"properties":{"Name":"潮江高橋病院　北棟","Jusho":"高知県高知市土居町９-18","kouzui":"×","gake":"×","takashio":"×","jishin":"×","tsunami":"○","kaji":"×","naisui":"×","kazan":"×"}}
,{"type":"Feature","geometry":{"type":"Point","coordinates":[133.545,33.555]},"properties":{"Name":"Ｈｏｔｅｌ　Ｋｏ’ｓ　Ｓｔｙｌｅ","Jusho":"高知県高知市土居町８-８","kouzui":"×","gake":"×","takashio":"×","jishin":"×","tsunami":"○","kaji":"×","naisui":"×","kazan":"×"}}
,{"type":"Feature","geometry":{"type":"Point","coordinates":[133.545,33.554]},"properties":{"Name":"メゾン・レーヴ潮江","Jusho":"高知県高知市土居町16-４","kouzui":"×","gake":"×","takashio":"×","jishin":"×","tsunami":"○","kaji":"×","naisui":"×","kazan":"×"}}
,{"type":"Feature","geometry":{"type":"Point","coordinates":[133.546,33.553]},"properties":{"Name":"潮江マンションＡ","Jusho":"高知県高知市桟橋通１丁目２-28","kouzui":"×","gake":"×","takashio":"×","jishin":"×","tsunami":"○","kaji":"×","naisui":"×","kazan":"×"}}
,{"type":"Feature","geometry":{"type":"Point","coordinates":[133.551,33.54]},"properties":{"Name":"ポートハイム28","Jusho":"高知県高知市桟橋通５丁目６-１","kouzui":"×","gake":"×","takashio":"×","jishin":"×","tsunami":"○","kaji":"×","naisui":"×","kazan":"×"}}
,{"type":"Feature","geometry":{"type":"Point","coordinates":[133.555,33.547]},"properties":{"Name":"（株）轟組","Jusho":"高知県高知市萩町１丁目５-13","kouzui":"×","gake":"×","takashio":"×","jishin":"×","tsunami":"○","kaji":"×","naisui":"×","kazan":"×"}}
,{"type":"Feature","geometry":{"type":"Point","coordinates":[133.552,33.54]},"properties":{"Name":"高知港湾合同庁舎","Jusho":"高知県高知市桟橋通五丁目4-55","kouzui":"×","gake":"×","takashio":"×","jishin":"×","tsunami":"○","kaji":"×","naisui":"×","kazan":"×"}}
,{"type":"Feature","geometry":{"type":"Point","coordinates":[133.543,33.552]},"properties":{"Name":"土佐中学校・高校","Jusho":"高知県高知市塩屋崎町１丁目１-10","kouzui":"×","gake":"×","takashio":"×","jishin":"×","tsunami":"○","kaji":"×","naisui":"×","kazan":"×"}}
,{"type":"Feature","geometry":{"type":"Point","coordinates":[133.548,33.545]},"properties":{"Name":"百石町市営住宅","Jusho":"高知県高知市百石町３丁目１-33","kouzui":"×","gake":"×","takashio":"×","jishin":"×","tsunami":"○","kaji":"×","naisui":"×","kazan":"×"}}
,{"type":"Feature","geometry":{"type":"Point","coordinates":[133.539,33.546]},"properties":{"Name":"北竹島町市営住宅１号棟","Jusho":"高知県高知市北竹島町29-1","kouzui":"×","gake":"×","takashio":"×","jishin":"×","tsunami":"○","kaji":"×","naisui":"×","kazan":"×"}}
,{"type":"Feature","geometry":{"type":"Point","coordinates":[133.54,33.545]},"properties":{"Name":"北竹島町市営住宅２号棟","Jusho":"高知県高知市北竹島町29-１","kouzui":"×","gake":"×","takashio":"×","jishin":"×","tsunami":"○","kaji":"×","naisui":"×","kazan":"×"}}
,{"type":"Feature","geometry":{"type":"Point","coordinates":[133.545,33.544]},"properties":{"Name":"潮江第一コミュニティ住宅","Jusho":"高知県高知市百石町４丁目15-４","kouzui":"×","gake":"×","takashio":"×","jishin":"×","tsunami":"○","kaji":"×","naisui":"×","kazan":"×"}}
,{"type":"Feature","geometry":{"type":"Point","coordinates":[133.546,33.546]},"properties":{"Name":"潮江第二コミュニティ住宅","Jusho":"高知県高知市百石町３丁目６-８","kouzui":"×","gake":"×","takashio":"×","jishin":"×","tsunami":"○","kaji":"×","naisui":"×","kazan":"×"}}
,{"type":"Feature","geometry":{"type":"Point","coordinates":[133.547,33.547]},"properties":{"Name":"潮江第三コミュニティ住宅","Jusho":"高知県高知市桟橋通３丁目32-26","kouzui":"×","gake":"×","takashio":"×","jishin":"×","tsunami":"○","kaji":"×","naisui":"×","kazan":"×"}}
,{"type":"Feature","geometry":{"type":"Point","coordinates":[133.548,33.547]},"properties":{"Name":"高知市上下水道局","Jusho":"高知県高知市桟橋通３丁目31-11","kouzui":"×","gake":"×","takashio":"×","jishin":"×","tsunami":"○","kaji":"×","naisui":"×","kazan":"×"}}
,{"type":"Feature","geometry":{"type":"Point","coordinates":[133.546,33.548]},"properties":{"Name":"高知工業高校","Jusho":"高知県高知市桟橋通２丁目11-６","kouzui":"×","gake":"×","takashio":"×","jishin":"×","tsunami":"○","kaji":"×","naisui":"×","kazan":"×"}}
,{"type":"Feature","geometry":{"type":"Point","coordinates":[133.541,33.555]},"properties":{"Name":"リヴィエール大高","Jusho":"高知県高知市梅ノ辻21-14","kouzui":"×","gake":"×","takashio":"×","jishin":"×","tsunami":"○","kaji":"×","naisui":"×","kazan":"×"}}
,{"type":"Feature","geometry":{"type":"Point","coordinates":[133.541,33.554]},"properties":{"Name":"ジョンマンマンション","Jusho":"高知県高知市天神町４-21","kouzui":"×","gake":"×","takashio":"×","jishin":"×","tsunami":"○","kaji":"×","naisui":"×","kazan":"×"}}
,{"type":"Feature","geometry":{"type":"Point","coordinates":[133.549,33.545]},"properties":{"Name":"セントラルディーボ桟橋店（立体駐車場）","Jusho":"高知県高知市桟橋通４丁目16-６","kouzui":"×","gake":"×","takashio":"×","jishin":"×","tsunami":"○","kaji":"×","naisui":"×","kazan":"×"}}
,{"type":"Feature","geometry":{"type":"Point","coordinates":[133.541,33.555]},"properties":{"Name":"エルミタージュ天神","Jusho":"高知県高知市天神町２-６","kouzui":"×","gake":"×","takashio":"×","jishin":"×","tsunami":"○","kaji":"×","naisui":"×","kazan":"×"}}
,{"type":"Feature","geometry":{"type":"Point","coordinates":[133.538,33.554]},"properties":{"Name":"クレアフジモト","Jusho":"高知県高知市天神町14-23","kouzui":"×","gake":"×","takashio":"×","jishin":"×","tsunami":"○","kaji":"×","naisui":"×","kazan":"×"}}
,{"type":"Feature","geometry":{"type":"Point","coordinates":[133.543,33.553]},"properties":{"Name":"パル・ボナール","Jusho":"高知県高知市梅ノ辻９-７","kouzui":"×","gake":"×","takashio":"×","jishin":"×","tsunami":"○","kaji":"×","naisui":"×","kazan":"×"}}
,{"type":"Feature","geometry":{"type":"Point","coordinates":[133.545,33.55]},"properties":{"Name":"セントヴィレッジ","Jusho":"高知県高知市桟橋通１丁目11-13","kouzui":"×","gake":"×","takashio":"×","jishin":"×","tsunami":"○","kaji":"×","naisui":"×","kazan":"×"}}
,{"type":"Feature","geometry":{"type":"Point","coordinates":[133.545,33.551]},"properties":{"Name":"カームリヴ","Jusho":"高知県高知市桟橋通１丁目13-12","kouzui":"×","gake":"×","takashio":"×","jishin":"×","tsunami":"○","kaji":"×","naisui":"×","kazan":"×"}}
,{"type":"Feature","geometry":{"type":"Point","coordinates":[133.545,33.551]},"properties":{"Name":"オリザビル","Jusho":"高知県高知市桟橋通１丁目12-17","kouzui":"×","gake":"×","takashio":"×","jishin":"×","tsunami":"○","kaji":"×","naisui":"×","kazan":"×"}}
,{"type":"Feature","geometry":{"type":"Point","coordinates":[133.544,33.554]},"properties":{"Name":"梅ノ辻クリニック","Jusho":"高知県高知市梅ノ辻８-７","kouzui":"×","gake":"×","takashio":"×","jishin":"×","tsunami":"○","kaji":"×","naisui":"×","kazan":"×"}}
,{"type":"Feature","geometry":{"type":"Point","coordinates":[133.548,33.547]},"properties":{"Name":"四国銀行　潮江支店","Jusho":"高知県高知市桟橋通３丁目31番３号","kouzui":"×","gake":"×","takashio":"×","jishin":"×","tsunami":"○","kaji":"×","naisui":"×","kazan":"×"}}
,{"type":"Feature","geometry":{"type":"Point","coordinates":[133.545,33.537]},"properties":{"Name":"高知河川国道事務所","Jusho":"高知県高知市六泉寺町９６-７","kouzui":"×","gake":"×","takashio":"×","jishin":"×","tsunami":"○","kaji":"×","naisui":"×","kazan":"×"}}
,{"type":"Feature","geometry":{"type":"Point","coordinates":[133.539,33.545]},"properties":{"Name":"（株）吉永室内工芸ビル","Jusho":"高知県高知市北竹島町428","kouzui":"×","gake":"×","takashio":"×","jishin":"×","tsunami":"○","kaji":"×","naisui":"×","kazan":"×"}}
,{"type":"Feature","geometry":{"type":"Point","coordinates":[133.541,33.539]},"properties":{"Name":"第２六泉寺ビル","Jusho":"高知県高知市六泉寺町221-１","kouzui":"×","gake":"×","takashio":"×","jishin":"×","tsunami":"○","kaji":"×","naisui":"×","kazan":"×"}}
,{"type":"Feature","geometry":{"type":"Point","coordinates":[133.548,33.539]},"properties":{"Name":"新高産業社屋","Jusho":"高知県高知市南竹島町53-３","kouzui":"×","gake":"×","takashio":"×","jishin":"×","tsunami":"○","kaji":"×","naisui":"×","kazan":"×"}}
,{"type":"Feature","geometry":{"type":"Point","coordinates":[133.548,33.543]},"properties":{"Name":"マルハン高知桟橋店（立体駐車場）","Jusho":"高知県高知市南ノ丸町３-１","kouzui":"×","gake":"×","takashio":"×","jishin":"×","tsunami":"○","kaji":"×","naisui":"×","kazan":"×"}}
,{"type":"Feature","geometry":{"type":"Point","coordinates":[133.548,33.542]},"properties":{"Name":"高知県トラック会館","Jusho":"高知県高知市南ノ丸町５-17","kouzui":"×","gake":"×","takashio":"×","jishin":"×","tsunami":"○","kaji":"×","naisui":"×","kazan":"×"}}
,{"type":"Feature","geometry":{"type":"Point","coordinates":[133.549,33.542]},"properties":{"Name":"（株）戸口商会","Jusho":"高知県高知市南ノ丸町41","kouzui":"×","gake":"×","takashio":"×","jishin":"×","tsunami":"○","kaji":"×","naisui":"×","kazan":"×"}}
,{"type":"Feature","geometry":{"type":"Point","coordinates":[133.547,33.542]},"properties":{"Name":"Balcony８南の丸","Jusho":"高知県高知市南ノ丸町15-２","kouzui":"×","gake":"×","takashio":"×","jishin":"×","tsunami":"○","kaji":"×","naisui":"×","kazan":"×"}}
,{"type":"Feature","geometry":{"type":"Point","coordinates":[133.565,33.566]},"properties":{"Name":"（財）四国電気保安協会","Jusho":"高知県高知市南久保５-８","kouzui":"×","gake":"×","takashio":"×","jishin":"×","tsunami":"○","kaji":"×","naisui":"×","kazan":"×"}}
,{"type":"Feature","geometry":{"type":"Point","coordinates":[133.56,33.569]},"properties":{"Name":"JA高知ビル","Jusho":"高知県高知市北御座２-27","kouzui":"×","gake":"×","takashio":"×","jishin":"×","tsunami":"○","kaji":"×","naisui":"×","kazan":"×"}}
,{"type":"Feature","geometry":{"type":"Point","coordinates":[133.566,33.556]},"properties":{"Name":"セントラルディーボ知寄店（立体駐車場）","Jusho":"高知県高知市青柳町35-１","kouzui":"×","gake":"×","takashio":"×","jishin":"×","tsunami":"○","kaji":"×","naisui":"×","kazan":"×"}}
,{"type":"Feature","geometry":{"type":"Point","coordinates":[133.554,33.558]},"properties":{"Name":"セントラル宝永店（立体駐車場）","Jusho":"高知県高知市中宝永町10-４","kouzui":"×","gake":"×","takashio":"×","jishin":"×","tsunami":"○","kaji":"×","naisui":"×","kazan":"×"}}
,{"type":"Feature","geometry":{"type":"Point","coordinates":[133.562,33.572]},"properties":{"Name":"San　Migel","Jusho":"高知県高知市南川添24","kouzui":"×","gake":"×","takashio":"×","jishin":"×","tsunami":"○","kaji":"×","naisui":"×","kazan":"×"}}
,{"type":"Feature","geometry":{"type":"Point","coordinates":[133.561,33.556]},"properties":{"Name":"高知土木事務所","Jusho":"高知県高知市稲荷町11-26","kouzui":"×","gake":"×","takashio":"×","jishin":"×","tsunami":"○","kaji":"×","naisui":"×","kazan":"×"}}
,{"type":"Feature","geometry":{"type":"Point","coordinates":[133.557,33.557]},"properties":{"Name":"下知コミュニティセンター","Jusho":"高知県高知市二葉町10-７","kouzui":"×","gake":"×","takashio":"×","jishin":"×","tsunami":"○","kaji":"×","naisui":"×","kazan":"×"}}
,{"type":"Feature","geometry":{"type":"Point","coordinates":[133.562,33.557]},"properties":{"Name":"セルヴィ２１知寄町","Jusho":"高知県高知市稲荷町170-１","kouzui":"×","gake":"×","takashio":"×","jishin":"×","tsunami":"○","kaji":"×","naisui":"×","kazan":"×"}}
,{"type":"Feature","geometry":{"type":"Point","coordinates":[133.561,33.557]},"properties":{"Name":"サーパス知寄町2","Jusho":"高知県高知市知寄町２丁目４-９","kouzui":"×","gake":"×","takashio":"×","jishin":"×","tsunami":"○","kaji":"×","naisui":"×","kazan":"×"}}
,{"type":"Feature","geometry":{"type":"Point","coordinates":[133.564,33.57]},"properties":{"Name":"有料老人ホームとも","Jusho":"高知県高知市北久保２-39","kouzui":"×","gake":"×","takashio":"×","jishin":"×","tsunami":"○","kaji":"×","naisui":"×","kazan":"×"}}
,{"type":"Feature","geometry":{"type":"Point","coordinates":[133.567,33.56]},"properties":{"Name":"アルファステイツ知寄2","Jusho":"高知県高知市小倉町４-３","kouzui":"×","gake":"×","takashio":"×","jishin":"×","tsunami":"○","kaji":"×","naisui":"×","kazan":"×"}}
,{"type":"Feature","geometry":{"type":"Point","coordinates":[133.561,33.557]},"properties":{"Name":"サーパス知寄町1","Jusho":"高知県高知市知寄町２丁目４-10","kouzui":"×","gake":"×","takashio":"×","jishin":"×","tsunami":"○","kaji":"×","naisui":"×","kazan":"×"}}
,{"type":"Feature","geometry":{"type":"Point","coordinates":[133.561,33.57]},"properties":{"Name":"Dcmダイキ御座店","Jusho":"高知県高知市北御座４-６","kouzui":"×","gake":"×","takashio":"×","jishin":"×","tsunami":"○","kaji":"×","naisui":"×","kazan":"×"}}
,{"type":"Feature","geometry":{"type":"Point","coordinates":[133.558,33.575]},"properties":{"Name":"高知県立弓道場","Jusho":"高知県高知市高埇12-1","kouzui":"×","gake":"×","takashio":"×","jishin":"×","tsunami":"○","kaji":"×","naisui":"×","kazan":"×"}}
,{"type":"Feature","geometry":{"type":"Point","coordinates":[133.563,33.554]},"properties":{"Name":"ロゼ２","Jusho":"高知県高知市青柳町62-1","kouzui":"×","gake":"×","takashio":"×","jishin":"×","tsunami":"○","kaji":"×","naisui":"×","kazan":"×"}}
,{"type":"Feature","geometry":{"type":"Point","coordinates":[133.565,33.557]},"properties":{"Name":"シャルム葛島","Jusho":"高知県高知市知寄町３丁目601-１","kouzui":"×","gake":"×","takashio":"×","jishin":"×","tsunami":"○","kaji":"×","naisui":"×","kazan":"×"}}
,{"type":"Feature","geometry":{"type":"Point","coordinates":[133.566,33.556]},"properties":{"Name":"アルファステイツ知寄3","Jusho":"高知県高知市青柳町45-１","kouzui":"×","gake":"×","takashio":"×","jishin":"×","tsunami":"○","kaji":"×","naisui":"×","kazan":"×"}}
,{"type":"Feature","geometry":{"type":"Point","coordinates":[133.563,33.559]},"properties":{"Name":"アルファステイツ東雲町2","Jusho":"高知県高知市東雲町８-55","kouzui":"×","gake":"×","takashio":"×","jishin":"×","tsunami":"○","kaji":"×","naisui":"×","kazan":"×"}}
,{"type":"Feature","geometry":{"type":"Point","coordinates":[133.555,33.557]},"properties":{"Name":"岡村ビル","Jusho":"高知県高知市二葉町７-10","kouzui":"×","gake":"×","takashio":"×","jishin":"×","tsunami":"○","kaji":"×","naisui":"×","kazan":"×"}}
,{"type":"Feature","geometry":{"type":"Point","coordinates":[133.561,33.559]},"properties":{"Name":"サーパス知寄","Jusho":"高知県高知市東雲町１-23","kouzui":"×","gake":"×","takashio":"×","jishin":"×","tsunami":"○","kaji":"×","naisui":"×","kazan":"×"}}
,{"type":"Feature","geometry":{"type":"Point","coordinates":[133.561,33.558]},"properties":{"Name":"パチンコタマイ（立体駐車場）","Jusho":"高知県高知市知寄町２丁目２-７","kouzui":"×","gake":"×","takashio":"×","jishin":"×","tsunami":"○","kaji":"×","naisui":"×","kazan":"×"}}
,{"type":"Feature","geometry":{"type":"Point","coordinates":[133.558,33.555]},"properties":{"Name":"マイセル2","Jusho":"高知県高知市若松町１-６","kouzui":"×","gake":"×","takashio":"×","jishin":"×","tsunami":"○","kaji":"×","naisui":"×","kazan":"×"}}
,{"type":"Feature","geometry":{"type":"Point","coordinates":[133.565,33.554]},"properties":{"Name":"サーパス青柳町","Jusho":"高知県高知市青柳町53-3","kouzui":"×","gake":"×","takashio":"×","jishin":"×","tsunami":"○","kaji":"×","naisui":"×","kazan":"×"}}
,{"type":"Feature","geometry":{"type":"Point","coordinates":[133.559,33.559]},"properties":{"Name":"ちより街テラス","Jusho":"高知県高知市知寄町２丁目1-37","kouzui":"×","gake":"×","takashio":"×","jishin":"×","tsunami":"○","kaji":"×","naisui":"×","kazan":"×"}}
,{"type":"Feature","geometry":{"type":"Point","coordinates":[133.556,33.556]},"properties":{"Name":"スカイパレス二葉","Jusho":"高知県高知市二葉町14-33","kouzui":"×","gake":"×","takashio":"×","jishin":"×","tsunami":"○","kaji":"×","naisui":"×","kazan":"×"}}
,{"type":"Feature","geometry":{"type":"Point","coordinates":[133.556,33.557]},"properties":{"Name":"ハイツ六泉3","Jusho":"高知県高知市二葉町13-３0","kouzui":"×","gake":"×","takashio":"×","jishin":"×","tsunami":"○","kaji":"×","naisui":"×","kazan":"×"}}
,{"type":"Feature","geometry":{"type":"Point","coordinates":[133.555,33.557]},"properties":{"Name":"町田ビル","Jusho":"高知県高知市二葉町15-1","kouzui":"×","gake":"×","takashio":"×","jishin":"×","tsunami":"○","kaji":"×","naisui":"×","kazan":"×"}}
,{"type":"Feature","geometry":{"type":"Point","coordinates":[133.553,33.562]},"properties":{"Name":"サーパスシティ桜井町","Jusho":"高知県高知市桜井町二丁目7-32","kouzui":"×","gake":"×","takashio":"×","jishin":"×","tsunami":"○","kaji":"×","naisui":"×","kazan":"×"}}
,{"type":"Feature","geometry":{"type":"Point","coordinates":[133.556,33.56]},"properties":{"Name":"四国開発（株）高知本社","Jusho":"高知県高知市日の出町2-12","kouzui":"×","gake":"×","takashio":"×","jishin":"×","tsunami":"○","kaji":"×","naisui":"×","kazan":"×"}}
,{"type":"Feature","geometry":{"type":"Point","coordinates":[133.558,33.574]},"properties":{"Name":"サーパス弥右衛門公園","Jusho":"高知県高知市北川添5-20","kouzui":"×","gake":"×","takashio":"×","jishin":"×","tsunami":"○","kaji":"×","naisui":"×","kazan":"×"}}
,{"type":"Feature","geometry":{"type":"Point","coordinates":[133.554,33.558]},"properties":{"Name":"株式会社ラウンドワン　高知店","Jusho":"高知県高知市南宝永町4-12","kouzui":"×","gake":"×","takashio":"×","jishin":"×","tsunami":"○","kaji":"×","naisui":"×","kazan":"×"}}
,{"type":"Feature","geometry":{"type":"Point","coordinates":[133.554,33.556]},"properties":{"Name":"ホテルベストプライス高知　新館","Jusho":"高知県高知市南宝永町16-12","kouzui":"×","gake":"×","takashio":"×","jishin":"×","tsunami":"○","kaji":"×","naisui":"×","kazan":"×"}}
,{"type":"Feature","geometry":{"type":"Point","coordinates":[133.563,33.558]},"properties":{"Name":"朝日プラザ知寄町パサージュ","Jusho":"高知県高知市知寄町３丁目216","kouzui":"×","gake":"×","takashio":"×","jishin":"×","tsunami":"○","kaji":"×","naisui":"×","kazan":"×"}}
,{"type":"Feature","geometry":{"type":"Point","coordinates":[133.533,33.562]},"properties":{"Name":"高知県庁北庁舎","Jusho":"高知県高知市丸ノ内２丁目４-１","kouzui":"×","gake":"×","takashio":"×","jishin":"×","tsunami":"○","kaji":"×","naisui":"×","kazan":"×"}}
,{"type":"Feature","geometry":{"type":"Point","coordinates":[133.533,33.563]},"properties":{"Name":"高知丸の内高等学校","Jusho":"高知県高知市丸ノ内２丁目２-40","kouzui":"×","gake":"×","takashio":"×","jishin":"×","tsunami":"○","kaji":"×","naisui":"×","kazan":"×"}}
,{"type":"Feature","geometry":{"type":"Point","coordinates":[133.54,33.562]},"properties":{"Name":"ウェルカムホテル高知","Jusho":"高知県高知市追手筋１丁目８-25","kouzui":"×","gake":"×","takashio":"×","jishin":"×","tsunami":"○","kaji":"×","naisui":"×","kazan":"×"}}
,{"type":"Feature","geometry":{"type":"Point","coordinates":[133.542,33.563]},"properties":{"Name":"高知パレスホテル　新館","Jusho":"高知県高知市廿代町１-18","kouzui":"×","gake":"×","takashio":"×","jishin":"×","tsunami":"○","kaji":"×","naisui":"×","kazan":"×"}}
,{"type":"Feature","geometry":{"type":"Point","coordinates":[133.541,33.563]},"properties":{"Name":"高知パレスホテル　禁煙館","Jusho":"高知県高知市廿代町４-１","kouzui":"×","gake":"×","takashio":"×","jishin":"×","tsunami":"○","kaji":"×","naisui":"×","kazan":"×"}}
,{"type":"Feature","geometry":{"type":"Point","coordinates":[133.531,33.56]},"properties":{"Name":"高知県庁本庁舎","Jusho":"高知県高知市丸ノ内１丁目２-20","kouzui":"×","gake":"×","takashio":"×","jishin":"×","tsunami":"○","kaji":"×","naisui":"×","kazan":"×"}}
,{"type":"Feature","geometry":{"type":"Point","coordinates":[133.534,33.56]},"properties":{"Name":"Apパーク高知（立体駐車場）","Jusho":"高知県高知市帯屋町２丁目５-11","kouzui":"×","gake":"×","takashio":"×","jishin":"×","tsunami":"○","kaji":"×","naisui":"×","kazan":"×"}}
,{"type":"Feature","geometry":{"type":"Point","coordinates":[133.549,33.558]},"properties":{"Name":"サウスブリーズホテル","Jusho":"高知県高知市農人町５-29","kouzui":"×","gake":"×","takashio":"×","jishin":"×","tsunami":"○","kaji":"×","naisui":"×","kazan":"×"}}
,{"type":"Feature","geometry":{"type":"Point","coordinates":[133.529,33.559]},"properties":{"Name":"高知地方裁判所","Jusho":"高知県高知市丸ノ内１丁目３-５","kouzui":"×","gake":"×","takashio":"×","jishin":"×","tsunami":"○","kaji":"×","naisui":"×","kazan":"×"}}
,{"type":"Feature","geometry":{"type":"Point","coordinates":[133.529,33.563]},"properties":{"Name":"Ｊ．ビルディング","Jusho":"高知県高知市丸ノ内２丁目８-17","kouzui":"×","gake":"×","takashio":"×","jishin":"×","tsunami":"○","kaji":"×","naisui":"×","kazan":"×"}}
,{"type":"Feature","geometry":{"type":"Point","coordinates":[133.544,33.563]},"properties":{"Name":"土佐塾本館","Jusho":"高知県高知市はりまや町３丁目７-８","kouzui":"×","gake":"×","takashio":"×","jishin":"×","tsunami":"○","kaji":"×","naisui":"×","kazan":"×"}}
,{"type":"Feature","geometry":{"type":"Point","coordinates":[133.549,33.561]},"properties":{"Name":"Ｌｂ-１","Jusho":"高知県高知市桜井町１丁目３-36","kouzui":"×","gake":"×","takashio":"×","jishin":"×","tsunami":"○","kaji":"×","naisui":"×","kazan":"×"}}
,{"type":"Feature","geometry":{"type":"Point","coordinates":[133.537,33.559]},"properties":{"Name":"伊予銀行高知支店","Jusho":"高知県高知市本町２丁目１-９","kouzui":"×","gake":"×","takashio":"×","jishin":"×","tsunami":"○","kaji":"×","naisui":"×","kazan":"×"}}
,{"type":"Feature","geometry":{"type":"Point","coordinates":[133.546,33.562]},"properties":{"Name":"ビ・ウェル播磨屋","Jusho":"高知県高知市はりまや町３丁目21-２","kouzui":"×","gake":"×","takashio":"×","jishin":"×","tsunami":"○","kaji":"×","naisui":"×","kazan":"×"}}
,{"type":"Feature","geometry":{"type":"Point","coordinates":[133.549,33.557]},"properties":{"Name":"ホテル日航高知旭ロイヤル","Jusho":"高知県高知市九反田９-15","kouzui":"×","gake":"×","takashio":"×","jishin":"×","tsunami":"○","kaji":"×","naisui":"×","kazan":"×"}}
,{"type":"Feature","geometry":{"type":"Point","coordinates":[133.536,33.562]},"properties":{"Name":"高知追手前高校","Jusho":"高知県高知市追手筋２丁目２-10","kouzui":"×","gake":"×","takashio":"×","jishin":"×","tsunami":"○","kaji":"×","naisui":"×","kazan":"×"}}
,{"type":"Feature","geometry":{"type":"Point","coordinates":[133.537,33.56]},"properties":{"Name":"帯屋町チェントロ","Jusho":"高知県高知市帯屋町2丁目2-9","kouzui":"×","gake":"×","takashio":"×","jishin":"×","tsunami":"○","kaji":"×","naisui":"×","kazan":"×"}}
,{"type":"Feature","geometry":{"type":"Point","coordinates":[133.537,33.56]},"properties":{"Name":"ピッコロビル","Jusho":"高知県高知市帯屋町2丁目2-13-3","kouzui":"×","gake":"×","takashio":"×","jishin":"×","tsunami":"○","kaji":"×","naisui":"×","kazan":"×"}}
,{"type":"Feature","geometry":{"type":"Point","coordinates":[133.552,33.556]},"properties":{"Name":"サーパス中の島 桜通り","Jusho":"高知県高知市中の島1-93","kouzui":"×","gake":"×","takashio":"×","jishin":"×","tsunami":"○","kaji":"×","naisui":"×","kazan":"×"}}
,{"type":"Feature","geometry":{"type":"Point","coordinates":[133.546,33.563]},"properties":{"Name":"北街ビル","Jusho":"高知県高知市はりまや町3丁目20-1","kouzui":"×","gake":"×","takashio":"×","jishin":"×","tsunami":"○","kaji":"×","naisui":"×","kazan":"×"}}
,{"type":"Feature","geometry":{"type":"Point","coordinates":[133.552,33.558]},"properties":{"Name":"サーパス城見","Jusho":"高知県高知市城見町9-12","kouzui":"×","gake":"×","takashio":"×","jishin":"×","tsunami":"○","kaji":"×","naisui":"×","kazan":"×"}}
,{"type":"Feature","geometry":{"type":"Point","coordinates":[133.544,33.563]},"properties":{"Name":"土佐塾予備校Seizo館","Jusho":"高知県高知市はりまや町３丁目７-18","kouzui":"×","gake":"×","takashio":"×","jishin":"×","tsunami":"○","kaji":"×","naisui":"×","kazan":"×"}}
,{"type":"Feature","geometry":{"type":"Point","coordinates":[133.549,33.561]},"properties":{"Name":"ビ・ウェル新堀","Jusho":"高知県高知市桜井町一丁目５-28","kouzui":"×","gake":"×","takashio":"×","jishin":"×","tsunami":"○","kaji":"×","naisui":"×","kazan":"×"}}
,{"type":"Feature","geometry":{"type":"Point","coordinates":[133.534,33.56]},"properties":{"Name":"高知県立高知城歴史博物館","Jusho":"高知県高知市追手筋２丁目7-5","kouzui":"×","gake":"×","takashio":"×","jishin":"×","tsunami":"○","kaji":"×","naisui":"×","kazan":"×"}}
,{"type":"Feature","geometry":{"type":"Point","coordinates":[133.543,33.559]},"properties":{"Name":"１２３＋Nはりまや橋店","Jusho":"高知県高知市南はりまや町１丁目8ー1","kouzui":"×","gake":"×","takashio":"×","jishin":"×","tsunami":"○","kaji":"×","naisui":"×","kazan":"×"}}
,{"type":"Feature","geometry":{"type":"Point","coordinates":[133.549,33.569]},"properties":{"Name":"比島町市営住宅","Jusho":"高知県高知市比島町２丁目２-１","kouzui":"×","gake":"×","takashio":"×","jishin":"×","tsunami":"○","kaji":"×","naisui":"×","kazan":"×"}}
,{"type":"Feature","geometry":{"type":"Point","coordinates":[133.552,33.568]},"properties":{"Name":"土佐国道事務所","Jusho":"高知県高知市江陽町２-２","kouzui":"×","gake":"×","takashio":"×","jishin":"×","tsunami":"○","kaji":"×","naisui":"×","kazan":"×"}}
,{"type":"Feature","geometry":{"type":"Point","coordinates":[133.545,33.567]},"properties":{"Name":"高知よさこい咲都合同庁舎","Jusho":"高知県高知市栄田町２丁目２-10","kouzui":"×","gake":"×","takashio":"×","jishin":"×","tsunami":"○","kaji":"×","naisui":"×","kazan":"×"}}
,{"type":"Feature","geometry":{"type":"Point","coordinates":[133.555,33.57]},"properties":{"Name":"ハピネス杉井流","Jusho":"高知県高知市杉井流６-10","kouzui":"×","gake":"×","takashio":"×","jishin":"×","tsunami":"○","kaji":"×","naisui":"×","kazan":"×"}}
,{"type":"Feature","geometry":{"type":"Point","coordinates":[133.547,33.566]},"properties":{"Name":"ホテル ロス・イン高知","Jusho":"高知県高知市北本町２丁目４-８","kouzui":"×","gake":"×","takashio":"×","jishin":"×","tsunami":"○","kaji":"×","naisui":"×","kazan":"×"}}
,{"type":"Feature","geometry":{"type":"Point","coordinates":[133.547,33.565]},"properties":{"Name":"高知龍馬ホテル","Jusho":"高知県高知市北本町２丁目３-４","kouzui":"×","gake":"×","takashio":"×","jishin":"×","tsunami":"○","kaji":"×","naisui":"×","kazan":"×"}}
,{"type":"Feature","geometry":{"type":"Point","coordinates":[133.544,33.566]},"properties":{"Name":"オリエントホテル高知 和風別館吉萬","Jusho":"高知県高知市北本町２丁目１-22","kouzui":"×","gake":"×","takashio":"×","jishin":"×","tsunami":"○","kaji":"×","naisui":"×","kazan":"×"}}
,{"type":"Feature","geometry":{"type":"Point","coordinates":[133.547,33.566]},"properties":{"Name":"高知さくらホテル","Jusho":"高知県高知市北本町２丁目３-11","kouzui":"×","gake":"×","takashio":"×","jishin":"×","tsunami":"○","kaji":"×","naisui":"×","kazan":"×"}}
,{"type":"Feature","geometry":{"type":"Point","coordinates":[133.554,33.568]},"properties":{"Name":"高知中央自動車学校","Jusho":"高知県高知市江陽町４-50","kouzui":"×","gake":"×","takashio":"×","jishin":"×","tsunami":"○","kaji":"×","naisui":"×","kazan":"×"}}
,{"type":"Feature","geometry":{"type":"Point","coordinates":[133.552,33.571]},"properties":{"Name":"ライオンズヒルズ高知","Jusho":"高知県高知市比島町２丁目10-45","kouzui":"×","gake":"×","takashio":"×","jishin":"×","tsunami":"○","kaji":"×","naisui":"×","kazan":"×"}}
,{"type":"Feature","geometry":{"type":"Point","coordinates":[133.553,33.565]},"properties":{"Name":"サーパス北本町第２","Jusho":"高知県高知市北本町４丁目２-33","kouzui":"×","gake":"×","takashio":"×","jishin":"×","tsunami":"○","kaji":"×","naisui":"×","kazan":"×"}}
,{"type":"Feature","geometry":{"type":"Point","coordinates":[133.547,33.572]},"properties":{"Name":"塩田町マンション","Jusho":"高知県高知市塩田町13-14","kouzui":"×","gake":"×","takashio":"×","jishin":"×","tsunami":"○","kaji":"×","naisui":"×","kazan":"×"}}
,{"type":"Feature","geometry":{"type":"Point","coordinates":[133.546,33.572]},"properties":{"Name":"コーポミライクリエイト","Jusho":"高知県高知市塩田町13-4","kouzui":"×","gake":"×","takashio":"×","jishin":"×","tsunami":"○","kaji":"×","naisui":"×","kazan":"×"}}
,{"type":"Feature","geometry":{"type":"Point","coordinates":[133.559,33.564]},"properties":{"Name":"高知ハーモニー・ホスピタル（入院棟）","Jusho":"高知県高知市南金田9-8","kouzui":"×","gake":"×","takashio":"×","jishin":"×","tsunami":"○","kaji":"×","naisui":"×","kazan":"×"}}
,{"type":"Feature","geometry":{"type":"Point","coordinates":[133.55,33.567]},"properties":{"Name":"サーパス北本町","Jusho":"高知県高知市比島町１丁目４-10","kouzui":"×","gake":"×","takashio":"×","jishin":"×","tsunami":"○","kaji":"×","naisui":"×","kazan":"×"}}
,{"type":"Feature","geometry":{"type":"Point","coordinates":[133.558,33.564]},"properties":{"Name":"サーパス南金田","Jusho":"高知県高知市南金田８-７","kouzui":"×","gake":"×","takashio":"×","jishin":"×","tsunami":"○","kaji":"×","naisui":"×","kazan":"×"}}
,{"type":"Feature","geometry":{"type":"Point","coordinates":[133.555,33.565]},"properties":{"Name":"高知労働総合庁舎","Jusho":"高知県高知市南金田1-39","kouzui":"×","gake":"×","takashio":"×","jishin":"×","tsunami":"○","kaji":"×","naisui":"×","kazan":"×"}}
,{"type":"Feature","geometry":{"type":"Point","coordinates":[133.573,33.574]},"properties":{"Name":"（有）マルキ南工場","Jusho":"高知県高知市布師田3962","kouzui":"×","gake":"×","takashio":"×","jishin":"×","tsunami":"○","kaji":"×","naisui":"×","kazan":"×"}}
,{"type":"Feature","geometry":{"type":"Point","coordinates":[133.563,33.58]},"properties":{"Name":"マルハン高知一宮店（立体駐車場）","Jusho":"高知県高知市一宮南町１丁目11-11","kouzui":"×","gake":"×","takashio":"×","jishin":"×","tsunami":"○","kaji":"×","naisui":"×","kazan":"×"}}
,{"type":"Feature","geometry":{"type":"Point","coordinates":[133.565,33.576]},"properties":{"Name":"サーパスシティ高知Ⅰ棟","Jusho":"高知県高知市一宮南町１丁目１-５","kouzui":"×","gake":"×","takashio":"×","jishin":"×","tsunami":"○","kaji":"×","naisui":"×","kazan":"×"}}
,{"type":"Feature","geometry":{"type":"Point","coordinates":[133.565,33.576]},"properties":{"Name":"サーパスシティ高知Ⅱ棟","Jusho":"高知県高知市一宮南町１丁目１-６","kouzui":"×","gake":"×","takashio":"×","jishin":"×","tsunami":"○","kaji":"×","naisui":"×","kazan":"×"}}
,{"type":"Feature","geometry":{"type":"Point","coordinates":[133.582,33.584]},"properties":{"Name":"高知東高校","Jusho":"高知県高知市一宮徳谷23-１","kouzui":"×","gake":"×","takashio":"×","jishin":"×","tsunami":"○","kaji":"×","naisui":"×","kazan":"×"}}
,{"type":"Feature","geometry":{"type":"Point","coordinates":[133.526,33.564]},"properties":{"Name":"高知小津高校","Jusho":"高知県高知市城北町１-14","kouzui":"×","gake":"×","takashio":"×","jishin":"×","tsunami":"○","kaji":"×","naisui":"×","kazan":"×"}}
,{"type":"Feature","geometry":{"type":"Point","coordinates":[133.523,33.567]},"properties":{"Name":"県営住宅八反町団地１号棟","Jusho":"高知県高知市八反町２-11-23","kouzui":"×","gake":"×","takashio":"×","jishin":"×","tsunami":"○","kaji":"×","naisui":"×","kazan":"×"}}
,{"type":"Feature","geometry":{"type":"Point","coordinates":[133.531,33.564]},"properties":{"Name":"ビ・ウェル高知城公園","Jusho":"高知県高知市小津町２-３","kouzui":"×","gake":"×","takashio":"×","jishin":"×","tsunami":"○","kaji":"×","naisui":"×","kazan":"×"}}
,{"type":"Feature","geometry":{"type":"Point","coordinates":[133.526,33.561]},"properties":{"Name":"サーパスシティ城西桜通り","Jusho":"高知県高知市桜馬場２-28","kouzui":"×","gake":"×","takashio":"×","jishin":"×","tsunami":"○","kaji":"×","naisui":"×","kazan":"×"}}
,{"type":"Feature","geometry":{"type":"Point","coordinates":[133.529,33.564]},"properties":{"Name":"生涯学習健康センター（キラヴィ）","Jusho":"高知県高知市小津町３番19号","kouzui":"×","gake":"×","takashio":"×","jishin":"×","tsunami":"○","kaji":"×","naisui":"×","kazan":"×"}}
,{"type":"Feature","geometry":{"type":"Point","coordinates":[133.509,33.554]},"properties":{"Name":"鏡川町市営住宅１号棟","Jusho":"高知県高知市鏡川町16","kouzui":"×","gake":"×","takashio":"×","jishin":"×","tsunami":"○","kaji":"×","naisui":"×","kazan":"×"}}
,{"type":"Feature","geometry":{"type":"Point","coordinates":[133.509,33.554]},"properties":{"Name":"鏡川町市営住宅２号棟","Jusho":"高知県高知市鏡川町16","kouzui":"×","gake":"×","takashio":"×","jishin":"×","tsunami":"○","kaji":"×","naisui":"×","kazan":"×"}}
,{"type":"Feature","geometry":{"type":"Point","coordinates":[133.526,33.55]},"properties":{"Name":"潮江市営住宅","Jusho":"高知県高知市小石木町204","kouzui":"×","gake":"×","takashio":"×","jishin":"×","tsunami":"○","kaji":"×","naisui":"×","kazan":"×"}}
,{"type":"Feature","geometry":{"type":"Point","coordinates":[133.531,33.559]},"properties":{"Name":"高知市役所第二庁舎","Jusho":"高知県高知市本町５丁目１-45","kouzui":"×","gake":"×","takashio":"×","jishin":"×","tsunami":"○","kaji":"×","naisui":"×","kazan":"×"}}
,{"type":"Feature","geometry":{"type":"Point","coordinates":[133.532,33.557]},"properties":{"Name":"高知市役所たかじょう庁舎","Jusho":"高知県高知市鷹匠町２丁目１-43","kouzui":"×","gake":"×","takashio":"×","jishin":"×","tsunami":"○","kaji":"×","naisui":"×","kazan":"×"}}
,{"type":"Feature","geometry":{"type":"Point","coordinates":[133.528,33.559]},"properties":{"Name":"高知県庁西庁舎","Jusho":"高知県高知市丸ノ内１丁目７-52","kouzui":"×","gake":"×","takashio":"×","jishin":"×","tsunami":"○","kaji":"×","naisui":"×","kazan":"×"}}
,{"type":"Feature","geometry":{"type":"Point","coordinates":[133.533,33.557]},"properties":{"Name":"県民文化ホール","Jusho":"高知県高知市本町４丁目３-30","kouzui":"×","gake":"×","takashio":"×","jishin":"×","tsunami":"○","kaji":"×","naisui":"×","kazan":"×"}}
,{"type":"Feature","geometry":{"type":"Point","coordinates":[133.533,33.559]},"properties":{"Name":"高知電気ビル","Jusho":"高知県高知市本町４丁目１-16","kouzui":"×","gake":"×","takashio":"×","jishin":"×","tsunami":"○","kaji":"×","naisui":"×","kazan":"×"}}
,{"type":"Feature","geometry":{"type":"Point","coordinates":[133.529,33.557]},"properties":{"Name":"オリエントホテル高知","Jusho":"高知県高知市升形５-37","kouzui":"×","gake":"×","takashio":"×","jishin":"×","tsunami":"○","kaji":"×","naisui":"×","kazan":"×"}}
,{"type":"Feature","geometry":{"type":"Point","coordinates":[133.532,33.558]},"properties":{"Name":"高知会館","Jusho":"高知県高知市本町５丁目６-42","kouzui":"×","gake":"×","takashio":"×","jishin":"×","tsunami":"○","kaji":"×","naisui":"×","kazan":"×"}}
,{"type":"Feature","geometry":{"type":"Point","coordinates":[133.534,33.558]},"properties":{"Name":"ザ　クラウンパレス新阪急高知","Jusho":"高知県高知市本町４丁目２-50","kouzui":"×","gake":"×","takashio":"×","jishin":"×","tsunami":"○","kaji":"×","naisui":"×","kazan":"×"}}
,{"type":"Feature","geometry":{"type":"Point","coordinates":[133.527,33.553]},"properties":{"Name":"杉本ビル大原町","Jusho":"高知県高知市大原町87-１","kouzui":"×","gake":"×","takashio":"×","jishin":"×","tsunami":"○","kaji":"×","naisui":"×","kazan":"×"}}
,{"type":"Feature","geometry":{"type":"Point","coordinates":[133.526,33.556]},"properties":{"Name":"アーバンシンフォニー美門","Jusho":"高知県高知市上町１丁目10-44","kouzui":"×","gake":"×","takashio":"×","jishin":"×","tsunami":"○","kaji":"×","naisui":"×","kazan":"×"}}
,{"type":"Feature","geometry":{"type":"Point","coordinates":[133.527,33.555]},"properties":{"Name":"ヤイロハイツ","Jusho":"高知県高知市上町１丁目11-43","kouzui":"×","gake":"×","takashio":"×","jishin":"×","tsunami":"○","kaji":"×","naisui":"×","kazan":"×"}}
,{"type":"Feature","geometry":{"type":"Point","coordinates":[133.528,33.559]},"properties":{"Name":"高知法務総合庁舎","Jusho":"高知県高知市丸の内1丁目4-1","kouzui":"×","gake":"×","takashio":"×","jishin":"×","tsunami":"○","kaji":"×","naisui":"×","kazan":"×"}}
,{"type":"Feature","geometry":{"type":"Point","coordinates":[133.534,33.557]},"properties":{"Name":"高知地方合同庁舎","Jusho":"高知県高知市本町４丁目3-41","kouzui":"×","gake":"×","takashio":"×","jishin":"×","tsunami":"○","kaji":"×","naisui":"×","kazan":"×"}}
,{"type":"Feature","geometry":{"type":"Point","coordinates":[133.533,33.559]},"properties":{"Name":"高知県自治会館","Jusho":"高知県高知市本町４丁目１-35","kouzui":"×","gake":"×","takashio":"×","jishin":"×","tsunami":"○","kaji":"×","naisui":"×","kazan":"×"}}
,{"type":"Feature","geometry":{"type":"Point","coordinates":[133.503,33.552]},"properties":{"Name":"鴨部市営住宅２号棟","Jusho":"高知県高知市鴨部１丁目13-２","kouzui":"×","gake":"×","takashio":"×","jishin":"×","tsunami":"○","kaji":"×","naisui":"×","kazan":"×"}}
,{"type":"Feature","geometry":{"type":"Point","coordinates":[133.502,33.55]},"properties":{"Name":"高知西高校","Jusho":"高知県高知市鴨部2丁目5-70","kouzui":"×","gake":"×","takashio":"×","jishin":"×","tsunami":"○","kaji":"×","naisui":"×","kazan":"×"}}
,{"type":"Feature","geometry":{"type":"Point","coordinates":[133.541,33.57]},"properties":{"Name":"昭和町コミュニティ住宅","Jusho":"高知県高知市昭和町８-18","kouzui":"×","gake":"×","takashio":"×","jishin":"×","tsunami":"○","kaji":"×","naisui":"×","kazan":"×"}}
,{"type":"Feature","geometry":{"type":"Point","coordinates":[133.54,33.568]},"properties":{"Name":"栄田町コミュニティ住宅1号棟","Jusho":"高知県高知市栄田町１丁目５-12","kouzui":"×","gake":"×","takashio":"×","jishin":"×","tsunami":"○","kaji":"×","naisui":"×","kazan":"×"}}
,{"type":"Feature","geometry":{"type":"Point","coordinates":[133.541,33.568]},"properties":{"Name":"栄田町コミュニティ住宅2号棟","Jusho":"高知県高知市栄田町１丁目６-20","kouzui":"×","gake":"×","takashio":"×","jishin":"×","tsunami":"○","kaji":"×","naisui":"×","kazan":"×"}}
,{"type":"Feature","geometry":{"type":"Point","coordinates":[133.533,33.565]},"properties":{"Name":"セントラル大川筋店（立体駐車場）","Jusho":"高知県高知市大川筋２丁目６-24","kouzui":"×","gake":"×","takashio":"×","jishin":"×","tsunami":"○","kaji":"×","naisui":"×","kazan":"×"}}
,{"type":"Feature","geometry":{"type":"Point","coordinates":[133.541,33.567]},"properties":{"Name":"高知中央郵便局","Jusho":"高知県高知市北本町１丁目10-18","kouzui":"×","gake":"×","takashio":"×","jishin":"×","tsunami":"○","kaji":"×","naisui":"×","kazan":"×"}}
,{"type":"Feature","geometry":{"type":"Point","coordinates":[133.532,33.571]},"properties":{"Name":"ビ・ウェル相模公園WEST","Jusho":"高知県高知市相模町17-14","kouzui":"×","gake":"×","takashio":"×","jishin":"×","tsunami":"○","kaji":"×","naisui":"×","kazan":"×"}}
,{"type":"Feature","geometry":{"type":"Point","coordinates":[133.536,33.567]},