var kochi={"type":"FeatureCollection","name":"kochi","features":[
{"type":"Feature","geometry":{"type":"Point","coordinates":[134.20531764005,33.393104192873]},"properties":{"Name":"佐喜浜防災コミュニティセンター","Jusho":"高知県室戸市佐喜浜町1334-2","kouzui":"○","gake":"×","takashio":"×","jishin":"○","tsunami":"○","kaji":"×","naisui":"×","kazan":"×"}}
,{"type":"Feature","geometry":{"type":"Point","coordinates":[134.2047060964,33.393243036439]},"properties":{"Name":"佐喜浜保育所","Jusho":"高知県室戸市佐喜浜町1336-3","kouzui":"○","gake":"×","takashio":"×","jishin":"○","tsunami":"○","kaji":"×","naisui":"×","kazan":"×"}}
,{"type":"Feature","geometry":{"type":"Point","coordinates":[134.20493362128,33.395237346928]},"properties":{"Name":"佐喜浜小学校","Jusho":"高知県室戸市佐喜浜町1700","kouzui":"○","gake":"○","takashio":"×","jishin":"○","tsunami":"×","kaji":"×","naisui":"×","kazan":"×"}}
,{"type":"Feature","geometry":{"type":"Point","coordinates":[134.21053790121,33.401353353426]},"properties":{"Name":"佐喜浜中学校","Jusho":"高知県室戸市佐喜浜町3848","kouzui":"○","gake":"○","takashio":"×","jishin":"○","tsunami":"×","kaji":"×","naisui":"×","kazan":"×"}}
,{"type":"Feature","geometry":{"type":"Point","coordinates":[134.20522719547,33.394687728186]},"properties":{"Name":"佐喜浜生活改善センター","Jusho":"高知県室戸市佐喜浜町1691-1","kouzui":"○","gake":"○","takashio":"×","jishin":"○","tsunami":"×","kaji":"×","naisui":"×","kazan":"×"}}
,{"type":"Feature","geometry":{"type":"Point","coordinates":[134.18558624237,33.298893312035]},"properties":{"Name":"三津防災コミュニティセンター","Jusho":"高知県室戸市室戸岬町1823","kouzui":"○","gake":"○","takashio":"×","jishin":"○","tsunami":"○","kaji":"×","naisui":"×","kazan":"×"}}
,{"type":"Feature","geometry":{"type":"Point","coordinates":[134.15684208255,33.286162844109]},"properties":{"Name":"室戸市中央公園相撲場","Jusho":"高知県室戸市室戸岬町6811","kouzui":"○","gake":"○","takashio":"×","jishin":"○","tsunami":"○","kaji":"×","naisui":"×","kazan":"×"}}
,{"type":"Feature","geometry":{"type":"Point","coordinates":[134.15958866459,33.286750289522]},"properties":{"Name":"県立室戸体育館","Jusho":"高知県室戸市室戸岬町6811","kouzui":"○","gake":"○","takashio":"×","jishin":"○","tsunami":"○","kaji":"×","naisui":"×","kazan":"×"}}
,{"type":"Feature","geometry":{"type":"Point","coordinates":[134.15272392921,33.293028130611]},"properties":{"Name":"大谷市民館","Jusho":"高知県室戸市浮津227","kouzui":"○","gake":"○","takashio":"×","jishin":"○","tsunami":"○","kaji":"×","naisui":"×","kazan":"×"}}
,{"type":"Feature","geometry":{"type":"Point","coordinates":[134.15260591201,33.293207489564]},"properties":{"Name":"大谷老人憩いの家","Jusho":"高知県室戸市浮津227","kouzui":"○","gake":"○","takashio":"×","jishin":"×","tsunami":"○","kaji":"×","naisui":"×","kazan":"×"}}
,{"type":"Feature","geometry":{"type":"Point","coordinates":[134.15270205995,33.295534132066]},"properties":{"Name":"大谷保育所","Jusho":"高知県室戸市浮津149-1","kouzui":"○","gake":"○","takashio":"×","jishin":"○","tsunami":"○","kaji":"×","naisui":"×","kazan":"×"}}
,{"type":"Feature","geometry":{"type":"Point","coordinates":[134.15320108163,33.293816280964]},"properties":{"Name":"大谷第一教育集会所","Jusho":"高知県室戸市浮津137-2","kouzui":"○","gake":"○","takashio":"×","jishin":"×","tsunami":"○","kaji":"×","naisui":"×","kazan":"×"}}
,{"type":"Feature","geometry":{"type":"Point","coordinates":[134.15583918233,33.292633739017]},"properties":{"Name":"大谷第二教育集会所","Jusho":"高知県室戸市室津2198-7","kouzui":"○","gake":"○","takashio":"×","jishin":"○","tsunami":"○","kaji":"×","naisui":"×","kazan":"×"}}
,{"type":"Feature","geometry":{"type":"Point","coordinates":[134.15549970709,33.291748298333]},"properties":{"Name":"室戸勤労者体育センター","Jusho":"高知県室戸市室津2186-1","kouzui":"○","gake":"×","takashio":"×","jishin":"○","tsunami":"○","kaji":"×","naisui":"×","kazan":"×"}}
,{"type":"Feature","geometry":{"type":"Point","coordinates":[134.12711816864,33.304808100723]},"properties":{"Name":"元防災コミュニティセンター","Jusho":"高知県室戸市元甲1679-1、1680-1","kouzui":"○","gake":"×","takashio":"×","jishin":"○","tsunami":"○","kaji":"×","naisui":"×","kazan":"×"}}
,{"type":"Feature","geometry":{"type":"Point","coordinates":[134.18633445827,33.299052271843]},"properties":{"Name":"世界ジオパークセンター","Jusho":"高知県室戸市室戸岬町1810-2","kouzui":"○","gake":"×","takashio":"×","jishin":"○","tsunami":"×","kaji":"×","naisui":"×","kazan":"×"}}
,{"type":"Feature","geometry":{"type":"Point","coordinates":[134.1850257821,33.282560189515]},"properties":{"Name":"（旧）三高小学校","Jusho":"高知県室戸市室戸岬町2953","kouzui":"○","gake":"×","takashio":"×","jishin":"○","tsunami":"×","kaji":"×","naisui":"×","kazan":"×"}}
,{"type":"Feature","geometry":{"type":"Point","coordinates":[134.18417408671,33.266476330863]},"properties":{"Name":"アクアファーム","Jusho":"高知県室戸市室戸岬町3507-1","kouzui":"○","gake":"×","takashio":"×","jishin":"○","tsunami":"×","kaji":"×","naisui":"×","kazan":"×"}}
,{"type":"Feature","geometry":{"type":"Point","coordinates":[134.1823853009,33.258758910463]},"properties":{"Name":"シレスト室戸","Jusho":"高知県室戸市室戸岬町3795-1","kouzui":"○","gake":"○","takashio":"×","jishin":"○","tsunami":"×","kaji":"×","naisui":"×","kazan":"×"}}
,{"type":"Feature","geometry":{"type":"Point","coordinates":[134.1685186194,33.262039787105]},"properties":{"Name":"（新）室戸岬小学校","Jusho":"高知県室戸市室戸岬町4414-1","kouzui":"○","gake":"×","takashio":"×","jishin":"○","tsunami":"×","kaji":"×","naisui":"×","kazan":"×"}}
,{"type":"Feature","geometry":{"type":"Point","coordinates":[134.16313427137,33.268903035033]},"properties":{"Name":"室戸岬公民館","Jusho":"高知県室戸市室戸岬町5390-1","kouzui":"○","gake":"×","takashio":"×","jishin":"○","tsunami":"×","kaji":"×","naisui":"×","kazan":"×"}}
,{"type":"Feature","geometry":{"type":"Point","coordinates":[134.15135263142,33.291377595426]},"properties":{"Name":"室戸小学校","Jusho":"高知県室戸市浮津115","kouzui":"○","gake":"○","takashio":"×","jishin":"○","tsunami":"×","kaji":"×","naisui":"×","kazan":"×"}}
,{"type":"Feature","geometry":{"type":"Point","coordinates":[134.15757629328,33.291067375264]},"properties":{"Name":"室戸市保健福祉センター","Jusho":"高知県室戸市領家87","kouzui":"○","gake":"○","takashio":"×","jishin":"○","tsunami":"×","kaji":"×","naisui":"×","kazan":"×"}}
,{"type":"Feature","geometry":{"type":"Point","coordinates":[134.12349008398,33.301744243085]},"properties":{"Name":"元小学校","Jusho":"高知県室戸市元甲1854","kouzui":"○","gake":"×","takashio":"×","jishin":"○","tsunami":"×","kaji":"×","naisui":"×","kazan":"×"}}
,{"type":"Feature","geometry":{"type":"Point","coordinates":[134.11019092295,33.306453177849]},"properties":{"Name":"キラメッセ室戸","Jusho":"高知県室戸市吉良川町丙890-11","kouzui":"○","gake":"○","takashio":"×","jishin":"○","tsunami":"×","kaji":"×","naisui":"×","kazan":"×"}}
,{"type":"Feature","geometry":{"type":"Point","coordinates":[134.09927921969,33.334144559373]},"properties":{"Name":"吉良川小学校","Jusho":"高知県室戸市吉良川町甲2771","kouzui":"○","gake":"○","takashio":"×","jishin":"○","tsunami":"○","kaji":"×","naisui":"×","kazan":"×"}}
,{"type":"Feature","geometry":{"type":"Point","coordinates":[134.10009757593,33.332708303948]},"properties":{"Name":"吉良川公民館","Jusho":"高知県室戸市吉良川町甲2393","kouzui":"○","gake":"○","takashio":"×","jishin":"×","tsunami":"○","kaji":"×","naisui":"×","kazan":"×"}}
,{"type":"Feature","geometry":{"type":"Point","coordinates":[134.09974127872,33.333213098402]},"properties":{"Name":"吉良川防災コミュニティセンター","Jusho":"高知県室戸市吉良川町甲2744-1","kouzui":"○","gake":"○","takashio":"×","jishin":"○","tsunami":"○","kaji":"×","naisui":"×","kazan":"×"}}
,{"type":"Feature","geometry":{"type":"Point","coordinates":[134.10099759262,33.334155935384]},"properties":{"Name":"吉良川保育所","Jusho":"高知県室戸市吉良川町甲3039","kouzui":"○","gake":"×","takashio":"×","jishin":"○","tsunami":"○","kaji":"×","naisui":"×","kazan":"×"}}
,{"type":"Feature","geometry":{"type":"Point","coordinates":[134.09614029913,33.337425569454]},"properties":{"Name":"吉良川中学校","Jusho":"高知県室戸市吉良川町乙2000","kouzui":"○","gake":"○","takashio":"×","jishin":"○","tsunami":"×","kaji":"×","naisui":"×","kazan":"×"}}
,{"type":"Feature","geometry":{"type":"Point","coordinates":[134.08458000858,33.337412005733]},"properties":{"Name":"吉良川市民館","Jusho":"高知県室戸市吉良川町乙5429","kouzui":"○","gake":"×","takashio":"×","jishin":"○","tsunami":"×","kaji":"×","naisui":"×","kazan":"×"}}
,{"type":"Feature","geometry":{"type":"Point","coordinates":[134.08507353504,33.336771120844]},"properties":{"Name":"吉良川教育集会所","Jusho":"高知県室戸市吉良川町乙5429-151","kouzui":"○","gake":"×","takashio":"×","jishin":"×","tsunami":"×","kaji":"×","naisui":"×","kazan":"×"}}
,{"type":"Feature","geometry":{"type":"Point","coordinates":[134.13833137646,33.364063723011]},"properties":{"Name":"（旧）日南小学校","Jusho":"高知県室戸市吉良川町甲1112","kouzui":"○","gake":"○","takashio":"×","jishin":"×","tsunami":"○","kaji":"×","naisui":"×","kazan":"×"}}
,{"type":"Feature","geometry":{"type":"Point","coordinates":[134.05993525106,33.372408806307]},"properties":{"Name":"羽根中学校","Jusho":"高知県室戸市羽根町乙774","kouzui":"○","gake":"○","takashio":"×","jishin":"○","tsunami":"○","kaji":"×","naisui":"×","kazan":"×"}}
,{"type":"Feature","geometry":{"type":"Point","coordinates":[134.05330245453,33.375705603595]},"properties":{"Name":"上段教育集会所","Jusho":"高知県室戸市羽根町乙2760","kouzui":"○","gake":"○","takashio":"×","jishin":"○","tsunami":"○","kaji":"×","naisui":"×","kazan":"×"}}
,{"type":"Feature","geometry":{"type":"Point","coordinates":[134.05323704316,33.375587616451]},"properties":{"Name":"上段老人憩いの家","Jusho":"高知県室戸市羽根町乙2755","kouzui":"○","gake":"○","takashio":"×","jishin":"○","tsunami":"○","kaji":"×","naisui":"×","kazan":"×"}}
,{"type":"Feature","geometry":{"type":"Point","coordinates":[134.08588162603,33.392436399954]},"properties":{"Name":"中川内小・中学校","Jusho":"高知県室戸市羽根町甲1993-1","kouzui":"○","gake":"○","takashio":"×","jishin":"○","tsunami":"○","kaji":"×","naisui":"×","kazan":"×"}}
,{"type":"Feature","geometry":{"type":"Point","coordinates":[134.05614901759,33.367800027762]},"properties":{"Name":"羽根小学校","Jusho":"高知県室戸市羽根町乙3793-3","kouzui":"○","gake":"○","takashio":"×","jishin":"○","tsunami":"×","kaji":"×","naisui":"×","kazan":"×"}}
,{"type":"Feature","geometry":{"type":"Point","coordinates":[134.06026860384,33.365302079014]},"properties":{"Name":"羽根公民館","Jusho":"高知県室戸市羽根町乙1237","kouzui":"○","gake":"○","takashio":"×","jishin":"○","tsunami":"×","kaji":"×","naisui":"×","kazan":"×"}}
,{"type":"Feature","geometry":{"type":"Point","coordinates":[134.04924397085,33.373625904101]},"properties":{"Name":"羽根市民館・児童館","Jusho":"高知県室戸市羽根町乙3021-18地先","kouzui":"○","gake":"○","takashio":"×","jishin":"○","tsunami":"×","kaji":"×","naisui":"×","kazan":"×"}}
,{"type":"Feature","geometry":{"type":"Point","coordinates":[133.9123531,33.4996114]},"properties":{"Name":"港町1丁目津波避難タワー","Jusho":"高知県安芸市港町1丁目674-10","kouzui":"×","gake":"×","takashio":"×","jishin":"○","tsunami":"○","kaji":"×","naisui":"×","kazan":"×"}}
,{"type":"Feature","geometry":{"type":"Point","coordinates":[133.9123316,33.49785783]},"properties":{"Name":"港町集会所","Jusho":"高知県安芸市港町1丁目737-12","kouzui":"×","gake":"○","takashio":"○","jishin":"○","tsunami":"×","kaji":"×","naisui":"×","kazan":"×"}}
,{"type":"Feature","geometry":{"type":"Point","coordinates":[133.9133203,33.50086322]},"properties":{"Name":"高知高須病院附属安芸診療所","Jusho":"高知県安芸市港町2丁目635","kouzui":"×","gake":"×","takashio":"×","jishin":"○","tsunami":"○","kaji":"×","naisui":"×","kazan":"×"}}
,{"type":"Feature","geometry":{"type":"Point","coordinates":[133.9077921,33.50319088]},"properties":{"Name":"ＥＡＳＴマリンクリニック","Jusho":"高知県安芸市矢ノ丸3丁目1-25","kouzui":"×","gake":"×","takashio":"×","jishin":"○","tsunami":"○","kaji":"×","naisui":"×","kazan":"×"}}
,{"type":"Feature","geometry":{"type":"Point","coordinates":[133.9108928,33.50300301]},"properties":{"Name":"オーシャンプラザ","Jusho":"高知県安芸市矢ノ丸3丁目12-30","kouzui":"×","gake":"×","takashio":"×","jishin":"○","tsunami":"○","kaji":"×","naisui":"×","kazan":"×"}}
,{"type":"Feature","geometry":{"type":"Point","coordinates":[133.9064169,33.50350167]},"properties":{"Name":"ハイ・スリーマンション","Jusho":"高知県安芸市矢ノ丸4丁目1-14","kouzui":"×","gake":"×","takashio":"×","jishin":"○","tsunami":"○","kaji":"×","naisui":"×","kazan":"×"}}
,{"type":"Feature","geometry":{"type":"Point","coordinates":[133.9085983,33.50199183]},"properties":{"Name":"ホテルタマイ","Jusho":"高知県安芸市矢ノ丸1丁目6-31","kouzui":"×","gake":"×","takashio":"×","jishin":"○","tsunami":"○","kaji":"×","naisui":"×","kazan":"×"}}
,{"type":"Feature","geometry":{"type":"Point","coordinates":[133.9113112,33.50313273]},"properties":{"Name":"安芸市女性の家","Jusho":"高知県安芸市矢ノ丸3丁目12-27","kouzui":"○","gake":"○","takashio":"○","jishin":"○","tsunami":"×","kaji":"×","naisui":"×","kazan":"×"}}
,{"type":"Feature","geometry":{"type":"Point","coordinates":[133.9115868,33.50352628]},"properties":{"Name":"安芸市体育館","Jusho":"高知県安芸市矢ノ丸3丁目11","kouzui":"○","gake":"○","takashio":"○","jishin":"○","tsunami":"×","kaji":"×","naisui":"×","kazan":"×"}}
,{"type":"Feature","geometry":{"type":"Point","coordinates":[133.9073105,33.50143081]},"properties":{"Name":"橋之元公園","Jusho":"高知県安芸市矢ノ丸1丁目7","kouzui":"×","gake":"○","takashio":"○","jishin":"○","tsunami":"×","kaji":"○","naisui":"×","kazan":"×"}}
,{"type":"Feature","geometry":{"type":"Point","coordinates":[133.9029972,33.50359417]},"properties":{"Name":"江ノ川上公園","Jusho":"高知県安芸市矢ノ丸2丁目5","kouzui":"×","gake":"○","takashio":"○","jishin":"○","tsunami":"×","kaji":"○","naisui":"×","kazan":"×"}}
,{"type":"Feature","geometry":{"type":"Point","coordinates":[133.9117558,33.50329368]},"properties":{"Name":"港町2丁目津波避難タワー","Jusho":"高知県安芸市矢ノ丸3丁目11","kouzui":"×","gake":"×","takashio":"×","jishin":"○","tsunami":"○","kaji":"×","naisui":"×","kazan":"×"}}
,{"type":"Feature","geometry":{"type":"Point","coordinates":[133.9077265,33.50252862]},"properties":{"Name":"高知県安芸総合庁舎","Jusho":"高知県安芸市矢ノ丸1丁目4-36","kouzui":"×","gake":"×","takashio":"×","jishin":"○","tsunami":"○","kaji":"×","naisui":"×","kazan":"×"}}
,{"type":"Feature","geometry":{"type":"Point","coordinates":[133.9102705,33.50311707]},"properties":{"Name":"川向集会所","Jusho":"高知県安芸市矢ノ丸3丁目9-24","kouzui":"○","gake":"○","takashio":"○","jishin":"○","tsunami":"×","kaji":"×","naisui":"×","kazan":"×"}}
,{"type":"Feature","geometry":{"type":"Point","coordinates":[133.9115003,33.50207048]},"properties":{"Name":"朝霧公園","Jusho":"高知県安芸市矢ノ丸1丁目11","kouzui":"×","gake":"○","takashio":"○","jishin":"○","tsunami":"×","kaji":"○","naisui":"×","kazan":"×"}}
,{"type":"Feature","geometry":{"type":"Point","coordinates":[133.9112415,33.50249307]},"properties":{"Name":"矢ノ丸保育所園庭","Jusho":"高知県安芸市矢ノ丸3丁目13-21","kouzui":"×","gake":"○","takashio":"○","jishin":"○","tsunami":"×","kaji":"○","naisui":"×","kazan":"×"}}
,{"type":"Feature","geometry":{"type":"Point","coordinates":[133.9069207,33.5004955]},"properties":{"Name":"アビテーションアキ","Jusho":"高知県安芸市本町1丁目2-14","kouzui":"×","gake":"×","takashio":"×","jishin":"○","tsunami":"○","kaji":"×","naisui":"×","kazan":"×"}}
,{"type":"Feature","geometry":{"type":"Point","coordinates":[133.9065891,33.49982815]},"properties":{"Name":"サカモトマンション（A City Stage １）","Jusho":"高知県安芸市本町2丁目5-13","kouzui":"×","gake":"×","takashio":"×","jishin":"○","tsunami":"○","kaji":"×","naisui":"×","kazan":"×"}}
,{"type":"Feature","geometry":{"type":"Point","coordinates":[133.8922422,33.50214822]},"properties":{"Name":"安芸市民館別館","Jusho":"高知県安芸市本町5丁目17-2","kouzui":"○","gake":"○","takashio":"○","jishin":"○","tsunami":"×","kaji":"×","naisui":"×","kazan":"×"}}
,{"type":"Feature","geometry":{"type":"Point","coordinates":[133.9084935,33.49870534]},"properties":{"Name":"森澤病院","Jusho":"高知県安芸市本町2丁目13-32","kouzui":"×","gake":"×","takashio":"×","jishin":"○","tsunami":"○","kaji":"×","naisui":"×","kazan":"×"}}
,{"type":"Feature","geometry":{"type":"Point","coordinates":[133.8944899,33.50129831]},"properties":{"Name":"本町5丁目・千歳町津波避難タワー","Jusho":"高知県安芸市本町5丁目2200-1","kouzui":"×","gake":"×","takashio":"×","jishin":"○","tsunami":"○","kaji":"×","naisui":"×","kazan":"×"}}
,{"type":"Feature","geometry":{"type":"Point","coordinates":[133.9064126,33.50489708]},"properties":{"Name":"土佐くろしお鉄道安芸事業本部","Jusho":"高知県安芸市東浜300-4","kouzui":"×","gake":"×","takashio":"×","jishin":"○","tsunami":"○","kaji":"×","naisui":"×","kazan":"×"}}
,{"type":"Feature","geometry":{"type":"Point","coordinates":[133.9060746,33.50727224]},"properties":{"Name":"柳田集会所","Jusho":"高知県安芸市東浜202-4","kouzui":"○","gake":"○","takashio":"○","jishin":"○","tsunami":"×","kaji":"×","naisui":"×","kazan":"×"}}
,{"type":"Feature","geometry":{"type":"Point","coordinates":[133.9080421,33.49741131]},"properties":{"Name":"ひのでの館（屋上）","Jusho":"高知県安芸市日ノ出町7","kouzui":"×","gake":"×","takashio":"×","jishin":"○","tsunami":"○","kaji":"×","naisui":"×","kazan":"×"}}
,{"type":"Feature","geometry":{"type":"Point","coordinates":[133.9094559,33.49689932]},"properties":{"Name":"日ノ出集会所","Jusho":"高知県安芸市日ノ出町9-24","kouzui":"○","gake":"○","takashio":"○","jishin":"○","tsunami":"×","kaji":"×","naisui":"×","kazan":"×"}}
,{"type":"Feature","geometry":{"type":"Point","coordinates":[133.9037741,33.50196088]},"properties":{"Name":"クレール久世","Jusho":"高知県安芸市久世町6-15","kouzui":"×","gake":"×","takashio":"×","jishin":"○","tsunami":"○","kaji":"×","naisui":"×","kazan":"×"}}
,{"type":"Feature","geometry":{"type":"Point","coordinates":[133.9026958,33.50110649]},"properties":{"Name":"すまいるあき","Jusho":"高知県安芸市久世町9-20","kouzui":"×","gake":"×","takashio":"×","jishin":"○","tsunami":"○","kaji":"×","naisui":"×","kazan":"×"}}
,{"type":"Feature","geometry":{"type":"Point","coordinates":[133.9037204,33.50077994]},"properties":{"Name":"安芸第一小学校（クラブハウス）","Jusho":"高知県安芸市久世町4-13","kouzui":"○","gake":"○","takashio":"○","jishin":"○","tsunami":"×","kaji":"×","naisui":"×","kazan":"×"}}
,{"type":"Feature","geometry":{"type":"Point","coordinates":[133.9040369,33.50109307]},"properties":{"Name":"安芸第一小学校（屋上)","Jusho":"高知県安芸市久世町4-13","kouzui":"○","gake":"○","takashio":"○","jishin":"○","tsunami":"○","kaji":"×","naisui":"×","kazan":"×"}}
,{"type":"Feature","geometry":{"type":"Point","coordinates":[133.9041711,33.50091861]},"properties":{"Name":"安芸第一小学校（校庭）","Jusho":"高知県安芸市久世町4-13","kouzui":"○","gake":"○","takashio":"○","jishin":"○","tsunami":"×","kaji":"○","naisui":"×","kazan":"×"}}
,{"type":"Feature","geometry":{"type":"Point","coordinates":[133.9034737,33.50101703]},"properties":{"Name":"安芸第一小学校（西体育館）","Jusho":"高知県安芸市久世町4-13","kouzui":"○","gake":"○","takashio":"○","jishin":"○","tsunami":"×","kaji":"×","naisui":"×","kazan":"×"}}
,{"type":"Feature","geometry":{"type":"Point","coordinates":[133.905024,33.50143751]},"properties":{"Name":"高知銀行安芸社宅","Jusho":"高知県安芸市久世町1-12","kouzui":"×","gake":"×","takashio":"×","jishin":"○","tsunami":"○","kaji":"×","naisui":"×","kazan":"×"}}
,{"type":"Feature","geometry":{"type":"Point","coordinates":[133.8992537,33.50438538]},"properties":{"Name":"マリベール幸町ガーデン","Jusho":"高知県安芸市幸町3-7","kouzui":"×","gake":"×","takashio":"×","jishin":"○","tsunami":"○","kaji":"×","naisui":"×","kazan":"×"}}
,{"type":"Feature","geometry":{"type":"Point","coordinates":[133.8997987,33.50556335]},"properties":{"Name":"ピースハウスM","Jusho":"高知県安芸市宝永町472-1","kouzui":"×","gake":"×","takashio":"×","jishin":"○","tsunami":"○","kaji":"×","naisui":"×","kazan":"×"}}
,{"type":"Feature","geometry":{"type":"Point","coordinates":[133.8988063,33.50581384]},"properties":{"Name":"宝永集会所","Jusho":"高知県安芸市宝永町7-41","kouzui":"○","gake":"○","takashio":"○","jishin":"○","tsunami":"×","kaji":"×","naisui":"×","kazan":"×"}}
,{"type":"Feature","geometry":{"type":"Point","coordinates":[133.8976241,33.50304802]},"properties":{"Name":"安芸警察署待機宿舎","Jusho":"高知県安芸市染井町1-38","kouzui":"×","gake":"×","takashio":"×","jishin":"○","tsunami":"○","kaji":"×","naisui":"×","kazan":"×"}}
,{"type":"Feature","geometry":{"type":"Point","coordinates":[133.8921739,33.5023502]},"properties":{"Name":"安芸市民館本館","Jusho":"高知県安芸市染井町8-31","kouzui":"○","gake":"○","takashio":"○","jishin":"○","tsunami":"×","kaji":"×","naisui":"×","kazan":"×"}}
,{"type":"Feature","geometry":{"type":"Point","coordinates":[133.8974846,33.50254702]},"properties":{"Name":"染井集会所","Jusho":"高知県安芸市染井町2-4","kouzui":"○","gake":"○","takashio":"○","jishin":"○","tsunami":"×","kaji":"×","naisui":"×","kazan":"×"}}
,{"type":"Feature","geometry":{"type":"Point","coordinates":[133.9037723,33.49888708]},"properties":{"Name":"NTT西日本安芸電話交換所","Jusho":"高知県安芸市寿町3-32","kouzui":"×","gake":"×","takashio":"×","jishin":"○","tsunami":"○","kaji":"×","naisui":"×","kazan":"×"}}
,{"type":"Feature","geometry":{"type":"Point","coordinates":[133.9007748,33.49962928]},"properties":{"Name":"県立安芸中・高等学校（北舎屋上）","Jusho":"高知県安芸市清和町1-54","kouzui":"×","gake":"×","takashio":"×","jishin":"○","tsunami":"○","kaji":"×","naisui":"×","kazan":"×"}}
,{"type":"Feature","geometry":{"type":"Point","coordinates":[133.8977627,33.50009898]},"properties":{"Name":"清和集会所","Jusho":"高知県安芸市清和町4-19","kouzui":"○","gake":"○","takashio":"○","jishin":"○","tsunami":"×","kaji":"×","naisui":"×","kazan":"×"}}
,{"type":"Feature","geometry":{"type":"Point","coordinates":[133.8981259,33.50031694]},"properties":{"Name":"清和団地A棟","Jusho":"高知県安芸市清和町3","kouzui":"×","gake":"×","takashio":"×","jishin":"○","tsunami":"○","kaji":"×","naisui":"×","kazan":"×"}}
,{"type":"Feature","geometry":{"type":"Point","coordinates":[133.894766,33.50101099]},"properties":{"Name":"千歳集会所","Jusho":"高知県安芸市千歳町8-22","kouzui":"○","gake":"○","takashio":"○","jishin":"○","tsunami":"×","kaji":"×","naisui":"×","kazan":"×"}}
,{"type":"Feature","geometry":{"type":"Point","coordinates":[133.8851961,33.50302387]},"properties":{"Name":"津久茂公民館","Jusho":"高知県安芸市津久茂町11-21","kouzui":"○","gake":"×","takashio":"○","jishin":"○","tsunami":"×","kaji":"×","naisui":"×","kazan":"×"}}
,{"type":"Feature","geometry":{"type":"Point","coordinates":[133.9046006,33.50933276]},"properties":{"Name":"安芸市防災センター","Jusho":"高知県安芸市西浜190-1","kouzui":"○","gake":"○","takashio":"○","jishin":"○","tsunami":"○","kaji":"○","naisui":"×","kazan":"×"}}
,{"type":"Feature","geometry":{"type":"Point","coordinates":[133.9029966,33.50660876]},"properties":{"Name":"安芸中学校（屋上）","Jusho":"高知県安芸市西浜95-1","kouzui":"○","gake":"○","takashio":"○","jishin":"○","tsunami":"○","kaji":"×","naisui":"×","kazan":"×"}}
,{"type":"Feature","geometry":{"type":"Point","coordinates":[133.9026587,33.50587967]},"properties":{"Name":"安芸中学校（校庭）","Jusho":"高知県安芸市西浜95-1","kouzui":"×","gake":"○","takashio":"○","jishin":"×","tsunami":"×","kaji":"○","naisui":"×","kazan":"×"}}
,{"type":"Feature","geometry":{"type":"Point","coordinates":[133.9022188,33.50642537]},"properties":{"Name":"安芸中学校（体育館）","Jusho":"高知県安芸市西浜95-1","kouzui":"×","gake":"○","takashio":"○","jishin":"○","tsunami":"×","kaji":"×","naisui":"×","kazan":"×"}}
,{"type":"Feature","geometry":{"type":"Point","coordinates":[133.8819666,33.50587509]},"properties":{"Name":"馬ノ丁集会所","Jusho":"高知県安芸市西浜3718","kouzui":"○","gake":"×","takashio":"○","jishin":"○","tsunami":"○","kaji":"×","naisui":"×","kazan":"×"}}
,{"type":"Feature","geometry":{"type":"Point","coordinates":[133.8937649,33.51733187]},"properties":{"Name":"ニッポン高度紙工業","Jusho":"高知県安芸市植野1","kouzui":"×","gake":"×","takashio":"×","jishin":"○","tsunami":"○","kaji":"×","naisui":"×","kazan":"×"}}
,{"type":"Feature","geometry":{"type":"Point","coordinates":[133.8983898,33.51052109]},"properties":{"Name":"黒鳥公民館","Jusho":"高知県安芸市黒鳥976","kouzui":"○","gake":"○","takashio":"○","jishin":"○","tsunami":"○","kaji":"×","naisui":"×","kazan":"×"}}
,{"type":"Feature","geometry":{"type":"Point","coordinates":[133.8917288,33.50445961]},"properties":{"Name":"安芸市総合運動場","Jusho":"高知県安芸市桜ヶ丘町","kouzui":"○","gake":"○","takashio":"○","jishin":"○","tsunami":"○","kaji":"○","naisui":"×","kazan":"×"}}
,{"type":"Feature","geometry":{"type":"Point","coordinates":[133.8913774,33.50269943]},"properties":{"Name":"球場前駅ホーム","Jusho":"高知県安芸市桜ヶ丘町2250","kouzui":"×","gake":"×","takashio":"×","jishin":"○","tsunami":"○","kaji":"×","naisui":"×","kazan":"×"}}
,{"type":"Feature","geometry":{"type":"Point","coordinates":[133.9478988,33.45825549]},"properties":{"Name":"下山駅ホーム","Jusho":"高知県安芸市下山386","kouzui":"×","gake":"×","takashio":"×","jishin":"○","tsunami":"○","kaji":"×","naisui":"×","kazan":"×"}}
,{"type":"Feature","geometry":{"type":"Point","coordinates":[133.9465165,33.45776626]},"properties":{"Name":"下山公民館","Jusho":"高知県安芸市下山410-2","kouzui":"○","gake":"○","takashio":"○","jishin":"○","tsunami":"×","kaji":"×","naisui":"×","kazan":"×"}}
,{"type":"Feature","geometry":{"type":"Point","coordinates":[133.950588,33.45069022]},"properties":{"Name":"下山集会所","Jusho":"高知県安芸市下山2449-1","kouzui":"○","gake":"○","takashio":"×","jishin":"○","tsunami":"×","kaji":"×","naisui":"×","kazan":"×"}}
,{"type":"Feature","geometry":{"type":"Point","coordinates":[133.9458438,33.46073981]},"properties":{"Name":"下山小学校（校庭）","Jusho":"高知県安芸市下山456","kouzui":"×","gake":"×","takashio":"×","jishin":"×","tsunami":"×","kaji":"○","naisui":"×","kazan":"×"}}
,{"type":"Feature","geometry":{"type":"Point","coordinates":[133.9460798,33.46046234]},"properties":{"Name":"下山小学校（体育館）","Jusho":"高知県安芸市下山456","kouzui":"○","gake":"○","takashio":"○","jishin":"○","tsunami":"×","kaji":"×","naisui":"×","kazan":"×"}}
,{"type":"Feature","geometry":{"type":"Point","coordinates":[133.9384778,33.48554583]},"properties":{"Name":"東部生コンクリート㈱（骨材サイロヤード）","Jusho":"高知県安芸市下山1606","kouzui":"×","gake":"×","takashio":"×","jishin":"○","tsunami":"○","kaji":"×","naisui":"×","kazan":"×"}}
,{"type":"Feature","geometry":{"type":"Point","coordinates":[133.938349,33.48402014]},"properties":{"Name":"不動集会所","Jusho":"高知県安芸市下山2161-3","kouzui":"○","gake":"○","takashio":"×","jishin":"○","tsunami":"×","kaji":"×","naisui":"×","kazan":"×"}}
,{"type":"Feature","geometry":{"type":"Point","coordinates":[133.9320437,33.49115683]},"properties":{"Name":"伊尾木公民館","Jusho":"高知県安芸市伊尾木195-1","kouzui":"○","gake":"×","takashio":"○","jishin":"○","tsunami":"×","kaji":"×","naisui":"×","kazan":"×"}}
,{"type":"Feature","geometry":{"type":"Point","coordinates":[133.9332529,33.48913312]},"properties":{"Name":"伊尾木小学校（校庭）","Jusho":"高知県安芸市伊尾木3719","kouzui":"×","gake":"×","takashio":"×","jishin":"×","tsunami":"×","kaji":"○","naisui":"×","kazan":"×"}}
,{"type":"Feature","geometry":{"type":"Point","coordinates":[133.9328774,33.48958051]},"properties":{"Name":"伊尾木小学校（体育館）","Jusho":"高知県安芸市伊尾木3719","kouzui":"○","gake":"○","takashio":"○","jishin":"○","tsunami":"×","kaji":"×","naisui":"×","kazan":"×"}}
,{"type":"Feature","geometry":{"type":"Point","coordinates":[133.9304451,33.49193078]},"properties":{"Name":"伊尾木中村集会所","Jusho":"高知県安芸市伊尾木297-1","kouzui":"○","gake":"○","takashio":"○","jishin":"○","tsunami":"×","kaji":"×","naisui":"×","kazan":"×"}}
,{"type":"Feature","geometry":{"type":"Point","coordinates":[133.9305263,33.49395903]},"properties":{"Name":"伊尾木保育所（園舎）","Jusho":"高知県安芸市伊尾木818","kouzui":"○","gake":"○","takashio":"○","jishin":"○","tsunami":"○","kaji":"×","naisui":"×","kazan":"×"}}
,{"type":"Feature","geometry":{"type":"Point","coordinates":[133.9304512,33.49379798]},"properties":{"Name":"伊尾木保育所（園庭）","Jusho":"高知県安芸市伊尾木818","kouzui":"○","gake":"○","takashio":"○","jishin":"○","tsunami":"○","kaji":"○","naisui":"×","kazan":"×"}}
,{"type":"Feature","geometry":{"type":"Point","coordinates":[133.931357,33.49560364]},"properties":{"Name":"岡集会所","Jusho":"高知県安芸市伊尾木1230-1","kouzui":"○","gake":"×","takashio":"○","jishin":"○","tsunami":"○","kaji":"×","naisui":"×","kazan":"×"}}
,{"type":"Feature","geometry":{"type":"Point","coordinates":[133.9370891,33.50119493]},"properties":{"Name":"宮田岡集会所","Jusho":"高知県安芸市伊尾木2605","kouzui":"○","gake":"×","takashio":"○","jishin":"○","tsunami":"○","kaji":"×","naisui":"×","kazan":"×"}}
,{"type":"Feature","geometry":{"type":"Point","coordinates":[133.9262716,33.49398868]},"properties":{"Name":"西組集会所","Jusho":"高知県安芸市伊尾木772-25","kouzui":"○","gake":"○","takashio":"○","jishin":"○","tsunami":"×","kaji":"×","naisui":"×","kazan":"×"}}
,{"type":"Feature","geometry":{"type":"Point","coordinates":[133.9290986,33.49118367]},"properties":{"Name":"中組集会所","Jusho":"高知県安芸市伊尾木3719-36","kouzui":"○","gake":"○","takashio":"○","jishin":"○","tsunami":"×","kaji":"×","naisui":"×","kazan":"×"}}
,{"type":"Feature","geometry":{"type":"Point","coordinates":[133.9346991,33.48836515]},"properties":{"Name":"東組集会所","Jusho":"高知県安芸市伊尾木3719-1","kouzui":"○","gake":"○","takashio":"○","jishin":"○","tsunami":"×","kaji":"×","naisui":"×","kazan":"×"}}
,{"type":"Feature","geometry":{"type":"Point","coordinates":[133.9285354,33.4919621]},"properties":{"Name":"津波避難タワー6号（東前久保）","Jusho":"高知県安芸市伊尾木267-1","kouzui":"×","gake":"×","takashio":"×","jishin":"○","tsunami":"○","kaji":"×","naisui":"×","kazan":"×"}}
,{"type":"Feature","geometry":{"type":"Point","coordinates":[133.92498564158,33.493819070215]},"properties":{"Name":"津波避難タワー8号（鰕地東）","Jusho":"高知県安芸市伊尾木493番地15","kouzui":"×","gake":"×","takashio":"×","jishin":"○","tsunami":"○","kaji":"×","naisui":"×","kazan":"×"}}
,{"type":"Feature","geometry":{"type":"Point","coordinates":[133.9336548,33.5099447]},"properties":{"Name":"キセキレイの里","Jusho":"高知県安芸市川北甲3731","kouzui":"×","gake":"×","takashio":"×","jishin":"○","tsunami":"○","kaji":"×","naisui":"×","kazan":"×"}}
,{"type":"Feature","geometry":{"type":"Point","coordinates":[133.9154119,33.49803993]},"properties":{"Name":"ケアハウス安芸","Jusho":"高知県安芸市川北甲1812-5","kouzui":"×","gake":"×","takashio":"×","jishin":"○","tsunami":"○","kaji":"×","naisui":"×","kazan":"×"}}
,{"type":"Feature","geometry":{"type":"Point","coordinates":[133.9246226,33.4988004]},"properties":{"Name":"マリンプラザ","Jusho":"高知県安芸市川北甲943-31","kouzui":"×","gake":"×","takashio":"×","jishin":"○","tsunami":"○","kaji":"×","naisui":"×","kazan":"×"}}
,{"type":"Feature","geometry":{"type":"Point","coordinates":[133.9488993,33.51040356]},"properties":{"Name":"花集会所","Jusho":"高知県安芸市川北甲3314-1","kouzui":"×","gake":"×","takashio":"○","jishin":"○","tsunami":"○","kaji":"×","naisui":"×","kazan":"×"}}
,{"type":"Feature","geometry":{"type":"Point","coordinates":[133.9267171,33.50754088]},"properties":{"Name":"久保田集会所","Jusho":"高知県安芸市川北甲2666","kouzui":"○","gake":"○","takashio":"○","jishin":"○","tsunami":"×","kaji":"×","naisui":"×","kazan":"×"}}
,{"type":"Feature","geometry":{"type":"Point","coordinates":[133.933526,33.50942585]},"properties":{"Name":"清香園","Jusho":"高知県安芸市川北甲3731","kouzui":"×","gake":"×","takashio":"○","jishin":"○","tsunami":"○","kaji":"×","naisui":"×","kazan":"×"}}
,{"type":"Feature","geometry":{"type":"Point","coordinates":[133.9194123,33.51012805]},"properties":{"Name":"清水ヶ丘体育館","Jusho":"高知県安芸市川北甲5552","kouzui":"○","gake":"○","takashio":"○","jishin":"○","tsunami":"○","kaji":"×","naisui":"×","kazan":"×"}}
,{"type":"Feature","geometry":{"type":"Point","coordinates":[133.919364,33.51142515]},"properties":{"Name":"清水ヶ丘中学校（体育館）","Jusho":"高知県安芸市川北甲5685","kouzui":"○","gake":"○","takashio":"○","jishin":"○","tsunami":"○","kaji":"×","naisui":"×","kazan":"×"}}
,{"type":"Feature","geometry":{"type":"Point","coordinates":[133.9195249,33.51080792]},"properties":{"Name":"清水ヶ丘中学校校庭","Jusho":"高知県安芸市川北甲5685","kouzui":"×","gake":"×","takashio":"○","jishin":"○","tsunami":"○","kaji":"○","naisui":"×","kazan":"×"}}
,{"type":"Feature","geometry":{"type":"Point","coordinates":[133.9217419,33.51371335]},"properties":{"Name":"清水寺岡集会所","Jusho":"高知県安芸市川北甲4902-4","kouzui":"○","gake":"○","takashio":"○","jishin":"○","tsunami":"○","kaji":"×","naisui":"×","kazan":"×"}}
,{"type":"Feature","geometry":{"type":"Point","coordinates":[133.919977,33.50423985]},"properties":{"Name":"西ノ島集会所","Jusho":"高知県安芸市川北甲2043-4","kouzui":"○","gake":"○","takashio":"○","jishin":"○","tsunami":"×","kaji":"×","naisui":"×","kazan":"×"}}
,{"type":"Feature","geometry":{"type":"Point","coordinates":[133.9349706,33.50707575]},"properties":{"Name":"川北岡集会所","Jusho":"高知県安芸市川北甲6715-2","kouzui":"○","gake":"○","takashio":"○","jishin":"○","tsunami":"×","kaji":"×","naisui":"×","kazan":"×"}}
,{"type":"Feature","geometry":{"type":"Point","coordinates":[133.926307,33.5025669]},"properties":{"Name":"川北公民館","Jusho":"高知県安芸市川北甲2588-1","kouzui":"○","gake":"○","takashio":"○","jishin":"○","tsunami":"×","kaji":"×","naisui":"×","kazan":"×"}}
,{"type":"Feature","geometry":{"type":"Point","coordinates":[133.9254863,33.50304553]},"properties":{"Name":"川北小学校（屋上）","Jusho":"高知県安芸市川北甲2595","kouzui":"○","gake":"○","takashio":"○","jishin":"○","tsunami":"○","kaji":"×","naisui":"×","kazan":"×"}}
,{"type":"Feature","geometry":{"type":"Point","coordinates":[133.9253844,33.50262953]},"properties":{"Name":"川北小学校（校庭）","Jusho":"高知県安芸市川北甲2595","kouzui":"○","gake":"○","takashio":"○","jishin":"○","tsunami":"×","kaji":"○","naisui":"×","kazan":"×"}}
,{"type":"Feature","geometry":{"type":"Point","coordinates":[133.9260656,33.50282635]},"properties":{"Name":"川北小学校（体育館）","Jusho":"高知県安芸市川北甲2595","kouzui":"○","gake":"○","takashio":"○","jishin":"○","tsunami":"×","kaji":"×","naisui":"×","kazan":"×"}}
,{"type":"Feature","geometry":{"type":"Point","coordinates":[133.9216829,33.51104316]},"properties":{"Name":"八幡集会所","Jusho":"高知県安芸市川北甲5437-1","kouzui":"○","gake":"×","takashio":"○","jishin":"○","tsunami":"○","kaji":"×","naisui":"×","kazan":"×"}}
,{"type":"Feature","geometry":{"type":"Point","coordinates":[133.9201004,33.50415934]},"properties":{"Name":"津波避難タワー5号（西ノ島）","Jusho":"高知県安芸市川北甲2043-1","kouzui":"×","gake":"×","takashio":"×","jishin":"○","tsunami":"○","kaji":"×","naisui":"×","kazan":"×"}}
,{"type":"Feature","geometry":{"type":"Point","coordinates":[133.9181696,33.52322934]},"properties":{"Name":"江川公民館","Jusho":"高知県安芸市川北乙587","kouzui":"○","gake":"○","takashio":"○","jishin":"○","tsunami":"○","kaji":"×","naisui":"×","kazan":"×"}}
,{"type":"Feature","geometry":{"type":"Point","coordinates":[133.91960513029,33.498695191257]},"properties":{"Name":"津波避難タワー7号（北門）","Jusho":"高知県安芸市川北甲1451-10","kouzui":"×","gake":"×","takashio":"×","jishin":"○","tsunami":"○","kaji":"×","naisui":"×","kazan":"×"}}
,{"type":"Feature","geometry":{"type":"Point","coordinates":[133.9145328,33.52948447]},"properties":{"Name":"内原野団地集会所","Jusho":"高知県安芸市川北乙1723-2","kouzui":"○","gake":"○","takashio":"○","jishin":"○","tsunami":"○","kaji":"×","naisui":"×","kazan":"×"}}
,{"type":"Feature","geometry":{"type":"Point","coordinates":[133.9122751,33.50697112]},"properties":{"Name":"春日玉造集会所","Jusho":"高知県安芸市土居1985-1","kouzui":"○","gake":"○","takashio":"○","jishin":"×","tsunami":"×","kaji":"×","naisui":"×","kazan":"×"}}
,{"type":"Feature","geometry":{"type":"Point","coordinates":[133.9164164,33.5163325]},"properties":{"Name":"中之橋上公園","Jusho":"高知県安芸市土居河川敷","kouzui":"×","gake":"○","takashio":"○","jishin":"○","tsunami":"×","kaji":"○","naisui":"×","kazan":"×"}}
,{"type":"Feature","geometry":{"type":"Point","coordinates":[133.9120551,33.51766753]},"properties":{"Name":"土居公民館","Jusho":"高知県安芸市土居695-3","kouzui":"○","gake":"○","takashio":"○","jishin":"○","tsunami":"×","kaji":"×","naisui":"×","kazan":"×"}}
,{"type":"Feature","geometry":{"type":"Point","coordinates":[133.9127709,33.51697745]},"properties":{"Name":"土居小学校（屋上）","Jusho":"高知県安芸市土居1097","kouzui":"○","gake":"○","takashio":"○","jishin":"○","tsunami":"○","kaji":"×","naisui":"×","kazan":"×"}}
,{"type":"Feature","geometry":{"type":"Point","coordinates":[133.9129372,33.51674489]},"properties":{"Name":"土居小学校（校庭）","Jusho":"高知県安芸市土居1097","kouzui":"○","gake":"○","takashio":"○","jishin":"○","tsunami":"×","kaji":"○","naisui":"×","kazan":"×"}}
,{"type":"Feature","geometry":{"type":"Point","coordinates":[133.912508,33.51652574]},"properties":{"Name":"土居小学校（体育館）","Jusho":"高知県安芸市土居1097","kouzui":"○","gake":"○","takashio":"○","jishin":"○","tsunami":"×","kaji":"×","naisui":"×","kazan":"×"}}
,{"type":"Feature","geometry":{"type":"Point","coordinates":[133.9125164,33.51231166]},"properties":{"Name":"土居上中・下中集会所","Jusho":"高知県安芸市土居1464-1","kouzui":"○","gake":"○","takashio":"○","jishin":"○","tsunami":"×","kaji":"×","naisui":"×","kazan":"×"}}
,{"type":"Feature","geometry":{"type":"Point","coordinates":[133.9131977,33.50729317]},"properties":{"Name":"土居津波避難タワー","Jusho":"高知県安芸市土居1885-1","kouzui":"×","gake":"×","takashio":"×","jishin":"○","tsunami":"○","kaji":"×","naisui":"×","kazan":"×"}}
,{"type":"Feature","geometry":{"type":"Point","coordinates":[133.9149903,33.51733808]},"properties":{"Name":"土居保育所（園舎）","Jusho":"高知県安芸市土居1056","kouzui":"○","gake":"○","takashio":"○","jishin":"○","tsunami":"×","kaji":"×","naisui":"×","kazan":"×"}}
,{"type":"Feature","geometry":{"type":"Point","coordinates":[133.9152317,33.51713235]},"properties":{"Name":"土居保育所（園庭）","Jusho":"高知県安芸市土居1056","kouzui":"○","gake":"○","takashio":"○","jishin":"○","tsunami":"×","kaji":"○","naisui":"×","kazan":"×"}}
,{"type":"Feature","geometry":{"type":"Point","coordinates":[133.9067136,33.52006978]},"properties":{"Name":"福井ケ内集会所","Jusho":"高知県安芸市土居9","kouzui":"○","gake":"○","takashio":"○","jishin":"○","tsunami":"×","kaji":"×","naisui":"×","kazan":"×"}}
,{"type":"Feature","geometry":{"type":"Point","coordinates":[133.9071926,33.52442794]},"properties":{"Name":"僧津集会所","Jusho":"高知県安芸市僧津433","kouzui":"○","gake":"○","takashio":"○","jishin":"○","tsunami":"○","kaji":"×","naisui":"×","kazan":"×"}}
,{"type":"Feature","geometry":{"type":"Point","coordinates":[133.897862,33.53172595]},"properties":{"Name":"井ノ口公民館","Jusho":"高知県安芸市井ノ口甲2556-1","kouzui":"○","gake":"○","takashio":"○","jishin":"○","tsunami":"○","kaji":"×","naisui":"×","kazan":"×"}}
,{"type":"Feature","geometry":{"type":"Point","coordinates":[133.8978673,33.52176565]},"properties":{"Name":"一ノ宮（過疎団地）集会所","Jusho":"高知県安芸市井ノ口甲1161","kouzui":"○","gake":"○","takashio":"○","jishin":"×","tsunami":"○","kaji":"×","naisui":"×","kazan":"×"}}
,{"type":"Feature","geometry":{"type":"Point","coordinates":[133.9005645,33.52702772]},"properties":{"Name":"一ノ宮集会所","Jusho":"高知県安芸市井ノ口甲2185","kouzui":"○","gake":"○","takashio":"○","jishin":"○","tsunami":"○","kaji":"×","naisui":"×","kazan":"×"}}
,{"type":"Feature","geometry":{"type":"Point","coordinates":[133.8980181,33.51733975]},"properties":{"Name":"高台寺集会所","Jusho":"高知県安芸市井ノ口甲689-3","kouzui":"○","gake":"○","takashio":"○","jishin":"○","tsunami":"○","kaji":"×","naisui":"×","kazan":"×"}}
,{"type":"Feature","geometry":{"type":"Point","coordinates":[133.8986184,33.5323967]},"properties":{"Name":"井ノ口小学校（校庭）","Jusho":"高知県安芸市井ノ口乙92","kouzui":"○","gake":"○","takashio":"○","jishin":"○","tsunami":"○","kaji":"○","naisui":"×","kazan":"×"}}
,{"type":"Feature","geometry":{"type":"Point","coordinates":[133.8976957,33.5327589]},"properties":{"Name":"井ノ口小学校（体育館）","Jusho":"高知県安芸市井ノ口乙92","kouzui":"○","gake":"○","takashio":"○","jishin":"○","tsunami":"○","kaji":"×","naisui":"×","kazan":"×"}}
,{"type":"Feature","geometry":{"type":"Point","coordinates":[133.8998804,33.53209648]},"properties":{"Name":"井ノ口保育所（園舎）","Jusho":"高知県安芸市井ノ口乙72","kouzui":"○","gake":"○","takashio":"○","jishin":"○","tsunami":"○","kaji":"×","naisui":"×","kazan":"×"}}
,{"type":"Feature","geometry":{"type":"Point","coordinates":[133.8998267,33.53189973]},"properties":{"Name":"井ノ口保育所（園庭）","Jusho":"高知県安芸市井ノ口乙72","kouzui":"○","gake":"○","takashio":"○","jishin":"○","tsunami":"○","kaji":"○","naisui":"×","kazan":"×"}}
,{"type":"Feature","geometry":{"type":"Point","coordinates":[133.899069,33.53792794]},"properties":{"Name":"横立集会所","Jusho":"高知県安芸市井ノ口乙860-3","kouzui":"○","gake":"○","takashio":"○","jishin":"○","tsunami":"○","kaji":"×","naisui":"×","kazan":"×"}}
,{"type":"Feature","geometry":{"type":"Point","coordinates":[133.8934792,33.54776435]},"properties":{"Name":"宮ノ上集会所","Jusho":"高知県安芸市井ノ口乙2072-1","kouzui":"○","gake":"×","takashio":"○","jishin":"○","tsunami":"○","kaji":"×","naisui":"×","kazan":"×"}}
,{"type":"Feature","geometry":{"type":"Point","coordinates":[133.8973899,33.53880879]},"properties":{"Name":"国重集会所","Jusho":"高知県安芸市井ノ口乙921-1","kouzui":"○","gake":"○","takashio":"○","jishin":"○","tsunami":"○","kaji":"×","naisui":"×","kazan":"×"}}
,{"type":"Feature","geometry":{"type":"Point","coordinates":[133.8968252,33.5350004]},"properties":{"Name":"黒岩集会所","Jusho":"高知県安芸市井ノ口乙498","kouzui":"○","gake":"×","takashio":"○","jishin":"○","tsunami":"○","kaji":"×","naisui":"×","kazan":"×"}}
,{"type":"Feature","geometry":{"type":"Point","coordinates":[133.8979317,33.54548866]},"properties":{"Name":"山田グラウンド","Jusho":"高知県安芸市井ノ口乙河川敷","kouzui":"×","gake":"○","takashio":"○","jishin":"○","tsunami":"×","kaji":"○","naisui":"×","kazan":"×"}}
,{"type":"Feature","geometry":{"type":"Point","coordinates":[133.8948413,33.54102467]},"properties":{"Name":"松原集会所","Jusho":"高知県安芸市井ノ口乙1526","kouzui":"○","gake":"○","takashio":"○","jishin":"○","tsunami":"○","kaji":"×","naisui":"×","kazan":"×"}}
,{"type":"Feature","geometry":{"type":"Point","coordinates":[133.9515492,33.52417479]},"properties":{"Name":"川北小学校奈比賀分校（校庭）","Jusho":"高知県安芸市奈比賀950","kouzui":"×","gake":"×","takashio":"○","jishin":"○","tsunami":"○","kaji":"○","naisui":"×","kazan":"×"}}
,{"type":"Feature","geometry":{"type":"Point","coordinates":[133.9515546,33.52436709]},"properties":{"Name":"川北小学校奈比賀分校（体育館）","Jusho":"高知県安芸市奈比賀950","kouzui":"○","gake":"○","takashio":"○","jishin":"○","tsunami":"○","kaji":"×","naisui":"×","kazan":"×"}}
,{"type":"Feature","geometry":{"type":"Point","coordinates":[133.9528007,33.52790778]},"properties":{"Name":"奈比賀公民館","Jusho":"高知県安芸市奈比賀365-1","kouzui":"○","gake":"×","takashio":"○","jishin":"○","tsunami":"○","kaji":"×","naisui":"×","kazan":"×"}}
,{"type":"Feature","geometry":{"type":"Point","coordinates":[133.9591072,33.5558843]},"properties":{"Name":"東川公民館","Jusho":"高知県安芸市入河内588","kouzui":"○","gake":"○","takashio":"○","jishin":"○","tsunami":"○","kaji":"×","naisui":"×","kazan":"×"}}
,{"type":"Feature","geometry":{"type":"Point","coordinates":[133.960243,33.55737864]},"properties":{"Name":"東川小中学校（校庭）","Jusho":"高知県安芸市入河内710","kouzui":"○","gake":"×","takashio":"○","jishin":"○","tsunami":"○","kaji":"○","naisui":"×","kazan":"×"}}
,{"type":"Feature","geometry":{"type":"Point","coordinates":[133.9608117,33.55724009]},"properties":{"Name":"東川小中学校(体育館）","Jusho":"高知県安芸市入河内710","kouzui":"○","gake":"×","takashio":"○","jishin":"○","tsunami":"○","kaji":"×","naisui":"×","kazan":"×"}}
,{"type":"Feature","geometry":{"type":"Point","coordinates":[133.9708006,33.56503368]},"properties":{"Name":"黒瀬集会所","Jusho":"高知県安芸市黒瀬151-1","kouzui":"○","gake":"×","takashio":"○","jishin":"○","tsunami":"○","kaji":"×","naisui":"×","kazan":"×"}}
,{"type":"Feature","geometry":{"type":"Point","coordinates":[133.9806237,33.58210679]},"properties":{"Name":"大井公民館","Jusho":"高知県安芸市大井乙146-1","kouzui":"○","gake":"○","takashio":"○","jishin":"○","tsunami":"○","kaji":"×","naisui":"×","kazan":"×"}}
,{"type":"Feature","geometry":{"type":"Point","coordinates":[133.9422593,33.56616822]},"properties":{"Name":"八ノ谷集会所","Jusho":"高知県安芸市大井甲1055","kouzui":"○","gake":"×","takashio":"○","jishin":"○","tsunami":"○","kaji":"×","naisui":"×","kazan":"×"}}
,{"type":"Feature","geometry":{"type":"Point","coordinates":[134.0097825,33.64281196]},"properties":{"Name":"古井公民館","Jusho":"高知県安芸市古井266-5","kouzui":"○","gake":"○","takashio":"○","jishin":"○","tsunami":"○","kaji":"×","naisui":"×","kazan":"×"}}
,{"type":"Feature","geometry":{"type":"Point","coordinates":[134.0071554,33.63513461]},"properties":{"Name":"古井小中学校（校庭）　※休校","Jusho":"高知県安芸市古井225","kouzui":"×","gake":"×","takashio":"○","jishin":"○","tsunami":"○","kaji":"○","naisui":"×","kazan":"×"}}
,{"type":"Feature","geometry":{"type":"Point","coordinates":[134.0072198,33.63501402]},"properties":{"Name":"古井小中学校（体育館）　※休校","Jusho":"高知県安芸市古井225","kouzui":"○","gake":"×","takashio":"○","jishin":"×","tsunami":"○","kaji":"×","naisui":"×","kazan":"×"}}
,{"type":"Feature","geometry":{"type":"Point","coordinates":[134.0363711,33.69345969]},"properties":{"Name":"別役公民館","Jusho":"高知県安芸市別役254-33","kouzui":"○","gake":"○","takashio":"○","jishin":"○","tsunami":"○","kaji":"×","naisui":"×","kazan":"×"}}
,{"type":"Feature","geometry":{"type":"Point","coordinates":[133.9242476,33.62169578]},"properties":{"Name":"はたやま文化施設付属多目的ホール（体育館）","Jusho":"高知県安芸市畑山乙381","kouzui":"○","gake":"○","takashio":"○","jishin":"×","tsunami":"○","kaji":"×","naisui":"×","kazan":"×"}}
,{"type":"Feature","geometry":{"type":"Point","coordinates":[133.9243656,33.62238369]},"properties":{"Name":"畑山公民館","Jusho":"高知県安芸市畑山乙381","kouzui":"○","gake":"×","takashio":"○","jishin":"○","tsunami":"○","kaji":"×","naisui":"×","kazan":"×"}}
,{"type":"Feature","geometry":{"type":"Point","coordinates":[133.9238935,33.62203527]},"properties":{"Name":"畑山公民館広場","Jusho":"高知県安芸市畑山乙381","kouzui":"○","gake":"×","takashio":"○","jishin":"○","tsunami":"○","kaji":"×","naisui":"×","kazan":"×"}}
,{"type":"Feature","geometry":{"type":"Point","coordinates":[133.9005181,33.55551347]},"properties":{"Name":"栃ノ木公民館","Jusho":"高知県安芸市栃ノ木54-2","kouzui":"○","gake":"×","takashio":"○","jishin":"○","tsunami":"○","kaji":"×","naisui":"×","kazan":"×"}}
,{"type":"Feature","geometry":{"type":"Point","coordinates":[133.9003518,33.55533018]},"properties":{"Name":"栃ノ木公民館広場","Jusho":"高知県安芸市栃ノ木54-2","kouzui":"○","gake":"×","takashio":"○","jishin":"○","tsunami":"○","kaji":"×","naisui":"×","kazan":"×"}}
,{"type":"Feature","geometry":{"type":"Point","coordinates":[133.9036295,33.55778443]},"properties":{"Name":"栃ノ木東地集会所","Jusho":"高知県安芸市栃ノ木1011-1","kouzui":"×","gake":"×","takashio":"○","jishin":"○","tsunami":"○","kaji":"×","naisui":"×","kazan":"×"}}
,{"type":"Feature","geometry":{"type":"Point","coordinates":[133.8774357,33.59057663]},"properties":{"Name":"上尾川小中学校（校庭）　※休校","Jusho":"高知県安芸市上尾川乙378","kouzui":"×","gake":"×","takashio":"○","jishin":"○","tsunami":"○","kaji":"○","naisui":"×","kazan":"×"}}
,{"type":"Feature","geometry":{"type":"Point","coordinates":[133.8774625,33.59029511]},"properties":{"Name":"上尾川小中学校（体育館）　※休校","Jusho":"高知県安芸市上尾川乙378","kouzui":"○","gake":"×","takashio":"○","jishin":"×","tsunami":"○","kaji":"×","naisui":"×","kazan":"×"}}
,{"type":"Feature","geometry":{"type":"Point","coordinates":[133.8574317,33.51870436]},"properties":{"Name":"奥ノ谷集会所","Jusho":"高知県安芸市穴内甲1475","kouzui":"○","gake":"×","takashio":"○","jishin":"○","tsunami":"○","kaji":"×","naisui":"×","kazan":"×"}}
,{"type":"Feature","geometry":{"type":"Point","coordinates":[133.8562674,33.51215103]},"properties":{"Name":"穴内西地集会所","Jusho":"高知県安芸市穴内甲3195-1","kouzui":"○","gake":"×","takashio":"○","jishin":"○","tsunami":"○","kaji":"×","naisui":"×","kazan":"×"}}
,{"type":"Feature","geometry":{"type":"Point","coordinates":[133.8658724,33.52340357]},"properties":{"Name":"穴内立花集会所","Jusho":"高知県安芸市穴内甲2630-1","kouzui":"○","gake":"×","takashio":"○","jishin":"○","tsunami":"○","kaji":"×","naisui":"×","kazan":"×"}}
,{"type":"Feature","geometry":{"type":"Point","coordinates":[133.8643518,33.50613473]},"properties":{"Name":"穴内駅ホーム","Jusho":"高知県安芸市穴内乙234","kouzui":"×","gake":"×","takashio":"×","jishin":"○","tsunami":"○","kaji":"×","naisui":"×","kazan":"×"}}
,{"type":"Feature","geometry":{"type":"Point","coordinates":[133.8570273,33.50776704]},"properties":{"Name":"穴内公民館","Jusho":"高知県安芸市穴内乙1479","kouzui":"○","gake":"○","takashio":"○","jishin":"○","tsunami":"×","kaji":"×","naisui":"×","kazan":"×"}}
,{"type":"Feature","geometry":{"type":"Point","coordinates":[133.8601239,33.50996468]},"properties":{"Name":"穴内小学校（校庭）","Jusho":"高知県安芸市穴内乙1574","kouzui":"○","gake":"○","takashio":"○","jishin":"○","tsunami":"○","kaji":"○","naisui":"×","kazan":"×"}}
,{"type":"Feature","geometry":{"type":"Point","coordinates":[133.8601078,33.51020174]},"properties":{"Name":"穴内小学校（体育館）","Jusho":"高知県安芸市穴内乙1574","kouzui":"○","gake":"○","takashio":"○","jishin":"○","tsunami":"○","kaji":"×","naisui":"×","kazan":"×"}}
,{"type":"Feature","geometry":{"type":"Point","coordinates":[133.8733097,33.50629243]},"properties":{"Name":"穴内大平・新城集会所","Jusho":"高知県安芸市穴内乙917-9","kouzui":"○","gake":"○","takashio":"○","jishin":"○","tsunami":"○","kaji":"×","naisui":"×","kazan":"×"}}
,{"type":"Feature","geometry":{"type":"Point","coordinates":[133.8605316,33.50974104]},"properties":{"Name":"穴内保育所（園舎）","Jusho":"高知県安芸市穴内乙1688","kouzui":"○","gake":"○","takashio":"○","jishin":"○","tsunami":"○","kaji":"×","naisui":"×","kazan":"×"}}
,{"type":"Feature","geometry":{"type":"Point","coordinates":[133.860537,33.50966053]},"properties":{"Name":"穴内保育所（園庭）","Jusho":"高知県安芸市穴内乙1688","kouzui":"○","gake":"○","takashio":"○","jishin":"○","tsunami":"○","kaji":"×","naisui":"×","kazan":"×"}}
,{"type":"Feature","geometry":{"type":"Point","coordinates":[133.8634392,33.50533521]},"properties":{"Name":"八丁ノ下集会所","Jusho":"高知県安芸市穴内乙196-1","kouzui":"○","gake":"○","takashio":"×","jishin":"○","tsunami":"×","kaji":"×","naisui":"×","kazan":"×"}}
,{"type":"Feature","geometry":{"type":"Point","coordinates":[133.8640679,33.50886127]},"properties":{"Name":"八丁集会所","Jusho":"高知県安芸市穴内乙1342","kouzui":"○","gake":"○","takashio":"○","jishin":"○","tsunami":"○","kaji":"×","naisui":"×","kazan":"×"}}
,{"type":"Feature","geometry":{"type":"Point","coordinates":[133.8353062,33.51508601]},"properties":{"Name":"桜浜集会所","Jusho":"高知県安芸市赤野甲214-イ","kouzui":"○","gake":"○","takashio":"○","jishin":"○","tsunami":"○","kaji":"×","naisui":"×","kazan":"×"}}
,{"type":"Feature","geometry":{"type":"Point","coordinates":[133.8401746,33.50792283]},"properties":{"Name":"赤野山田集会所","Jusho":"高知県安芸市赤野甲938-2","kouzui":"○","gake":"○","takashio":"○","jishin":"○","tsunami":"○","kaji":"×","naisui":"×","kazan":"×"}}
,{"type":"Feature","geometry":{"type":"Point","coordinates":[133.8497502,33.51616109]},"properties":{"Name":"太夫屋地集会所","Jusho":"高知県安芸市赤野甲2709","kouzui":"○","gake":"○","takashio":"○","jishin":"○","tsunami":"○","kaji":"×","naisui":"×","kazan":"×"}}
,{"type":"Feature","geometry":{"type":"Point","coordinates":[133.8217151,33.51844821]},"properties":{"Name":"叶岡集会所","Jusho":"高知県安芸市赤野乙155-2","kouzui":"○","gake":"○","takashio":"○","jishin":"○","tsunami":"○","kaji":"×","naisui":"×","kazan":"×"}}
,{"type":"Feature","geometry":{"type":"Point","coordinates":[133.8273424,33.51636854]},"properties":{"Name":"住吉集会所","Jusho":"高知県安芸市赤野乙91-8","kouzui":"○","gake":"○","takashio":"○","jishin":"×","tsunami":"×","kaji":"×","naisui":"×","kazan":"×"}}
,{"type":"Feature","geometry":{"type":"Point","coordinates":[133.8244408,33.51607984]},"properties":{"Name":"赤野駅ホーム","Jusho":"高知県安芸市赤野乙2933","kouzui":"×","gake":"×","takashio":"×","jishin":"○","tsunami":"○","kaji":"×","naisui":"×","kazan":"×"}}
,{"type":"Feature","geometry":{"type":"Point","coordinates":[133.8293579,33.51712239]},"properties":{"Name":"赤野公民館","Jusho":"高知県安芸市赤野乙44","kouzui":"○","gake":"○","takashio":"○","jishin":"○","tsunami":"×","kaji":"×","naisui":"×","kazan":"×"}}
,{"type":"Feature","geometry":{"type":"Point","coordinates":[133.8290229,33.51782812]},"properties":{"Name":"赤野小学校（校庭）","Jusho":"高知県安芸市赤野乙1016","kouzui":"×","gake":"×","takashio":"×","jishin":"×","tsunami":"×","kaji":"○","naisui":"×","kazan":"×"}}
,{"type":"Feature","geometry":{"type":"Point","coordinates":[133.8295325,33.51772525]},"properties":{"Name":"赤野小学校（体育館）","Jusho":"高知県安芸市赤野乙1016","kouzui":"○","gake":"○","takashio":"○","jishin":"○","tsunami":"×","kaji":"×","naisui":"×","kazan":"×"}}
,{"type":"Feature","geometry":{"type":"Point","coordinates":[133.8290093,33.51993683]},"properties":{"Name":"赤野西寄集会所","Jusho":"高知県安芸市赤野乙2017","kouzui":"○","gake":"×","takashio":"○","jishin":"○","tsunami":"○","kaji":"×","naisui":"×","kazan":"×"}}
,{"type":"Feature","geometry":{"type":"Point","coordinates":[133.8292743,33.51741852]},"properties":{"Name":"赤野保育所（園舎）","Jusho":"高知県安芸市赤野乙49-3","kouzui":"○","gake":"○","takashio":"○","jishin":"○","tsunami":"×","kaji":"×","naisui":"×","kazan":"×"}}
,{"type":"Feature","geometry":{"type":"Point","coordinates":[133.8291992,33.51728882]},"properties":{"Name":"赤野保育所（園庭）","Jusho":"高知県安芸市赤野乙49-3","kouzui":"○","gake":"○","takashio":"○","jishin":"○","tsunami":"×","kaji":"×","naisui":"×","kazan":"×"}}
,{"type":"Feature","geometry":{"type":"Point","coordinates":[133.8382214,33.5164893]},"properties":{"Name":"東赤野集会所","Jusho":"高知県安芸市赤野乙3061-1","kouzui":"×","gake":"○","takashio":"○","jishin":"○","tsunami":"×","kaji":"×","naisui":"×","kazan":"×"}}
,{"type":"Feature","geometry":{"type":"Point","coordinates":[133.45279578048,33.453912960582]},"properties":{"Name":"橋田裏山2","Jusho":"高知県土佐市宇佐町宇佐3119地先","kouzui":"×","gake":"×","takashio":"×","jishin":"×","tsunami":"○","kaji":"×","naisui":"×","kazan":"×"}}
,{"type":"Feature","geometry":{"type":"Point","coordinates":[133.45214489819,33.455467503677]},"properties":{"Name":"東郷2","Jusho":"高知県土佐市宇佐町宇佐3106地先","kouzui":"×","gake":"×","takashio":"×","jishin":"×","tsunami":"○","kaji":"×","naisui":"×","kazan":"×"}}
,{"type":"Feature","geometry":{"type":"Point","coordinates":[133.44771088343,33.454665527588]},"properties":{"Name":"東郷裏山","Jusho":"高知県土佐市宇佐町宇佐3089-1地先","kouzui":"×","gake":"×","takashio":"×","jishin":"×","tsunami":"○","kaji":"×","naisui":"×","kazan":"×"}}
,{"type":"Feature","geometry":{"type":"Point","coordinates":[133.44752316513,33.453711999252]},"properties":{"Name":"稲荷神社裏山","Jusho":"高知県土佐市宇佐町宇佐3059地先","kouzui":"×","gake":"×","takashio":"×","jishin":"×","tsunami":"○","kaji":"×","naisui":"×","kazan":"×"}}
,{"type":"Feature","geometry":{"type":"Point","coordinates":[133.44266532642,33.454551040357]},"properties":{"Name":"池田家裏山","Jusho":"高知県土佐市宇佐町宇佐1868-2地先","kouzui":"×","gake":"×","takashio":"×","jishin":"×","tsunami":"○","kaji":"×","naisui":"×","kazan":"×"}}
,{"type":"Feature","geometry":{"type":"Point","coordinates":[133.43423546534,33.4529647626]},"properties":{"Name":"西郷砂防ダム上","Jusho":"高知県土佐市宇佐町宇佐2940-2地先","kouzui":"×","gake":"×","takashio":"×","jishin":"×","tsunami":"○","kaji":"×","naisui":"×","kazan":"×"}}
,{"type":"Feature","geometry":{"type":"Point","coordinates":[133.43135477286,33.444460437328]},"properties":{"Name":"渭浜砂防ダム上","Jusho":"高知県土佐市宇佐町宇佐2905地先","kouzui":"×","gake":"×","takashio":"×","jishin":"×","tsunami":"○","kaji":"×","naisui":"×","kazan":"×"}}
,{"type":"Feature","geometry":{"type":"Point","coordinates":[133.43160153609,33.443753197989]},"properties":{"Name":"福岡裏山","Jusho":"高知県土佐市宇佐町宇佐2904-9地先","kouzui":"×","gake":"×","takashio":"×","jishin":"×","tsunami":"○","kaji":"×","naisui":"×","kazan":"×"}}
,{"type":"Feature","geometry":{"type":"Point","coordinates":[133.43288588528,33.439544646623]},"properties":{"Name":"十郎谷","Jusho":"高知県土佐市宇佐町宇佐2894地先","kouzui":"×","gake":"×","takashio":"×","jishin":"×","tsunami":"○","kaji":"×","naisui":"×","kazan":"×"}}
,{"type":"Feature","geometry":{"type":"Point","coordinates":[133.43163930147,33.438301442396]},"properties":{"Name":"松本家裏山","Jusho":"高知県須崎市浦ノ内4地先","kouzui":"×","gake":"×","takashio":"×","jishin":"×","tsunami":"○","kaji":"×","naisui":"×","kazan":"×"}}
,{"type":"Feature","geometry":{"type":"Point","coordinates":[133.44429911356,33.438793408228]},"properties":{"Name":"丹生神社","Jusho":"高知県土佐市宇佐町井尻344-1地先","kouzui":"×","gake":"×","takashio":"×","jishin":"×","tsunami":"○","kaji":"×","naisui":"×","kazan":"×"}}
,{"type":"Feature","geometry":{"type":"Point","coordinates":[133.44430447798,33.438493484052]},"properties":{"Name":"仙月山","Jusho":"高知県土佐市宇佐町井尻328-1地先","kouzui":"×","gake":"×","takashio":"×","jishin":"×","tsunami":"○","kaji":"×","naisui":"×","kazan":"×"}}
,{"type":"Feature","geometry":{"type":"Point","coordinates":[133.43964816313,33.432091870118]},"properties":{"Name":"宇津賀裏山","Jusho":"高知県土佐市宇佐町井尻347-1地先","kouzui":"×","gake":"×","takashio":"×","jishin":"×","tsunami":"○","kaji":"×","naisui":"×","kazan":"×"}}
,{"type":"Feature","geometry":{"type":"Point","coordinates":[133.43433202486,33.428331261342]},"properties":{"Name":"鍋烏頭裏山","Jusho":"高知県須崎市浦ノ内 247-1地先","kouzui":"×","gake":"×","takashio":"×","jishin":"×","tsunami":"○","kaji":"×","naisui":"×","kazan":"×"}}
,{"type":"Feature","geometry":{"type":"Point","coordinates":[133.44935239534,33.430233970671]},"properties":{"Name":"竜砂防ダム下","Jusho":"高知県土佐市宇佐町竜573-1地先","kouzui":"×","gake":"×","takashio":"×","jishin":"×","tsunami":"○","kaji":"×","naisui":"×","kazan":"×"}}
,{"type":"Feature","geometry":{"type":"Point","coordinates":[133.46115947943,33.464583008395]},"properties":{"Name":"宇佐坂","Jusho":"高知県土佐市新居 4900-イ地先","kouzui":"×","gake":"×","takashio":"×","jishin":"×","tsunami":"○","kaji":"×","naisui":"×","kazan":"×"}}
,{"type":"Feature","geometry":{"type":"Point","coordinates":[133.45721663219,33.461521957565]},"properties":{"Name":"ファームポンド","Jusho":"高知県土佐市新居 4972-2地先","kouzui":"×","gake":"×","takashio":"×","jishin":"×","tsunami":"○","kaji":"×","naisui":"×","kazan":"×"}}
,{"type":"Feature","geometry":{"type":"Point","coordinates":[133.45337570888,33.461956060533]},"properties":{"Name":"光の村","Jusho":"高知県土佐市新居 2764-1地先","kouzui":"×","gake":"×","takashio":"×","jishin":"×","tsunami":"○","kaji":"×","naisui":"×","kazan":"×"}}
,{"type":"Feature","geometry":{"type":"Point","coordinates":[133.46002758723,33.460577664224]},"properties":{"Name":"吉田","Jusho":"高知県土佐市新居 4878-イ地先","kouzui":"×","gake":"×","takashio":"×","jishin":"×","tsunami":"○","kaji":"×","naisui":"×","kazan":"×"}}
,{"type":"Feature","geometry":{"type":"Point","coordinates":[133.46258105022,33.45601268881]},"properties":{"Name":"杉王神社裏山","Jusho":"高知県土佐市新居 4805地先","kouzui":"×","gake":"×","takashio":"×","jishin":"×","tsunami":"○","kaji":"×","naisui":"×","kazan":"×"}}
,{"type":"Feature","geometry":{"type":"Point","coordinates":[133.4630853055,33.454437268961]},"properties":{"Name":"立石4裏山","Jusho":"高知県土佐市新居 4796地先","kouzui":"×","gake":"×","takashio":"×","jishin":"×","tsunami":"○","kaji":"×","naisui":"×","kazan":"×"}}
,{"type":"Feature","geometry":{"type":"Point","coordinates":[133.45442177039,33.477148294787]},"properties":{"Name":"万願寺","Jusho":"高知県土佐市用石 1120-4地先","kouzui":"×","gake":"×","takashio":"×","jishin":"×","tsunami":"○","kaji":"×","naisui":"×","kazan":"×"}}
,{"type":"Feature","geometry":{"type":"Point","coordinates":[133.44701834312,33.452592559586]},"properties":{"Name":"宇佐公園","Jusho":"高知県土佐市宇佐町宇佐2753-50","kouzui":"×","gake":"×","takashio":"×","jishin":"×","tsunami":"×","kaji":"○","naisui":"×","kazan":"×"}}
,{"type":"Feature","geometry":{"type":"Point","coordinates":[133.43686348771,33.449531081925]},"properties":{"Name":"宇佐市民公園","Jusho":"高知県土佐市宇佐町宇佐888-1","kouzui":"×","gake":"×","takashio":"×","jishin":"×","tsunami":"×","kaji":"○","naisui":"×","kazan":"×"}}
,{"type":"Feature","geometry":{"type":"Point","coordinates":[133.46641425016,33.457758986767]},"properties":{"Name":"新居市民公園","Jusho":"高知県土佐市新居 959-1","kouzui":"×","gake":"×","takashio":"×","jishin":"×","tsunami":"×","kaji":"○","naisui":"×","kazan":"×"}}
,{"type":"Feature","geometry":{"type":"Point","coordinates":[133.46777457722,33.457851480449]},"properties":{"Name":"新居甫渕公園","Jusho":"高知県土佐市新居 1089","kouzui":"×","gake":"×","takashio":"×","jishin":"×","tsunami":"×","kaji":"○","naisui":"×","kazan":"×"}}
,{"type":"Feature","geometry":{"type":"Point","coordinates":[133.45130325581,33.483551057185]},"properties":{"Name":"用石公民館","Jusho":"高知県土佐市用石 2178-2","kouzui":"×","gake":"×","takashio":"×","jishin":"×","tsunami":"×","kaji":"○","naisui":"×","kazan":"×"}}
,{"type":"Feature","geometry":{"type":"Point","coordinates":[133.42026204708,33.495135738232]},"properties":{"Name":"市民公園","Jusho":"高知県土佐市高岡町甲2179","kouzui":"×","gake":"×","takashio":"×","jishin":"×","tsunami":"×","kaji":"○","naisui":"×","kazan":"×"}}
,{"type":"Feature","geometry":{"type":"Point","coordinates":[133.42375160098,33.494972453013]},"properties":{"Name":"なかよし公園","Jusho":"高知県土佐市高岡町甲1868-2","kouzui":"×","gake":"×","takashio":"×","jishin":"×","tsunami":"×","kaji":"○","naisui":"×","kazan":"×"}}
,{"type":"Feature","geometry":{"type":"Point","coordinates":[133.43147099853,33.492037740095]},"properties":{"Name":"高岡緑地公園","Jusho":"高知県土佐市高岡町甲577-1","kouzui":"×","gake":"×","takashio":"×","jishin":"×","tsunami":"×","kaji":"○","naisui":"×","kazan":"×"}}
,{"type":"Feature","geometry":{"type":"Point","coordinates":[133.40795392522,33.500231326871]},"properties":{"Name":"鳴川公園","Jusho":"高知県土佐市高岡町乙790-137","kouzui":"×","gake":"×","takashio":"×","jishin":"×","tsunami":"×","kaji":"○","naisui":"×","kazan":"×"}}
,{"type":"Feature","geometry":{"type":"Point","coordinates":[133.40437152986,33.498726005214]},"properties":{"Name":"土佐公園","Jusho":"高知県土佐市高岡町乙905-1","kouzui":"×","gake":"×","takashio":"×","jishin":"×","tsunami":"×","kaji":"○","naisui":"×","kazan":"×"}}
,{"type":"Feature","geometry":{"type":"Point","coordinates":[133.42783789802,33.497712005438]},"properties":{"Name":"高岡商店街 ふれあい公園","Jusho":"高知県土佐市高岡町乙3554-1","kouzui":"×","gake":"×","takashio":"×","jishin":"×","tsunami":"×","kaji":"○","naisui":"×","kazan":"×"}}
,{"type":"Feature","geometry":{"type":"Point","coordinates":[133.41533746242,33.493275926504]},"properties":{"Name":"城山公園","Jusho":"高知県土佐市蓮池 883","kouzui":"×","gake":"×","takashio":"×","jishin":"×","tsunami":"×","kaji":"○","naisui":"×","kazan":"×"}}
,{"type":"Feature","geometry":{"type":"Point","coordinates":[133.4177657657,33.490438886527]},"properties":{"Name":"南城東公園","Jusho":"高知県土佐市蓮池 519-2","kouzui":"×","gake":"×","takashio":"×","jishin":"×","tsunami":"×","kaji":"○","naisui":"×","kazan":"×"}}
,{"type":"Feature","geometry":{"type":"Point","coordinates":[133.41456499584,33.490889248599]},"properties":{"Name":"城南公園","Jusho":"高知県土佐市蓮池 793-4","kouzui":"×","gake":"×","takashio":"×","jishin":"×","tsunami":"×","kaji":"○","naisui":"×","kazan":"×"}}
,{"type":"Feature","geometry":{"type":"Point","coordinates":[133.35549762428,33.460325140631]},"properties":{"Name":"戸波公園","Jusho":"高知県土佐市家俊 163-1","kouzui":"×","gake":"×","takashio":"×","jishin":"×","tsunami":"×","kaji":"○","naisui":"×","kazan":"×"}}
,{"type":"Feature","geometry":{"type":"Point","coordinates":[133.35684945762,33.461157180917]},"properties":{"Name":"大西前公園","Jusho":"高知県土佐市家俊 121-1","kouzui":"×","gake":"×","takashio":"×","jishin":"×","tsunami":"×","kaji":"○","naisui":"×","kazan":"×"}}
,{"type":"Feature","geometry":{"type":"Point","coordinates":[133.4538316844,33.451886102256]},"properties":{"Name":"橋田裏山１","Jusho":"高知県土佐市宇佐町宇佐3130","kouzui":"×","gake":"×","takashio":"×","jishin":"×","tsunami":"○","kaji":"×","naisui":"×","kazan":"×"}}
,{"type":"Feature","geometry":{"type":"Point","coordinates":[133.45191658716,33.458568209563]},"properties":{"Name":"南中裏山","Jusho":"高知県土佐市宇佐町宇佐3089-1地先","kouzui":"×","gake":"×","takashio":"×","jishin":"×","tsunami":"○","kaji":"×","naisui":"×","kazan":"×"}}
,{"type":"Feature","geometry":{"type":"Point","coordinates":[133.44367472787,33.456580855071]},"properties":{"Name":"宇佐防災公園","Jusho":"高知県土佐市宇佐町宇佐3016-2","kouzui":"×","gake":"×","takashio":"×","jishin":"×","tsunami":"○","kaji":"○","naisui":"×","kazan":"×"}}
,{"type":"Feature","geometry":{"type":"Point","coordinates":[133.43509811738,33.448919403782]},"properties":{"Name":"タンク山","Jusho":"高知県土佐市宇佐町宇佐2940-2","kouzui":"×","gake":"×","takashio":"×","jishin":"×","tsunami":"○","kaji":"×","naisui":"×","kazan":"×"}}
,{"type":"Feature","geometry":{"type":"Point","coordinates":[133.4330057262,33.441611078146]},"properties":{"Name":"グラウンド裏山","Jusho":"高知県土佐市宇佐町宇佐2901-1外","kouzui":"×","gake":"×","takashio":"×","jishin":"×","tsunami":"○","kaji":"×","naisui":"×","kazan":"×"}}
,{"type":"Feature","geometry":{"type":"Point","coordinates":[133.45687104248,33.430587347281]},"properties":{"Name":"竜北山","Jusho":"高知県土佐市宇佐町竜５６９番１","kouzui":"×","gake":"×","takashio":"×","jishin":"×","tsunami":"○","kaji":"×","naisui":"×","kazan":"×"}}
,{"type":"Feature","geometry":{"type":"Point","coordinates":[133.45160586618,33.429906856447]},"properties":{"Name":"竜横浪","Jusho":"高知県土佐市宇佐町竜６０８番１１","kouzui":"×","gake":"×","takashio":"×","jishin":"×","tsunami":"○","kaji":"×","naisui":"×","kazan":"×"}}
,{"type":"Feature","geometry":{"type":"Point","coordinates":[133.45973923578,33.471133845513]},"properties":{"Name":"上ノ村１","Jusho":"高知県土佐市新居５０６４番地","kouzui":"×","gake":"×","takashio":"×","jishin":"×","tsunami":"○","kaji":"×","naisui":"×","kazan":"×"}}
,{"type":"Feature","geometry":{"type":"Point","coordinates":[133.45879492811,33.470079250368]},"properties":{"Name":"上ノ村２","Jusho":"高知県土佐市新居3124番地外","kouzui":"×","gake":"×","takashio":"×","jishin":"×","tsunami":"○","kaji":"×","naisui":"×","kazan":"×"}}
,{"type":"Feature","geometry":{"type":"Point","coordinates":[133.46332744773,33.46732443413]},"properties":{"Name":"山ノ神","Jusho":"高知県土佐市新居４９３４","kouzui":"×","gake":"×","takashio":"×","jishin":"×","tsunami":"○","kaji":"×","naisui":"×","kazan":"×"}}
,{"type":"Feature","geometry":{"type":"Point","coordinates":[133.46547141741,33.466643470788]},"properties":{"Name":"本村東","Jusho":"高知県土佐市新居4921-2　先","kouzui":"×","gake":"×","takashio":"×","jishin":"×","tsunami":"○","kaji":"×","naisui":"×","kazan":"×"}}
,{"type":"Feature","geometry":{"type":"Point","coordinates":[133.46446607182,33.456833862488]},"properties":{"Name":"サイレン山","Jusho":"高知県土佐市新居４８６２番１","kouzui":"×","gake":"×","takashio":"×","jishin":"×","tsunami":"○","kaji":"×","naisui":"×","kazan":"×"}}
,{"type":"Feature","geometry":{"type":"Point","coordinates":[133.46111980162,33.453143610449]},"properties":{"Name":"池ノ浦１","Jusho":"高知県土佐市新居４７６９番地","kouzui":"×","gake":"×","takashio":"×","jishin":"×","tsunami":"○","kaji":"×","naisui":"×","kazan":"×"}}
,{"type":"Feature","geometry":{"type":"Point","coordinates":[133.45972660849,33.453029568741]},"properties":{"Name":"池ノ浦２","Jusho":"高知県土佐市新居４７８８番地","kouzui":"×","gake":"×","takashio":"×","jishin":"×","tsunami":"○","kaji":"×","naisui":"×","kazan":"×"}}
,{"type":"Feature","geometry":{"type":"Point","coordinates":[133.457076586,33.450326180924]},"properties":{"Name":"白菊園裏山","Jusho":"高知県土佐市新居4729番地外","kouzui":"×","gake":"×","takashio":"×","jishin":"×","tsunami":"○","kaji":"×","naisui":"×","kazan":"×"}}
,{"type":"Feature","geometry":{"type":"Point","coordinates":[133.46779469321,33.457809525052]},"properties":{"Name":"甫渕公園津波避難タワー","Jusho":"高知県土佐市新居1089番地","kouzui":"×","gake":"×","takashio":"×","jishin":"×","tsunami":"○","kaji":"×","naisui":"×","kazan":"×"}}
,{"type":"Feature","geometry":{"type":"Point","coordinates":[133.47757411331,33.458988459696]},"properties":{"Name":"仁淀タワー","Jusho":"高知県土佐市新居38-33番地、38-34番地","kouzui":"×","gake":"×","takashio":"×","jishin":"×","tsunami":"○","kaji":"×","naisui":"×","kazan":"×"}}
,{"type":"Feature","geometry":{"type":"Point","coordinates":[133.45427635978,33.480016305059]},"properties":{"Name":"森","Jusho":"高知県土佐市用石２２０９番１","kouzui":"×","gake":"×","takashio":"×","jishin":"×","tsunami":"○","kaji":"×","naisui":"×","kazan":"×"}}
,{"type":"Feature","geometry":{"type":"Point","coordinates":[133.45217887234,33.481465980561]},"properties":{"Name":"間古","Jusho":"高知県土佐市用石２１９０番１","kouzui":"×","gake":"×","takashio":"×","jishin":"×","tsunami":"○","kaji":"×","naisui":"×","kazan":"×"}}
,{"type":"Feature","geometry":{"type":"Point","coordinates":[133.45001701187,33.481090141092]},"properties":{"Name":"大谷１","Jusho":"高知県土佐市用石１６１０番","kouzui":"×","gake":"×","takashio":"×","jishin":"×","tsunami":"○","kaji":"×","naisui":"×","kazan":"×"}}
,{"type":"Feature","geometry":{"type":"Point","coordinates":[133.44942692589,33.481837344147]},"properties":{"Name":"大谷２","Jusho":"高知県土佐市用石２２７６番１","kouzui":"×","gake":"×","takashio":"×","jishin":"×","tsunami":"○","kaji":"×","naisui":"×","kazan":"×"}}
,{"type":"Feature","geometry":{"type":"Point","coordinates":[133.44711582051,33.484010475383]},"properties":{"Name":"天神","Jusho":"高知県土佐市用石２３０２番１","kouzui":"×","gake":"×","takashio":"×","jishin":"×","tsunami":"○","kaji":"×","naisui":"×","kazan":"×"}}
,{"type":"Feature","geometry":{"type":"Point","coordinates":[133.45401702048,33.488305548235]},"properties":{"Name":"北山東","Jusho":"高知県土佐市用石2369-1外","kouzui":"×","gake":"×","takashio":"×","jishin":"×","tsunami":"○","kaji":"×","naisui":"×","kazan":"×"}}
,{"type":"Feature","geometry":{"type":"Point","coordinates":[133.45145486717,33.48829293169]},"properties":{"Name":"小野の茶屋裏山","Jusho":"高知県土佐市用石６７３番","kouzui":"×","gake":"×","takashio":"×","jishin":"×","tsunami":"○","kaji":"×","naisui":"×","kazan":"×"}}
,{"type":"Feature","geometry":{"type":"Point","coordinates":[133.256337,33.369436]},"properties":{"Name":"安和小学校","Jusho":"高知県須崎市安和206","kouzui":"×","gake":"×","takashio":"×","jishin":"○","tsunami":"○","kaji":"×","naisui":"×","kazan":"×"}}
,{"type":"Feature","geometry":{"type":"Point","coordinates":[133.25072340119,33.369442543819]},"properties":{"Name":"高速道路緊急退避路","Jusho":"高知県須崎市安和","kouzui":"×","gake":"×","takashio":"×","jishin":"○","tsunami":"○","kaji":"×","naisui":"×","kazan":"×"}}
,{"type":"Feature","geometry":{"type":"Point","coordinates":[133.25081817302,33.362598255727]},"properties":{"Name":"ジンデ墓地","Jusho":"高知県須崎市安和","kouzui":"×","gake":"×","takashio":"×","jishin":"○","tsunami":"○","kaji":"×","naisui":"×","kazan":"×"}}
,{"type":"Feature","geometry":{"type":"Point","coordinates":[133.2483719984,33.364865308416]},"properties":{"Name":"さくら公園","Jusho":"高知県須崎市安和","kouzui":"×","gake":"×","takashio":"×","jishin":"○","tsunami":"○","kaji":"×","naisui":"×","kazan":"×"}}
,{"type":"Feature","geometry":{"type":"Point","coordinates":[133.25367204342,33.359157240762]},"properties":{"Name":"安和市営住宅駐車場","Jusho":"高知県須崎市安和","kouzui":"×","gake":"×","takashio":"×","jishin":"○","tsunami":"○","kaji":"×","naisui":"×","kazan":"×"}}
,{"type":"Feature","geometry":{"type":"Point","coordinates":[133.26116077098,33.358225275795]},"properties":{"Name":"田ノ浦団地高台","Jusho":"高知県須崎市安和","kouzui":"×","gake":"×","takashio":"×","jishin":"○","tsunami":"○","kaji":"×","naisui":"×","kazan":"×"}}
,{"type":"Feature","geometry":{"type":"Point","coordinates":[133.26245896015,33.373396842376]},"properties":{"Name":"地域の高台（久保宇津）","Jusho":"高知県須崎市安和","kouzui":"×","gake":"×","takashio":"×","jishin":"○","tsunami":"○","kaji":"×","naisui":"×","kazan":"×"}}
,{"type":"Feature","geometry":{"type":"Point","coordinates":[133.3491876588,33.419058479674]},"properties":{"Name":"地域の高台（大星）","Jusho":"高知県須崎市浦ノ内西分","kouzui":"×","gake":"×","takashio":"×","jishin":"○","tsunami":"○","kaji":"×","naisui":"×","kazan":"×"}}
,{"type":"Feature","geometry":{"type":"Point","coordinates":[133.34357277744,33.4194488092]},"properties":{"Name":"中ノ浦消防コミュニティ北側高台","Jusho":"高知県須崎市浦ノ内西分","kouzui":"×","gake":"×","takashio":"×","jishin":"○","tsunami":"○","kaji":"×","naisui":"×","kazan":"×"}}
,{"type":"Feature","geometry":{"type":"Point","coordinates":[133.36061464646,33.420810727635]},"properties":{"Name":"地域の高台（大島）","Jusho":"高知県須崎市浦ノ内西分","kouzui":"×","gake":"×","takashio":"×","jishin":"○","tsunami":"○","kaji":"×","naisui":"×","kazan":"×"}}
,{"type":"Feature","geometry":{"type":"Point","coordinates":[133.35179521305,33.425699090441]},"properties":{"Name":"地域の高台（長万）","Jusho":"高知県須崎市浦ノ内西分","kouzui":"×","gake":"×","takashio":"×","jishin":"○","tsunami":"○","kaji":"×","naisui":"×","kazan":"×"}}
,{"type":"Feature","geometry":{"type":"Point","coordinates":[133.35152975712,33.428969452178]},"properties":{"Name":"地域の高台（浦ノ内小）","Jusho":"高知県須崎市浦ノ内東分","kouzui":"×","gake":"×","takashio":"×","jishin":"○","tsunami":"○","kaji":"×","naisui":"×","kazan":"×"}}
,{"type":"Feature","geometry":{"type":"Point","coordinates":[133.36507824183,33.430266170916]},"properties":{"Name":"地域の高台（清水）","Jusho":"高知県須崎市浦ノ内東分","kouzui":"×","gake":"×","takashio":"×","jishin":"○","tsunami":"○","kaji":"×","naisui":"×","kazan":"×"}}
,{"type":"Feature","geometry":{"type":"Point","coordinates":[133.36222437144,33.430552692836]},"properties":{"Name":"地域の高台（中平・熊野神社）","Jusho":"高知県須崎市浦ノ内東分","kouzui":"×","gake":"×","takashio":"×","jishin":"○","tsunami":"○","kaji":"×","naisui":"×","kazan":"×"}}
,{"type":"Feature","geometry":{"type":"Point","coordinates":[133.3605279858,33.4378648991]},"properties":{"Name":"地域の高台（戸波浦トンネル手前）","Jusho":"高知県須崎市浦ノ内東分","kouzui":"×","gake":"×","takashio":"×","jishin":"○","tsunami":"○","kaji":"×","naisui":"×","kazan":"×"}}
,{"type":"Feature","geometry":{"type":"Point","coordinates":[133.35604338503,33.434761111016]},"properties":{"Name":"地域の高台（中平）","Jusho":"高知県須崎市浦ノ内東分","kouzui":"×","gake":"×","takashio":"×","jishin":"○","tsunami":"○","kaji":"×","naisui":"×","kazan":"×"}}
,{"type":"Feature","geometry":{"type":"Point","coordinates":[133.3624913628,33.429144945293]},"properties":{"Name":"シイノキワダ高台","Jusho":"高知県須崎市浦ノ内東分","kouzui":"×","gake":"×","takashio":"×","jishin":"○","tsunami":"○","kaji":"×","naisui":"×","kazan":"×"}}
,{"type":"Feature","geometry":{"type":"Point","coordinates":[133.36695455859,33.427882430508]},"properties":{"Name":"根間崎公園","Jusho":"高知県須崎市浦ノ内東分","kouzui":"×","gake":"×","takashio":"×","jishin":"○","tsunami":"○","kaji":"×","naisui":"×","kazan":"×"}}
,{"type":"Feature","geometry":{"type":"Point","coordinates":[133.37187992432,33.412034580051]},"properties":{"Name":"地域の高台（鳴無①）","Jusho":"高知県須崎市浦ノ内東分","kouzui":"×","gake":"×","takashio":"×","jishin":"○","tsunami":"○","kaji":"×","naisui":"×","kazan":"×"}}
,{"type":"Feature","geometry":{"type":"Point","coordinates":[133.3617188866,33.432359350394]},"properties":{"Name":"地域の高台（須ノ浦方向）","Jusho":"高知県須崎市浦ノ内須ノ浦","kouzui":"×","gake":"×","takashio":"×","jishin":"○","tsunami":"○","kaji":"×","naisui":"×","kazan":"×"}}
,{"type":"Feature","geometry":{"type":"Point","coordinates":[133.35885551692,33.429012626394]},"properties":{"Name":"地域の高台（鳴無公会堂方向）","Jusho":"高知県須崎市浦ノ内東分","kouzui":"×","gake":"×","takashio":"×","jishin":"○","tsunami":"○","kaji":"×","naisui":"×","kazan":"×"}}
,{"type":"Feature","geometry":{"type":"Point","coordinates":[133.35116171192,33.424506680218]},"properties":{"Name":"地域の高台（坂内）","Jusho":"高知県須崎市浦ノ内東分","kouzui":"×","gake":"×","takashio":"×","jishin":"○","tsunami":"○","kaji":"×","naisui":"×","kazan":"×"}}
,{"type":"Feature","geometry":{"type":"Point","coordinates":[133.35836612532,33.413102478827]},"properties":{"Name":"丸富木材株式会社","Jusho":"高知県須崎市浦ノ内東分","kouzui":"×","gake":"×","takashio":"×","jishin":"○","tsunami":"○","kaji":"×","naisui":"×","kazan":"×"}}
,{"type":"Feature","geometry":{"type":"Point","coordinates":[133.35648321459,33.421650173595]},"properties":{"Name":"地域の高台（摺木）","Jusho":"高知県須崎市浦ノ内立目摺木","kouzui":"×","gake":"×","takashio":"×","jishin":"○","tsunami":"○","kaji":"×","naisui":"×","kazan":"×"}}
,{"type":"Feature","geometry":{"type":"Point","coordinates":[133.39113491292,33.435434660351]},"properties":{"Name":"浦ノ内トンネル付近（立目）","Jusho":"高知県須崎市浦ノ内立目摺木","kouzui":"×","gake":"×","takashio":"×","jishin":"○","tsunami":"○","kaji":"×","naisui":"×","kazan":"×"}}
,{"type":"Feature","geometry":{"type":"Point","coordinates":[133.39292213577,33.4370961144]},"properties":{"Name":"浦ノ内トンネル付近（出見）","Jusho":"高知県須崎市浦ノ内出見","kouzui":"×","gake":"×","takashio":"×","jishin":"○","tsunami":"○","kaji":"×","naisui":"×","kazan":"×"}}
,{"type":"Feature","geometry":{"type":"Point","coordinates":[133.3899867881,33.442376532854]},"properties":{"Name":"地域の高台（花山神社奥）","Jusho":"高知県須崎市浦ノ内出見","kouzui":"×","gake":"×","takashio":"×","jishin":"○","tsunami":"○","kaji":"×","naisui":"×","kazan":"×"}}
,{"type":"Feature","geometry":{"type":"Point","coordinates":[133.3958830185,33.447543460604]},"properties":{"Name":"地域の高台（出見果樹園①）","Jusho":"高知県須崎市浦ノ内出見","kouzui":"×","gake":"×","takashio":"×","jishin":"○","tsunami":"○","kaji":"×","naisui":"×","kazan":"×"}}
,{"type":"Feature","geometry":{"type":"Point","coordinates":[133.39467066003,33.448474467977]},"properties":{"Name":"地域の高台（出見果樹園②）","Jusho":"高知県須崎市浦ノ内出見","kouzui":"×","gake":"×","takashio":"×","jishin":"○","tsunami":"○","kaji":"×","naisui":"×","kazan":"×"}}
,{"type":"Feature","geometry":{"type":"Point","coordinates":[133.40333604167,33.44524487528]},"properties":{"Name":"旧浦ノ内小学校","Jusho":"高知県須崎市浦ノ内塩間","kouzui":"×","gake":"×","takashio":"×","jishin":"○","tsunami":"○","kaji":"×","naisui":"×","kazan":"×"}}
,{"type":"Feature","geometry":{"type":"Point","coordinates":[133.39416668076,33.441890377777]},"properties":{"Name":"地域の高台（釼尾大明神）","Jusho":"高知県須崎市浦ノ内塩間","kouzui":"×","gake":"×","takashio":"×","jishin":"○","tsunami":"○","kaji":"×","naisui":"×","kazan":"×"}}
,{"type":"Feature","geometry":{"type":"Point","coordinates":[133.40833947318,33.448814957164]},"properties":{"Name":"地域の高台（塩間②）","Jusho":"高知県須崎市浦ノ内塩間","kouzui":"×","gake":"×","takashio":"×","jishin":"○","tsunami":"○","kaji":"×","naisui":"×","kazan":"×"}}
,{"type":"Feature","geometry":{"type":"Point","coordinates":[133.41321238235,33.444098229878]},"properties":{"Name":"東部コミュニティセンター高台","Jusho":"高知県須崎市浦ノ内塩間","kouzui":"×","gake":"×","takashio":"×","jishin":"○","tsunami":"○","kaji":"×","naisui":"×","kazan":"×"}}
,{"type":"Feature","geometry":{"type":"Point","coordinates":[133.41302954505,33.445718971728]},"properties":{"Name":"大神宮","Jusho":"高知県須崎市浦ノ内塩間","kouzui":"×","gake":"×","takashio":"×","jishin":"○","tsunami":"○","kaji":"×","naisui":"×","kazan":"×"}}
,{"type":"Feature","geometry":{"type":"Point","coordinates":[133.40202835322,33.453860767843]},"properties":{"Name":"地域の高台（灰方栗島神社付近）","Jusho":"高知県須崎市浦ノ内灰方","kouzui":"×","gake":"×","takashio":"×","jishin":"○","tsunami":"○","kaji":"×","naisui":"×","kazan":"×"}}
,{"type":"Feature","geometry":{"type":"Point","coordinates":[133.40095546961,33.453126750759]},"properties":{"Name":"地域の高台（県道）","Jusho":"高知県須崎市浦ノ内灰方","kouzui":"×","gake":"×","takashio":"×","jishin":"○","tsunami":"○","kaji":"×","naisui":"×","kazan":"×"}}
,{"type":"Feature","geometry":{"type":"Point","coordinates":[133.42515972376,33.442603664426]},"properties":{"Name":"地域の高台（灰方坂本線）","Jusho":"高知県須崎市浦ノ内灰方","kouzui":"×","gake":"×","takashio":"×","jishin":"○","tsunami":"○","kaji":"×","naisui":"×","kazan":"×"}}
,{"type":"Feature","geometry":{"type":"Point","coordinates":[133.42475202798,33.444949201294]},"properties":{"Name":"地域の高台（灰方田条線）","Jusho":"高知県須崎市浦ノ内灰方","kouzui":"×","gake":"×","takashio":"×","jishin":"○","tsunami":"○","kaji":"×","naisui":"×","kazan":"×"}}
,{"type":"Feature","geometry":{"type":"Point","coordinates":[133.42586295002,33.440311313549]},"properties":{"Name":"地域の高台（埋立：水産試験場付近）","Jusho":"高知県須崎市浦ノ内灰方","kouzui":"×","gake":"×","takashio":"×","jishin":"○","tsunami":"○","kaji":"×","naisui":"×","kazan":"×"}}
,{"type":"Feature","geometry":{"type":"Point","coordinates":[133.4309758846,33.438573866241]},"properties":{"Name":"地域の高台（埋立：宇佐付近）","Jusho":"高知県須崎市浦ノ内灰方","kouzui":"×","gake":"×","takashio":"×","jishin":"○","tsunami":"○","kaji":"×","naisui":"×","kazan":"×"}}
,{"type":"Feature","geometry":{"type":"Point","coordinates":[133.42440870522,33.428014254768]},"properties":{"Name":"地域の高台（下中山①）","Jusho":"高知県須崎市浦ノ内下中山","kouzui":"×","gake":"×","takashio":"×","jishin":"○","tsunami":"○","kaji":"×","naisui":"×","kazan":"×"}}
,{"type":"Feature","geometry":{"type":"Point","coordinates":[133.42536357164,33.427342697888]},"properties":{"Name":"地域の高台（下中山②）","Jusho":"高知県須崎市浦ノ内下中山","kouzui":"×","gake":"×","takashio":"×","jishin":"○","tsunami":"○","kaji":"×","naisui":"×","kazan":"×"}}
,{"type":"Feature","geometry":{"type":"Point","coordinates":[133.42625406503,33.427915760084]},"properties":{"Name":"地域の高台（下中山③）","Jusho":"高知県須崎市浦ノ内下中山","kouzui":"×","gake":"×","takashio":"×","jishin":"○","tsunami":"○","kaji":"×","naisui":"×","kazan":"×"}}
,{"type":"Feature","geometry":{"type":"Point","coordinates":[133.42776350171,33.421743306862]},"properties":{"Name":"明徳義塾中高等学校","Jusho":"高知県須崎市浦ノ内下中山","kouzui":"×","gake":"×","takashio":"×","jishin":"○","tsunami":"○","kaji":"×","naisui":"×","kazan":"×"}}
,{"type":"Feature","geometry":{"type":"Point","coordinates":[133.41676596291,33.436945134222]},"properties":{"Name":"地域の高台（浦場①）","Jusho":"高知県須崎市浦ノ内今川内","kouzui":"×","gake":"×","takashio":"×","jishin":"○","tsunami":"○","kaji":"×","naisui":"×","kazan":"×"}}
,{"type":"Feature","geometry":{"type":"Point","coordinates":[133.41796759256,33.437106290515]},"properties":{"Name":"地域の高台（浦場②）","Jusho":"高知県須崎市浦ノ内今川内","kouzui":"×","gake":"×","takashio":"×","jishin":"○","tsunami":"○","kaji":"×","naisui":"×","kazan":"×"}}
,{"type":"Feature","geometry":{"type":"Point","coordinates":[133.41225448735,33.431385058825]},"properties":{"Name":"地域の高台（大鹿③）","Jusho":"高知県須崎市浦ノ内今川内","kouzui":"×","gake":"×","takashio":"×","jishin":"○","tsunami":"○","kaji":"×","naisui":"×","kazan":"×"}}
,{"type":"Feature","geometry":{"type":"Point","coordinates":[133.41031793245,33.420604123277]},"properties":{"Name":"地域の高台（今川神社）","Jusho":"高知県須崎市浦ノ内今川内","kouzui":"×","gake":"×","takashio":"×","jishin":"○","tsunami":"○","kaji":"×","naisui":"×","kazan":"×"}}
,{"type":"Feature","geometry":{"type":"Point","coordinates":[133.41191652902,33.422180157543]},"properties":{"Name":"地域の高台（今川内②）","Jusho":"高知県須崎市浦ノ内今川内","kouzui":"×","gake":"×","takashio":"×","jishin":"○","tsunami":"○","kaji":"×","naisui":"×","kazan":"×"}}
,{"type":"Feature","geometry":{"type":"Point","coordinates":[133.42158321031,33.415884804144]},"properties":{"Name":"地域の高台（スカイライン①）","Jusho":"高知県須崎市浦ノ内今川内","kouzui":"×","gake":"×","takashio":"×","jishin":"○","tsunami":"○","kaji":"×","naisui":"×","kazan":"×"}}
,{"type":"Feature","geometry":{"type":"Point","coordinates":[133.3991790648,33.411225515164]},"properties":{"Name":"地域の高台（熊野神社）","Jusho":"高知県須崎市浦ノ内福良","kouzui":"×","gake":"×","takashio":"×","jishin":"○","tsunami":"○","kaji":"×","naisui":"×","kazan":"×"}}
,{"type":"Feature","geometry":{"type":"Point","coordinates":[133.40508655899,33.411321820351]},"properties":{"Name":"地域の高台（福良②）","Jusho":"高知県須崎市浦ノ内福良","kouzui":"×","gake":"×","takashio":"×","jishin":"○","tsunami":"○","kaji":"×","naisui":"×","kazan":"×"}}
,{"type":"Feature","geometry":{"type":"Point","coordinates":[133.40704993598,33.40943660849]},"properties":{"Name":"池ノ浦簡易水道配水池","Jusho":"高知県須崎市浦ノ内福良","kouzui":"×","gake":"×","takashio":"×","jishin":"○","tsunami":"○","kaji":"×","naisui":"×","kazan":"×"}}
,{"type":"Feature","geometry":{"type":"Point","coordinates":[133.37677815,33.413733257591]},"properties":{"Name":"地域の高台（須ノ浦①）","Jusho":"高知県須崎市浦ノ内須ノ浦","kouzui":"×","gake":"×","takashio":"×","jishin":"○","tsunami":"○","kaji":"×","naisui":"×","kazan":"×"}}
,{"type":"Feature","geometry":{"type":"Point","coordinates":[133.3821262603,33.409284842452]},"properties":{"Name":"地域の高台（若宮神社）","Jusho":"高知県須崎市浦ノ内須ノ浦","kouzui":"×","gake":"×","takashio":"×","jishin":"○","tsunami":"○","kaji":"×","naisui":"×","kazan":"×"}}
,{"type":"Feature","geometry":{"type":"Point","coordinates":[133.38629606851,33.405800541793]},"properties":{"Name":"地域の高台（スカイライン②）","Jusho":"高知県須崎市浦ノ内須ノ浦","kouzui":"×","gake":"×","takashio":"×","jishin":"○","tsunami":"○","kaji":"×","naisui":"×","kazan":"×"}}
,{"type":"Feature","geometry":{"type":"Point","coordinates":[133.41450111261,33.413027879428]},"properties":{"Name":"県道横波公園線（スカイライン）","Jusho":"高知県須崎市浦ノ内福良","kouzui":"×","gake":"×","takashio":"×","jishin":"○","tsunami":"○","kaji":"×","naisui":"×","kazan":"×"}}
,{"type":"Feature","geometry":{"type":"Point","coordinates":[133.29199760776,33.418986120712]},"properties":{"Name":"多ノ郷小学校","Jusho":"高知県須崎市多ノ郷甲79-4","kouzui":"×","gake":"×","takashio":"×","jishin":"○","tsunami":"○","kaji":"×","naisui":"×","kazan":"×"}}
,{"type":"Feature","geometry":{"type":"Point","coordinates":[133.293193,33.420404]},"properties":{"Name":"朝ヶ丘中学校","Jusho":"高知県須崎市吾井郷乙1818","kouzui":"×","gake":"×","takashio":"×","jishin":"○","tsunami":"○","kaji":"×","naisui":"×","kazan":"×"}}
,{"type":"Feature","geometry":{"type":"Point","coordinates":[133.29795295288,33.418701525694]},"properties":{"Name":"地域の高台（下村）","Jusho":"高知県須崎市吾井郷乙","kouzui":"×","gake":"×","takashio":"×","jishin":"○","tsunami":"○","kaji":"×","naisui":"×","kazan":"×"}}
,{"type":"Feature","geometry":{"type":"Point","coordinates":[133.30260971483,33.42311269255]},"properties":{"Name":"高速道路料金所","Jusho":"高知県須崎市吾井郷甲","kouzui":"×","gake":"×","takashio":"×","jishin":"○","tsunami":"○","kaji":"×","naisui":"×","kazan":"×"}}
,{"type":"Feature","geometry":{"type":"Point","coordinates":[133.29656938012,33.429846262532]},"properties":{"Name":"吾桑駅","Jusho":"高知県須崎市吾井郷甲","kouzui":"×","gake":"×","takashio":"×","jishin":"○","tsunami":"○","kaji":"×","naisui":"×","kazan":"×"}}
,{"type":"Feature","geometry":{"type":"Point","coordinates":[133.29264262612,33.433803782005]},"properties":{"Name":"天満宮のババ","Jusho":"高知県須崎市吾井郷甲","kouzui":"×","gake":"×","takashio":"×","jishin":"○","tsunami":"○","kaji":"×","naisui":"×","kazan":"×"}}
,{"type":"Feature","geometry":{"type":"Point","coordinates":[133.29101184304,33.430074585869]},"properties":{"Name":"吾桑保育園","Jusho":"高知県須崎市吾井郷乙498-1","kouzui":"×","gake":"×","takashio":"×","jishin":"○","tsunami":"○","kaji":"×","naisui":"×","kazan":"×"}}
,{"type":"Feature","geometry":{"type":"Point","coordinates":[133.29106548723,33.429506014877]},"properties":{"Name":"地域の高台（小浜）","Jusho":"高知県須崎市吾井郷乙","kouzui":"×","gake":"×","takashio":"×","jishin":"○","tsunami":"○","kaji":"×","naisui":"×","kazan":"×"}}
,{"type":"Feature","geometry":{"type":"Point","coordinates":[133.29034665521,33.426004968118]},"properties":{"Name":"地域の高台（鯛ノ川）","Jusho":"高知県須崎市吾井郷乙","kouzui":"×","gake":"×","takashio":"×","jishin":"○","tsunami":"○","kaji":"×","naisui":"×","kazan":"×"}}
,{"type":"Feature","geometry":{"type":"Point","coordinates":[133.28815797265,33.43781092245]},"properties":{"Name":"国見集会所","Jusho":"高知県須崎市吾井郷乙","kouzui":"×","gake":"×","takashio":"×","jishin":"○","tsunami":"○","kaji":"×","naisui":"×","kazan":"×"}}
,{"type":"Feature","geometry":{"type":"Point","coordinates":[133.23620916703,33.400009084988]},"properties":{"Name":"清流荘","Jusho":"高知県須崎市上分丙1758-2","kouzui":"×","gake":"×","takashio":"×","jishin":"○","tsunami":"○","kaji":"×","naisui":"×","kazan":"×"}}
,{"type":"Feature","geometry":{"type":"Point","coordinates":[133.23375762834,33.398907345125]},"properties":{"Name":"地域の高台（賀茂神社）","Jusho":"高知県須崎市上分丙","kouzui":"×","gake":"×","takashio":"×","jishin":"○","tsunami":"○","kaji":"×","naisui":"×","kazan":"×"}}
,{"type":"Feature","geometry":{"type":"Point","coordinates":[133.22850586309,33.40154068042]},"properties":{"Name":"落合神明宮","Jusho":"高知県須崎市上分乙","kouzui":"×","gake":"×","takashio":"×","jishin":"○","tsunami":"○","kaji":"×","naisui":"×","kazan":"×"}}
,{"type":"Feature","geometry":{"type":"Point","coordinates":[133.27115124375,33.384826537791]},"properties":{"Name":"金毘羅山","Jusho":"高知県須崎市下分乙","kouzui":"×","gake":"×","takashio":"×","jishin":"○","tsunami":"○","kaji":"×","naisui":"×","kazan":"×"}}
,{"type":"Feature","geometry":{"type":"Point","coordinates":[133.27261572988,33.380772717691]},"properties":{"Name":"角谷坂","Jusho":"高知県須崎市下分乙","kouzui":"×","gake":"×","takashio":"×","jishin":"○","tsunami":"○","kaji":"×","naisui":"×","kazan":"×"}}
,{"type":"Feature","geometry":{"type":"Point","coordinates":[133.27096348913,33.376691830558]},"properties":{"Name":"角谷トンネル北口","Jusho":"高知県須崎市下分乙","kouzui":"×","gake":"×","takashio":"×","jishin":"○","tsunami":"○","kaji":"×","naisui":"×","kazan":"×"}}
,{"type":"Feature","geometry":{"type":"Point","coordinates":[133.26733177811,33.392122937676]},"properties":{"Name":"岡本１区上組","Jusho":"高知県須崎市下分甲","kouzui":"×","gake":"×","takashio":"×","jishin":"○","tsunami":"○","kaji":"×","naisui":"×","kazan":"×"}}
,{"type":"Feature","geometry":{"type":"Point","coordinates":[133.27171450765,33.392808203442]},"properties":{"Name":"岡本１区中組","Jusho":"高知県須崎市下分甲","kouzui":"×","gake":"×","takashio":"×","jishin":"○","tsunami":"○","kaji":"×","naisui":"×","kazan":"×"}}
,{"type":"Feature","geometry":{"type":"Point","coordinates":[133.2741124025,33.391961697888]},"properties":{"Name":"須崎高校裏山","Jusho":"高知県須崎市下分甲","kouzui":"×","gake":"×","takashio":"×","jishin":"○","tsunami":"○","kaji":"×","naisui":"×","kazan":"×"}}
,{"type":"Feature","geometry":{"type":"Point","coordinates":[133.27539449841,33.390497089442]},"properties":{"Name":"須崎中学校裏山","Jusho":"高知県須崎市下分甲","kouzui":"×","gake":"×","takashio":"×","jishin":"○","tsunami":"○","kaji":"×","naisui":"×","kazan":"×"}}
,{"type":"Feature","geometry":{"type":"Point","coordinates":[133.27538376957,33.392893301428]},"properties":{"Name":"須崎斎場","Jusho":"高知県須崎市下分甲","kouzui":"×","gake":"×","takashio":"×","jishin":"○","tsunami":"○","kaji":"×","naisui":"×","kazan":"×"}}
,{"type":"Feature","geometry":{"type":"Point","coordinates":[133.28067442737,33.389555568786]},"properties":{"Name":"今清神社（経由須崎斎場）","Jusho":"高知県須崎市下分甲","kouzui":"×","gake":"×","takashio":"×","jishin":"○","tsunami":"○","kaji":"×","naisui":"×","kazan":"×"}}
,{"type":"Feature","geometry":{"type":"Point","coordinates":[133.28063911156,33.388857773383]},"properties":{"Name":"大善寺（経由須崎斎場）","Jusho":"高知県須崎市下分甲","kouzui":"×","gake":"×","takashio":"×","jishin":"○","tsunami":"○","kaji":"×","naisui":"×","kazan":"×"}}
,{"type":"Feature","geometry":{"type":"Point","coordinates":[133.27986680382,33.389807291933]},"properties":{"Name":"西町配水池（経由須崎斎場）","Jusho":"高知県須崎市下分甲","kouzui":"×","gake":"×","takashio":"×","jishin":"○","tsunami":"○","kaji":"×","naisui":"×","kazan":"×"}}
,{"type":"Feature","geometry":{"type":"Point","coordinates":[133.26172596128,33.392736541915]},"properties":{"Name":"高保木トンネル下側","Jusho":"高知県須崎市下分甲","kouzui":"×","gake":"×","takashio":"×","jishin":"○","tsunami":"○","kaji":"×","naisui":"×","kazan":"×"}}
,{"type":"Feature","geometry":{"type":"Point","coordinates":[133.2583410135,33.393856246515]},"properties":{"Name":"高保木トンネル上側","Jusho":"高知県須崎市下分甲","kouzui":"×","gake":"×","takashio":"×","jishin":"○","tsunami":"○","kaji":"×","naisui":"×","kazan":"×"}}
,{"type":"Feature","geometry":{"type":"Point","coordinates":[133.26140409619,33.398720075863]},"properties":{"Name":"波介土取り場","Jusho":"高知県須崎市下分甲","kouzui":"×","gake":"×","takashio":"×","jishin":"○","tsunami":"○","kaji":"×","naisui":"×","kazan":"×"}}
,{"type":"Feature","geometry":{"type":"Point","coordinates":[133.26353913457,33.399288848441]},"properties":{"Name":"金毘羅宮（波介）","Jusho":"高知県須崎市下分甲","kouzui":"×","gake":"×","takashio":"×","jishin":"○","tsunami":"○","kaji":"×","naisui":"×","kazan":"×"}}
,{"type":"Feature","geometry":{"type":"Point","coordinates":[133.26241618349,33.403703800351]},"properties":{"Name":"坂ノ川公民館","Jusho":"高知県須崎市下分甲","kouzui":"×","gake":"×","takashio":"×","jishin":"○","tsunami":"○","kaji":"×","naisui":"×","kazan":"×"}}
,{"type":"Feature","geometry":{"type":"Point","coordinates":[133.26558297784,33.386940720355]},"properties":{"Name":"琴平宮","Jusho":"高知県須崎市下分乙","kouzui":"×","gake":"×","takashio":"×","jishin":"○","tsunami":"○","kaji":"×","naisui":"×","kazan":"×"}}
,{"type":"Feature","geometry":{"type":"Point","coordinates":[133.26251453072,33.38600009463]},"properties":{"Name":"元亨院","Jusho":"高知県須崎市下分乙","kouzui":"×","gake":"×","takashio":"×","jishin":"○","tsunami":"○","kaji":"×","naisui":"×","kazan":"×"}}
,{"type":"Feature","geometry":{"type":"Point","coordinates":[133.26036876351,33.387334884299]},"properties":{"Name":"矢ノ谷","Jusho":"高知県須崎市下分乙","kouzui":"×","gake":"×","takashio":"×","jishin":"○","tsunami":"○","kaji":"×","naisui":"×","kazan":"×"}}
,{"type":"Feature","geometry":{"type":"Point","coordinates":[133.25563734681,33.38886673175]},"properties":{"Name":"柿ノ木谷","Jusho":"高知県須崎市下分乙","kouzui":"×","gake":"×","takashio":"×","jishin":"○","tsunami":"○","kaji":"×","naisui":"×","kazan":"×"}}
,{"type":"Feature","geometry":{"type":"Point","coordinates":[133.24570780902,33.393717403928]},"properties":{"Name":"明神様","Jusho":"高知県須崎市下郷","kouzui":"×","gake":"×","takashio":"×","jishin":"○","tsunami":"○","kaji":"×","naisui":"×","kazan":"×"}}
,{"type":"Feature","geometry":{"type":"Point","coordinates":[133.24347084669,33.394917713156]},"properties":{"Name":"桜馬場","Jusho":"高知県須崎市下郷","kouzui":"×","gake":"×","takashio":"×","jishin":"○","tsunami":"○","kaji":"×","naisui":"×","kazan":"×"}}
,{"type":"Feature","geometry":{"type":"Point","coordinates":[133.25103825286,33.39846330601]},"properties":{"Name":"観音様","Jusho":"高知県須崎市下分甲","kouzui":"×","gake":"×","takashio":"×","jishin":"○","tsunami":"○","kaji":"×","naisui":"×","kazan":"×"}}
,{"type":"Feature","geometry":{"type":"Point","coordinates":[133.24764794067,33.397845263619]},"properties":{"Name":"中氏（山下地区）","Jusho":"高知県須崎市下分甲","kouzui":"×","gake":"×","takashio":"×","jishin":"○","tsunami":"○","kaji":"×","naisui":"×","kazan":"×"}}
,{"type":"Feature","geometry":{"type":"Point","coordinates":[133.247247397,33.398334920664]},"properties":{"Name":"天満宮","Jusho":"高知県須崎市下分甲","kouzui":"×","gake":"×","takashio":"×","jishin":"○","tsunami":"○","kaji":"×","naisui":"×","kazan":"×"}}
,{"type":"Feature","geometry":{"type":"Point","coordinates":[133.24160939365,33.400816006789]},"properties":{"Name":"若宮様","Jusho":"高知県須崎市下分甲","kouzui":"×","gake":"×","takashio":"×","jishin":"○","tsunami":"○","kaji":"×","naisui":"×","kazan":"×"}}
,{"type":"Feature","geometry":{"type":"Point","coordinates":[133.27873491163,33.402150534419]},"properties":{"Name":"花取りトンネル入口付近","Jusho":"高知県須崎市池ノ内","kouzui":"×","gake":"×","takashio":"×","jishin":"○","tsunami":"○","kaji":"×","naisui":"×","kazan":"×"}}
,{"type":"Feature","geometry":{"type":"Point","coordinates":[133.27399813051,33.400419630232]},"properties":{"Name":"星神社","Jusho":"高知県須崎市池ノ内","kouzui":"×","gake":"×","takashio":"×","jishin":"○","tsunami":"○","kaji":"×","naisui":"×","kazan":"×"}}
,{"type":"Feature","geometry":{"type":"Point","coordinates":[133.2723888051,33.399857582776]},"properties":{"Name":"金毘羅神社（池ノ内）","Jusho":"高知県須崎市池ノ内","kouzui":"×","gake":"×","takashio":"×","jishin":"○","tsunami":"○","kaji":"×","naisui":"×","kazan":"×"}}
,{"type":"Feature","geometry":{"type":"Point","coordinates":[133.27474914902,33.397107752382]},"properties":{"Name":"竃戸神社","Jusho":"高知県須崎市池ノ内","kouzui":"×","gake":"×","takashio":"×","jishin":"○","tsunami":"○","kaji":"×","naisui":"×","kazan":"×"}}
,{"type":"Feature","geometry":{"type":"Point","coordinates":[133.28516443009,33.398297597953]},"properties":{"Name":"お馬トンネル上の広場","Jusho":"高知県須崎市池ノ内","kouzui":"×","gake":"×","takashio":"×","jishin":"○","tsunami":"○","kaji":"×","naisui":"×","kazan":"×"}}
,{"type":"Feature","geometry":{"type":"Point","coordinates":[133.29063077205,33.392439443158]},"properties":{"Name":"城山公園","Jusho":"高知県須崎市須崎","kouzui":"×","gake":"×","takashio":"×","jishin":"○","tsunami":"○","kaji":"×","naisui":"×","kazan":"×"}}
,{"type":"Feature","geometry":{"type":"Point","coordinates":[133.28954179519,33.395270038202]},"properties":{"Name":"金毘羅神社","Jusho":"高知県須崎市須崎","kouzui":"×","gake":"×","takashio":"×","jishin":"○","tsunami":"○","kaji":"×","naisui":"×","kazan":"×"}}
,{"type":"Feature","geometry":{"type":"Point","coordinates":[133.2899012112,33.391897499099]},"properties":{"Name":"ＮＴＴ西日本須崎電話交換所","Jusho":"高知県須崎市鍛治町","kouzui":"×","gake":"×","takashio":"×","jishin":"○","tsunami":"○","kaji":"×","naisui":"×","kazan":"×"}}
,{"type":"Feature","geometry":{"type":"Point","coordinates":[133.28747112983,33.392806709112]},"properties":{"Name":"憩いの広場（須崎小学校裏）","Jusho":"高知県須崎市須崎","kouzui":"×","gake":"×","takashio":"×","jishin":"○","tsunami":"○","kaji":"×","naisui":"×","kazan":"×"}}
,{"type":"Feature","geometry":{"type":"Point","coordinates":[133.28929612239,33.390663344745]},"properties":{"Name":"須崎第２地方合同庁舎（国）","Jusho":"高知県須崎市青木町","kouzui":"×","gake":"×","takashio":"×","jishin":"○","tsunami":"○","kaji":"×","naisui":"×","kazan":"×"}}
,{"type":"Feature","geometry":{"type":"Point","coordinates":[133.28733701938,33.390692669209]},"properties":{"Name":"高知県須崎第２総合庁舎","Jusho":"高知県須崎市東古市町","kouzui":"×","gake":"×","takashio":"×","jishin":"○","tsunami":"○","kaji":"×","naisui":"×","kazan":"×"}}
,{"type":"Feature","geometry":{"type":"Point","coordinates":[133.28579206699,33.390607569068]},"properties":{"Name":"高知県須崎総合庁舎","Jusho":"高知県須崎市西古市町","kouzui":"×","gake":"×","takashio":"×","jishin":"○","tsunami":"○","kaji":"×","naisui":"×","kazan":"×"}}
,{"type":"Feature","geometry":{"type":"Point","coordinates":[133.2775944247,33.401754793133]},"properties":{"Name":"地域の高台（池ノ内）","Jusho":"高知県須崎市池ノ内","kouzui":"×","gake":"×","takashio":"×","jishin":"○","tsunami":"○","kaji":"×","naisui":"×","kazan":"×"}}
,{"type":"Feature","geometry":{"type":"Point","coordinates":[133.28027090333,33.40672997406]},"properties":{"Name":"須崎工業高校グランド","Jusho":"高知県須崎市多ノ郷甲4167-3","kouzui":"×","gake":"×","takashio":"×","jishin":"○","tsunami":"○","kaji":"×","naisui":"×","kazan":"×"}}
,{"type":"Feature","geometry":{"type":"Point","coordinates":[133.28192887447,33.413344073957]},"properties":{"Name":"地域の高台（正ノ岡）","Jusho":"高知県須崎市多ノ郷甲","kouzui":"×","gake":"×","takashio":"×","jishin":"○","tsunami":"○","kaji":"×","naisui":"×","kazan":"×"}}
,{"type":"Feature","geometry":{"type":"Point","coordinates":[133.28273862222,33.416823464109]},"properties":{"Name":"東川内分譲地","Jusho":"高知県須崎市多ノ郷甲","kouzui":"×","gake":"×","takashio":"×","jishin":"○","tsunami":"○","kaji":"×","naisui":"×","kazan":"×"}}
,{"type":"Feature","geometry":{"type":"Point","coordinates":[133.30720043065,33.392488282336]},"properties":{"Name":"地域の高台（串ノ浦）","Jusho":"高知県須崎市多ノ郷乙","kouzui":"×","gake":"×","takashio":"×","jishin":"○","tsunami":"○","kaji":"×","naisui":"×","kazan":"×"}}
,{"type":"Feature","geometry":{"type":"Point","coordinates":[133.30058610322,33.389339586697]},"properties":{"Name":"県道284号線の上方","Jusho":"高知県須崎市多ノ郷乙","kouzui":"×","gake":"×","takashio":"×","jishin":"○","tsunami":"○","kaji":"×","naisui":"×","kazan":"×"}}
,{"type":"Feature","geometry":{"type":"Point","coordinates":[133.30013570926,33.386150707755]},"properties":{"Name":"地域の高台（箕越）","Jusho":"高知県須崎市多ノ郷乙","kouzui":"×","gake":"×","takashio":"×","jishin":"○","tsunami":"○","kaji":"×","naisui":"×","kazan":"×"}}
,{"type":"Feature","geometry":{"type":"Point","coordinates":[133.30454504372,33.383727190612]},"properties":{"Name":"エム・セテック（株）高知第２工場","Jusho":"高知県須崎市大谷1117-1","kouzui":"×","gake":"×","takashio":"×","jishin":"○","tsunami":"○","kaji":"×","naisui":"×","kazan":"×"}}
,{"type":"Feature","geometry":{"type":"Point","coordinates":[133.3073776736,33.418999332345]},"properties":{"Name":"地域の高台（神田星神社）","Jusho":"高知県須崎市神田","kouzui":"×","gake":"×","takashio":"×","jishin":"○","tsunami":"○","kaji":"×","naisui":"×","kazan":"×"}}
,{"type":"Feature","geometry":{"type":"Point","coordinates":[133.30835399768,33.418681429728]},"properties":{"Name":"地域の高台（神田和田②）","Jusho":"高知県須崎市神田","kouzui":"×","gake":"×","takashio":"×","jishin":"○","tsunami":"○","kaji":"×","naisui":"×","kazan":"×"}}
,{"type":"Feature","geometry":{"type":"Point","coordinates":[133.30643353603,33.419281413975]},"properties":{"Name":"地域の高台（神田和田③）","Jusho":"高知県須崎市神田","kouzui":"×","gake":"×","takashio":"×","jishin":"○","tsunami":"○","kaji":"×","naisui":"×","kazan":"×"}}
,{"type":"Feature","geometry":{"type":"Point","coordinates":[133.30408369535,33.421970415157]},"properties":{"Name":"地域の高台（飛田）","Jusho":"高知県須崎市神田","kouzui":"×","gake":"×","takashio":"×","jishin":"○","tsunami":"○","kaji":"×","naisui":"×","kazan":"×"}}
,{"type":"Feature","geometry":{"type":"Point","coordinates":[133.3051136636,33.421307766271]},"properties":{"Name":"地域の高台（飛田②）","Jusho":"高知県須崎市神田","kouzui":"×","gake":"×","takashio":"×","jishin":"○","tsunami":"○","kaji":"×","naisui":"×","kazan":"×"}}
,{"type":"Feature","geometry":{"type":"Point","coordinates":[133.30602561468,33.420031705184]},"properties":{"Name":"地域の高台（神田子安地蔵）","Jusho":"高知県須崎市神田","kouzui":"×","gake":"×","takashio":"×","jishin":"○","tsunami":"○","kaji":"×","naisui":"×","kazan":"×"}}
,{"type":"Feature","geometry":{"type":"Point","coordinates":[133.30640112394,33.419736193626]},"properties":{"Name":"地域の高台（神田②）","Jusho":"高知県須崎市神田","kouzui":"×","gake":"×","takashio":"×","jishin":"○","tsunami":"○","kaji":"×","naisui":"×","kazan":"×"}}
,{"type":"Feature","geometry":{"type":"Point","coordinates":[133.30162679189,33.407758174232]},"properties":{"Name":"須崎生コン（株）駐車場","Jusho":"高知県須崎市神田","kouzui":"×","gake":"×","takashio":"×","jishin":"○","tsunami":"○","kaji":"×","naisui":"×","kazan":"×"}}
,{"type":"Feature","geometry":{"type":"Point","coordinates":[133.31210350029,33.404650335955]},"properties":{"Name":"地域の高台(押岡下）","Jusho":"高知県須崎市押岡","kouzui":"×","gake":"×","takashio":"×","jishin":"○","tsunami":"○","kaji":"×","naisui":"×","kazan":"×"}}
,{"type":"Feature","geometry":{"type":"Point","coordinates":[133.31334914781,33.404478203186]},"properties":{"Name":"地域の高台（押岡中）","Jusho":"高知県須崎市押岡","kouzui":"×","gake":"×","takashio":"×","jishin":"○","tsunami":"○","kaji":"×","naisui":"×","kazan":"×"}}
,{"type":"Feature","geometry":{"type":"Point","coordinates":[133.31475462533,33.404424464264]},"properties":{"Name":"地域の高台（押岡上）","Jusho":"高知県須崎市押岡","kouzui":"×","gake":"×","takashio":"×","jishin":"○","tsunami":"○","kaji":"×","naisui":"×","kazan":"×"}}
,{"type":"Feature","geometry":{"type":"Point","coordinates":[133.31820284359,33.403181463037]},"properties":{"Name":"押岡公園","Jusho":"高知県須崎市押岡","kouzui":"×","gake":"×","takashio":"×","jishin":"○","tsunami":"○","kaji":"×","naisui":"×","kazan":"×"}}
,{"type":"Feature","geometry":{"type":"Point","coordinates":[133.28295924,33.400745]},"properties":{"Name":"須崎市役所","Jusho":"高知県須崎市山手町1-7","kouzui":"×","gake":"×","takashio":"×","jishin":"○","tsunami":"○","kaji":"×","naisui":"×","kazan":"×"}}
,{"type":"Feature","geometry":{"type":"Point","coordinates":[133.28441046589,33.401765394426]},