var nara={"type":"FeatureCollection","name":"nara","features":[
{"type":"Feature","geometry":{"type":"Point","coordinates":[135.911,34.659]},"properties":{"Name":"田原小中学校","Jusho":"奈良県奈良市横田町１９９番地の１","kouzui":"○","gake":"○","takashio":"×","jishin":"○","tsunami":"×","kaji":"○","naisui":"○","kazan":"×"}}
,{"type":"Feature","geometry":{"type":"Point","coordinates":[135.912,34.66]},"properties":{"Name":"（旧）田原中学校","Jusho":"奈良県奈良市横田町２９５番地の１","kouzui":"○","gake":"○","takashio":"×","jishin":"○","tsunami":"×","kaji":"○","naisui":"○","kazan":"×"}}
,{"type":"Feature","geometry":{"type":"Point","coordinates":[135.908,34.657]},"properties":{"Name":"田原公民館","Jusho":"奈良県奈良市茗荷町１０７８番地の１","kouzui":"○","gake":"○","takashio":"×","jishin":"○","tsunami":"×","kaji":"○","naisui":"○","kazan":"×"}}
,{"type":"Feature","geometry":{"type":"Point","coordinates":[135.945,34.672]},"properties":{"Name":"（旧）水間小学校","Jusho":"奈良県奈良市水間町４５０番地の２","kouzui":"○","gake":"○","takashio":"×","jishin":"○","tsunami":"×","kaji":"○","naisui":"○","kazan":"×"}}
,{"type":"Feature","geometry":{"type":"Point","coordinates":[135.951,34.738]},"properties":{"Name":"柳生小学校","Jusho":"奈良県奈良市柳生下町１３８番地","kouzui":"○","gake":"○","takashio":"×","jishin":"○","tsunami":"×","kaji":"○","naisui":"○","kazan":"×"}}
,{"type":"Feature","geometry":{"type":"Point","coordinates":[135.952,34.731]},"properties":{"Name":"（旧）柳生中学校","Jusho":"奈良県奈良市柳生町２１２番地の２","kouzui":"○","gake":"○","takashio":"×","jishin":"○","tsunami":"×","kaji":"○","naisui":"○","kazan":"×"}}
,{"type":"Feature","geometry":{"type":"Point","coordinates":[135.979,34.716]},"properties":{"Name":"柳生公民館邑地分館","Jusho":"奈良県奈良市邑地町４５１番地の４","kouzui":"○","gake":"×","takashio":"×","jishin":"○","tsunami":"×","kaji":"○","naisui":"○","kazan":"×"}}
,{"type":"Feature","geometry":{"type":"Point","coordinates":[135.953,34.728]},"properties":{"Name":"柳生公民館","Jusho":"奈良県奈良市柳生３４０番地","kouzui":"○","gake":"×","takashio":"×","jishin":"○","tsunami":"×","kaji":"○","naisui":"○","kazan":"×"}}
,{"type":"Feature","geometry":{"type":"Point","coordinates":[135.967,34.697]},"properties":{"Name":"柳生地域ふれあい会館","Jusho":"奈良県奈良市丹生町８４７番地","kouzui":"○","gake":"×","takashio":"×","jishin":"○","tsunami":"×","kaji":"○","naisui":"○","kazan":"×"}}
,{"type":"Feature","geometry":{"type":"Point","coordinates":[135.916,34.696]},"properties":{"Name":"（旧）大柳生幼稚園","Jusho":"奈良県奈良市忍辱山町１３０３番地","kouzui":"○","gake":"×","takashio":"×","jishin":"○","tsunami":"×","kaji":"○","naisui":"○","kazan":"×"}}
,{"type":"Feature","geometry":{"type":"Point","coordinates":[135.934,34.713]},"properties":{"Name":"興東館柳生中学校","Jusho":"奈良県奈良市大柳生町８３２番地","kouzui":"○","gake":"○","takashio":"×","jishin":"○","tsunami":"×","kaji":"○","naisui":"○","kazan":"×"}}
,{"type":"Feature","geometry":{"type":"Point","coordinates":[135.922,34.716]},"properties":{"Name":"（旧）興東中学校","Jusho":"奈良県奈良市大柳生町４７３６番地","kouzui":"○","gake":"○","takashio":"×","jishin":"○","tsunami":"×","kaji":"○","naisui":"○","kazan":"×"}}
,{"type":"Feature","geometry":{"type":"Point","coordinates":[135.929,34.707]},"properties":{"Name":"興東公民館","Jusho":"奈良県奈良市大柳生町３６３３番地","kouzui":"○","gake":"○","takashio":"×","jishin":"○","tsunami":"×","kaji":"○","naisui":"○","kazan":"×"}}
,{"type":"Feature","geometry":{"type":"Point","coordinates":[135.926,34.683]},"properties":{"Name":"興東公民館大平尾分館","Jusho":"奈良県奈良市大平尾町４７１番地","kouzui":"○","gake":"○","takashio":"×","jishin":"○","tsunami":"×","kaji":"○","naisui":"○","kazan":"×"}}
,{"type":"Feature","geometry":{"type":"Point","coordinates":[135.912,34.717]},"properties":{"Name":"興東小学校","Jusho":"奈良県奈良市須川町１４２４番地","kouzui":"○","gake":"○","takashio":"×","jishin":"○","tsunami":"×","kaji":"○","naisui":"○","kazan":"×"}}
,{"type":"Feature","geometry":{"type":"Point","coordinates":[135.913,34.735]},"properties":{"Name":"興東公民館狭川分館","Jusho":"奈良県奈良市下狭川町３１０９番地の２","kouzui":"○","gake":"○","takashio":"×","jishin":"○","tsunami":"×","kaji":"○","naisui":"○","kazan":"×"}}
,{"type":"Feature","geometry":{"type":"Point","coordinates":[135.828,34.681]},"properties":{"Name":"椿井小学校","Jusho":"奈良県奈良市椿井町２５番地","kouzui":"○","gake":"○","takashio":"×","jishin":"○","tsunami":"×","kaji":"○","naisui":"○","kazan":"×"}}
,{"type":"Feature","geometry":{"type":"Point","coordinates":[135.826,34.682]},"properties":{"Name":"中部公民館","Jusho":"奈良県奈良市上三条町２３番地の４","kouzui":"○","gake":"○","takashio":"×","jishin":"○","tsunami":"×","kaji":"○","naisui":"○","kazan":"×"}}
,{"type":"Feature","geometry":{"type":"Point","coordinates":[135.824,34.675]},"properties":{"Name":"済美小学校","Jusho":"奈良県奈良市西木辻町５番地の２","kouzui":"○","gake":"○","takashio":"×","jishin":"○","tsunami":"×","kaji":"○","naisui":"○","kazan":"×"}}
,{"type":"Feature","geometry":{"type":"Point","coordinates":[135.82,34.674]},"properties":{"Name":"春日中学校","Jusho":"奈良県奈良市西木辻町６７番地","kouzui":"○","gake":"○","takashio":"×","jishin":"○","tsunami":"×","kaji":"○","naisui":"○","kazan":"×"}}
,{"type":"Feature","geometry":{"type":"Point","coordinates":[135.822,34.672]},"properties":{"Name":"春日公民館","Jusho":"奈良県奈良市南京終町一丁目８６番地の１","kouzui":"○","gake":"○","takashio":"×","jishin":"○","tsunami":"×","kaji":"○","naisui":"○","kazan":"×"}}
,{"type":"Feature","geometry":{"type":"Point","coordinates":[135.821,34.677]},"properties":{"Name":"生涯学習センター","Jusho":"奈良県奈良市杉ヶ町２３番地","kouzui":"○","gake":"○","takashio":"×","jishin":"○","tsunami":"×","kaji":"○","naisui":"○","kazan":"×"}}
,{"type":"Feature","geometry":{"type":"Point","coordinates":[135.821,34.664]},"properties":{"Name":"済美南小学校","Jusho":"奈良県奈良市南京終町６７６番地","kouzui":"○","gake":"○","takashio":"×","jishin":"○","tsunami":"×","kaji":"○","naisui":"○","kazan":"×"}}
,{"type":"Feature","geometry":{"type":"Point","coordinates":[135.836,34.675]},"properties":{"Name":"飛鳥小学校","Jusho":"奈良県奈良市紀寺町７８５番地","kouzui":"○","gake":"○","takashio":"×","jishin":"○","tsunami":"×","kaji":"○","naisui":"○","kazan":"×"}}
,{"type":"Feature","geometry":{"type":"Point","coordinates":[135.849,34.675]},"properties":{"Name":"飛鳥中学校","Jusho":"奈良県奈良市高畑町１４７５番地の１","kouzui":"○","gake":"○","takashio":"×","jishin":"○","tsunami":"×","kaji":"○","naisui":"○","kazan":"×"}}
,{"type":"Feature","geometry":{"type":"Point","coordinates":[135.835,34.676]},"properties":{"Name":"飛鳥公民館","Jusho":"奈良県奈良市紀寺町９８４番地","kouzui":"○","gake":"○","takashio":"×","jishin":"○","tsunami":"×","kaji":"○","naisui":"○","kazan":"×"}}
,{"type":"Feature","geometry":{"type":"Point","coordinates":[135.836,34.692]},"properties":{"Name":"鼓阪小学校","Jusho":"奈良県奈良市雑司町９７番地","kouzui":"○","gake":"○","takashio":"×","jishin":"○","tsunami":"×","kaji":"○","naisui":"○","kazan":"×"}}
,{"type":"Feature","geometry":{"type":"Point","coordinates":[135.832,34.693]},"properties":{"Name":"若草公民館","Jusho":"奈良県奈良市川上町５７５番地","kouzui":"○","gake":"○","takashio":"×","jishin":"○","tsunami":"×","kaji":"○","naisui":"○","kazan":"×"}}
,{"type":"Feature","geometry":{"type":"Point","coordinates":[135.837,34.696]},"properties":{"Name":"北人権文化センター","Jusho":"奈良県奈良市川上町４１８番地の１","kouzui":"○","gake":"○","takashio":"×","jishin":"○","tsunami":"×","kaji":"○","naisui":"○","kazan":"×"}}
,{"type":"Feature","geometry":{"type":"Point","coordinates":[135.836,34.697]},"properties":{"Name":"東之阪児童館","Jusho":"奈良県奈良市川上町４６１番地の１","kouzui":"○","gake":"○","takashio":"×","jishin":"○","tsunami":"×","kaji":"○","naisui":"○","kazan":"×"}}
,{"type":"Feature","geometry":{"type":"Point","coordinates":[135.837,34.709]},"properties":{"Name":"鼓阪北小学校","Jusho":"奈良県奈良市青山九丁目３番地の１","kouzui":"○","gake":"○","takashio":"×","jishin":"○","tsunami":"×","kaji":"○","naisui":"○","kazan":"×"}}
,{"type":"Feature","geometry":{"type":"Point","coordinates":[135.821,34.691]},"properties":{"Name":"佐保小学校","Jusho":"奈良県奈良市法蓮町２８０番地の１","kouzui":"○","gake":"○","takashio":"×","jishin":"○","tsunami":"×","kaji":"○","naisui":"○","kazan":"×"}}
,{"type":"Feature","geometry":{"type":"Point","coordinates":[135.831,34.695]},"properties":{"Name":"若草中学校","Jusho":"奈良県奈良市法蓮町１４１６番地の１","kouzui":"○","gake":"○","takashio":"×","jishin":"○","tsunami":"×","kaji":"○","naisui":"○","kazan":"×"}}
,{"type":"Feature","geometry":{"type":"Point","coordinates":[135.82,34.687]},"properties":{"Name":"中人権文化センター","Jusho":"奈良県奈良市畑中町４番地の４","kouzui":"○","gake":"○","takashio":"×","jishin":"○","tsunami":"×","kaji":"○","naisui":"○","kazan":"×"}}
,{"type":"Feature","geometry":{"type":"Point","coordinates":[135.815,34.689]},"properties":{"Name":"佐保川小学校","Jusho":"奈良県奈良市法蓮町２２９番地の１","kouzui":"○","gake":"○","takashio":"×","jishin":"○","tsunami":"×","kaji":"○","naisui":"○","kazan":"×"}}
,{"type":"Feature","geometry":{"type":"Point","coordinates":[135.811,34.693]},"properties":{"Name":"一条高等学校","Jusho":"奈良県奈良市法華寺町１３５１番地","kouzui":"○","gake":"○","takashio":"×","jishin":"○","tsunami":"×","kaji":"○","naisui":"○","kazan":"×"}}
,{"type":"Feature","geometry":{"type":"Point","coordinates":[135.811,34.684]},"properties":{"Name":"大宮小学校","Jusho":"奈良県奈良市大宮町四丁目２２３番地の１","kouzui":"○","gake":"○","takashio":"×","jishin":"○","tsunami":"×","kaji":"○","naisui":"○","kazan":"×"}}
,{"type":"Feature","geometry":{"type":"Point","coordinates":[135.809,34.683]},"properties":{"Name":"三笠公民館","Jusho":"奈良県奈良市大宮町四丁目３１３番地の３","kouzui":"○","gake":"○","takashio":"×","jishin":"○","tsunami":"×","kaji":"○","naisui":"○","kazan":"×"}}
,{"type":"Feature","geometry":{"type":"Point","coordinates":[135.823,34.683]},"properties":{"Name":"男女共同参画センター","Jusho":"奈良県奈良市西之阪町１２番地","kouzui":"○","gake":"○","takashio":"×","jishin":"○","tsunami":"×","kaji":"○","naisui":"○","kazan":"×"}}
,{"type":"Feature","geometry":{"type":"Point","coordinates":[135.823,34.683]},"properties":{"Name":"大宮児童館","Jusho":"奈良県奈良市西之阪町５番地の１","kouzui":"○","gake":"○","takashio":"×","jishin":"○","tsunami":"×","kaji":"○","naisui":"○","kazan":"×"}}
,{"type":"Feature","geometry":{"type":"Point","coordinates":[135.811,34.669]},"properties":{"Name":"大安寺小学校","Jusho":"奈良県奈良市大安寺二丁目１５番地の１","kouzui":"○","gake":"○","takashio":"×","jishin":"○","tsunami":"×","kaji":"○","naisui":"○","kazan":"×"}}
,{"type":"Feature","geometry":{"type":"Point","coordinates":[135.805,34.675]},"properties":{"Name":"大安寺西小学校","Jusho":"奈良県奈良市大安寺西一丁目３４２番地","kouzui":"○","gake":"○","takashio":"×","jishin":"○","tsunami":"×","kaji":"○","naisui":"○","kazan":"×"}}
,{"type":"Feature","geometry":{"type":"Point","coordinates":[135.806,34.68]},"properties":{"Name":"三笠中学校","Jusho":"奈良県奈良市三条川西町３番地の１","kouzui":"○","gake":"○","takashio":"×","jishin":"○","tsunami":"×","kaji":"○","naisui":"○","kazan":"×"}}
,{"type":"Feature","geometry":{"type":"Point","coordinates":[135.802,34.669]},"properties":{"Name":"防災センター","Jusho":"奈良県奈良市八条五丁目４０４番地の１","kouzui":"○","gake":"○","takashio":"×","jishin":"○","tsunami":"×","kaji":"○","naisui":"○","kazan":"×"}}
,{"type":"Feature","geometry":{"type":"Point","coordinates":[135.842,34.656]},"properties":{"Name":"東市小学校","Jusho":"奈良県奈良市古市町２６８番地","kouzui":"○","gake":"○","takashio":"×","jishin":"○","tsunami":"×","kaji":"○","naisui":"○","kazan":"×"}}
,{"type":"Feature","geometry":{"type":"Point","coordinates":[135.835,34.663]},"properties":{"Name":"東人権文化センター","Jusho":"奈良県奈良市古市町１２２６番地","kouzui":"○","gake":"○","takashio":"×","jishin":"○","tsunami":"×","kaji":"○","naisui":"○","kazan":"×"}}
,{"type":"Feature","geometry":{"type":"Point","coordinates":[135.832,34.654]},"properties":{"Name":"（旧）横井人権文化センター","Jusho":"奈良県奈良市横井一丁目６１６番地の１","kouzui":"○","gake":"○","takashio":"×","jishin":"○","tsunami":"×","kaji":"○","naisui":"○","kazan":"×"}}
,{"type":"Feature","geometry":{"type":"Point","coordinates":[135.835,34.662]},"properties":{"Name":"古市児童館","Jusho":"奈良県奈良市古市町１２６３番地","kouzui":"○","gake":"○","takashio":"×","jishin":"○","tsunami":"×","kaji":"○","naisui":"○","kazan":"×"}}
,{"type":"Feature","geometry":{"type":"Point","coordinates":[135.83,34.651]},"properties":{"Name":"横井児童館","Jusho":"奈良県奈良市横井五丁目３３７番地の２","kouzui":"○","gake":"○","takashio":"×","jishin":"○","tsunami":"×","kaji":"○","naisui":"○","kazan":"×"}}
,{"type":"Feature","geometry":{"type":"Point","coordinates":[135.822,34.656]},"properties":{"Name":"明治小学校","Jusho":"奈良県奈良市北永井町４１４番地","kouzui":"○","gake":"○","takashio":"×","jishin":"○","tsunami":"×","kaji":"○","naisui":"○","kazan":"×"}}
,{"type":"Feature","geometry":{"type":"Point","coordinates":[135.824,34.649]},"properties":{"Name":"都南中学校","Jusho":"奈良県奈良市南永井町９８番地の１","kouzui":"○","gake":"○","takashio":"×","jishin":"○","tsunami":"×","kaji":"○","naisui":"○","kazan":"×"}}
,{"type":"Feature","geometry":{"type":"Point","coordinates":[135.807,34.659]},"properties":{"Name":"辰市小学校","Jusho":"奈良県奈良市西九条町一丁目７番地の１","kouzui":"○","gake":"○","takashio":"×","jishin":"○","tsunami":"×","kaji":"○","naisui":"○","kazan":"×"}}
,{"type":"Feature","geometry":{"type":"Point","coordinates":[135.801,34.661]},"properties":{"Name":"南人権文化センター","Jusho":"奈良県奈良市杏町４０１番地の１","kouzui":"○","gake":"○","takashio":"×","jishin":"○","tsunami":"×","kaji":"○","naisui":"○","kazan":"×"}}
,{"type":"Feature","geometry":{"type":"Point","coordinates":[135.829,34.645]},"properties":{"Name":"帯解小学校","Jusho":"奈良県奈良市柴屋町９番地","kouzui":"○","gake":"○","takashio":"×","jishin":"○","tsunami":"×","kaji":"○","naisui":"○","kazan":"×"}}
,{"type":"Feature","geometry":{"type":"Point","coordinates":[135.829,34.644]},"properties":{"Name":"南部公民館","Jusho":"奈良県奈良市山町２７番地の１","kouzui":"○","gake":"○","takashio":"×","jishin":"○","tsunami":"×","kaji":"○","naisui":"○","kazan":"×"}}
,{"type":"Feature","geometry":{"type":"Point","coordinates":[135.854,34.633]},"properties":{"Name":"南部公民館精華分館","Jusho":"奈良県奈良市高樋町６４０番地の１","kouzui":"○","gake":"○","takashio":"×","jishin":"○","tsunami":"×","kaji":"○","naisui":"○","kazan":"×"}}
,{"type":"Feature","geometry":{"type":"Point","coordinates":[135.88,34.618]},"properties":{"Name":"米谷町集会所","Jusho":"奈良県奈良市米谷町５６６番地の１","kouzui":"○","gake":"○","takashio":"×","jishin":"○","tsunami":"×","kaji":"○","naisui":"○","kazan":"×"}}
,{"type":"Feature","geometry":{"type":"Point","coordinates":[135.876,34.626]},"properties":{"Name":"興隆寺町公民館","Jusho":"奈良県奈良市興隆寺町３５６番地の２","kouzui":"○","gake":"×","takashio":"×","jishin":"×","tsunami":"×","kaji":"○","naisui":"○","kazan":"×"}}
,{"type":"Feature","geometry":{"type":"Point","coordinates":[135.888,34.626]},"properties":{"Name":"中畑町公民館","Jusho":"奈良県奈良市中畑町１２７６番地","kouzui":"○","gake":"×","takashio":"×","jishin":"×","tsunami":"×","kaji":"○","naisui":"○","kazan":"×"}}
,{"type":"Feature","geometry":{"type":"Point","coordinates":[135.868,34.631]},"properties":{"Name":"北椿尾町集会所","Jusho":"奈良県奈良市北椿尾町６５９番地","kouzui":"○","gake":"○","takashio":"×","jishin":"×","tsunami":"×","kaji":"○","naisui":"○","kazan":"×"}}
,{"type":"Feature","geometry":{"type":"Point","coordinates":[135.788,34.681]},"properties":{"Name":"都跡小学校","Jusho":"奈良県奈良市四条大路五丁目６番地の１","kouzui":"○","gake":"○","takashio":"×","jishin":"○","tsunami":"×","kaji":"○","naisui":"○","kazan":"×"}}
,{"type":"Feature","geometry":{"type":"Point","coordinates":[135.796,34.676]},"properties":{"Name":"都跡中学校","Jusho":"奈良県奈良市柏木町１３番地","kouzui":"○","gake":"○","takashio":"×","jishin":"○","tsunami":"×","kaji":"○","naisui":"○","kazan":"×"}}
,{"type":"Feature","geometry":{"type":"Point","coordinates":[135.789,34.675]},"properties":{"Name":"都跡公民館","Jusho":"奈良県奈良市五条町２０４番地の１","kouzui":"○","gake":"○","takashio":"×","jishin":"○","tsunami":"×","kaji":"○","naisui":"○","kazan":"×"}}
,{"type":"Feature","geometry":{"type":"Point","coordinates":[135.778,34.711]},"properties":{"Name":"平城小学校","Jusho":"奈良県奈良市秋篠町１３９４番地","kouzui":"○","gake":"○","takashio":"×","jishin":"○","tsunami":"×","kaji":"○","naisui":"○","kazan":"×"}}
,{"type":"Feature","geometry":{"type":"Point","coordinates":[135.774,34.709]},"properties":{"Name":"平城中学校","Jusho":"奈良県奈良市秋篠町１３３３番地","kouzui":"○","gake":"○","takashio":"×","jishin":"○","tsunami":"×","kaji":"○","naisui":"○","kazan":"×"}}
,{"type":"Feature","geometry":{"type":"Point","coordinates":[135.778,34.706]},"properties":{"Name":"平城公民館","Jusho":"奈良県奈良市秋篠町１４６８番地","kouzui":"○","gake":"○","takashio":"×","jishin":"○","tsunami":"×","kaji":"○","naisui":"○","kazan":"×"}}
,{"type":"Feature","geometry":{"type":"Point","coordinates":[135.775,34.688]},"properties":{"Name":"伏見小学校","Jusho":"奈良県奈良市菅原町３７０番地","kouzui":"○","gake":"○","takashio":"×","jishin":"○","tsunami":"×","kaji":"○","naisui":"○","kazan":"×"}}
,{"type":"Feature","geometry":{"type":"Point","coordinates":[135.774,34.696]},"properties":{"Name":"伏見中学校","Jusho":"奈良県奈良市西大寺野神町一丁目６番地の１","kouzui":"○","gake":"○","takashio":"×","jishin":"○","tsunami":"×","kaji":"○","naisui":"○","kazan":"×"}}
,{"type":"Feature","geometry":{"type":"Point","coordinates":[135.774,34.689]},"properties":{"Name":"伏見公民館","Jusho":"奈良県奈良市青野町二丁目１３番地の４","kouzui":"○","gake":"○","takashio":"×","jishin":"○","tsunami":"×","kaji":"○","naisui":"○","kazan":"×"}}
,{"type":"Feature","geometry":{"type":"Point","coordinates":[135.773,34.699]},"properties":{"Name":"西大寺北小学校","Jusho":"奈良県奈良市西大寺赤田町一丁目６番地の１","kouzui":"○","gake":"○","takashio":"×","jishin":"○","tsunami":"×","kaji":"○","naisui":"○","kazan":"×"}}
,{"type":"Feature","geometry":{"type":"Point","coordinates":[135.77,34.681]},"properties":{"Name":"伏見南小学校","Jusho":"奈良県奈良市宝来五丁目２番地の１","kouzui":"○","gake":"○","takashio":"×","jishin":"○","tsunami":"×","kaji":"○","naisui":"○","kazan":"×"}}
,{"type":"Feature","geometry":{"type":"Point","coordinates":[135.776,34.674]},"properties":{"Name":"京西中学校","Jusho":"奈良県奈良市平松四丁目３番地の１","kouzui":"○","gake":"○","takashio":"×","jishin":"○","tsunami":"×","kaji":"○","naisui":"○","kazan":"×"}}
,{"type":"Feature","geometry":{"type":"Point","coordinates":[135.772,34.671]},"properties":{"Name":"六条小学校","Jusho":"奈良県奈良市六条二丁目１４番地の１","kouzui":"○","gake":"○","takashio":"×","jishin":"○","tsunami":"×","kaji":"○","naisui":"○","kazan":"×"}}
,{"type":"Feature","geometry":{"type":"Point","coordinates":[135.771,34.672]},"properties":{"Name":"京西公民館","Jusho":"奈良県奈良市六条西一丁目３番地の４３の２","kouzui":"○","gake":"○","takashio":"×","jishin":"○","tsunami":"×","kaji":"○","naisui":"○","kazan":"×"}}
,{"type":"Feature","geometry":{"type":"Point","coordinates":[135.758,34.693]},"properties":{"Name":"あやめ池小学校","Jusho":"奈良県奈良市あやめ池九丁目９３９番地の３９","kouzui":"○","gake":"○","takashio":"×","jishin":"○","tsunami":"×","kaji":"○","naisui":"○","kazan":"×"}}
,{"type":"Feature","geometry":{"type":"Point","coordinates":[135.75,34.697]},"properties":{"Name":"西部公民館","Jusho":"奈良県奈良市学園南三丁目１番地の５","kouzui":"○","gake":"○","takashio":"×","jishin":"○","tsunami":"×","kaji":"○","naisui":"○","kazan":"×"}}
,{"type":"Feature","geometry":{"type":"Point","coordinates":[135.764,34.714]},"properties":{"Name":"平城西小学校","Jusho":"奈良県奈良市東登美ヶ丘三丁目１０９３番地の１","kouzui":"○","gake":"○","takashio":"×","jishin":"○","tsunami":"×","kaji":"○","naisui":"○","kazan":"×"}}
,{"type":"Feature","geometry":{"type":"Point","coordinates":[135.762,34.714]},"properties":{"Name":"登美ヶ丘中学校","Jusho":"奈良県奈良市東登美ヶ丘三丁目１０５９番地","kouzui":"○","gake":"○","takashio":"×","jishin":"○","tsunami":"×","kaji":"○","naisui":"○","kazan":"×"}}
,{"type":"Feature","geometry":{"type":"Point","coordinates":[135.755,34.713]},"properties":{"Name":"登美ヶ丘南公民館","Jusho":"奈良県奈良市中山町西二丁目９２１番地の１","kouzui":"○","gake":"○","takashio":"×","jishin":"○","tsunami":"×","kaji":"○","naisui":"○","kazan":"×"}}
,{"type":"Feature","geometry":{"type":"Point","coordinates":[135.753,34.706]},"properties":{"Name":"鶴舞小学校","Jusho":"奈良県奈良市鶴舞東町２番地の１","kouzui":"○","gake":"○","takashio":"×","jishin":"○","tsunami":"×","kaji":"○","naisui":"○","kazan":"×"}}
,{"type":"Feature","geometry":{"type":"Point","coordinates":[135.743,34.7]},"properties":{"Name":"青和小学校","Jusho":"奈良県奈良市百楽園四丁目１番地の１","kouzui":"○","gake":"○","takashio":"×","jishin":"○","tsunami":"×","kaji":"○","naisui":"○","kazan":"×"}}
,{"type":"Feature","geometry":{"type":"Point","coordinates":[135.738,34.705]},"properties":{"Name":"二名公民館","Jusho":"奈良県奈良市学園赤松町３６８４番地","kouzui":"○","gake":"○","takashio":"×","jishin":"○","tsunami":"×","kaji":"○","naisui":"○","kazan":"×"}}
,{"type":"Feature","geometry":{"type":"Point","coordinates":[135.756,34.72]},"properties":{"Name":"東登美ヶ丘小学校","Jusho":"奈良県奈良市東登美ヶ丘四丁目２１番地の３３","kouzui":"○","gake":"○","takashio":"×","jishin":"○","tsunami":"×","kaji":"○","naisui":"○","kazan":"×"}}
,{"type":"Feature","geometry":{"type":"Point","coordinates":[135.753,34.723]},"properties":{"Name":"登美ヶ丘北中学校","Jusho":"奈良県奈良市北登美ヶ丘一丁目１番地の１","kouzui":"○","gake":"○","takashio":"×","jishin":"○","tsunami":"×","kaji":"○","naisui":"○","kazan":"×"}}
,{"type":"Feature","geometry":{"type":"Point","coordinates":[135.739,34.72]},"properties":{"Name":"登美ヶ丘小学校","Jusho":"奈良県奈良市西登美ケ丘四丁目２１番地の１","kouzui":"○","gake":"○","takashio":"×","jishin":"○","tsunami":"×","kaji":"○","naisui":"○","kazan":"×"}}
,{"type":"Feature","geometry":{"type":"Point","coordinates":[135.749,34.72]},"properties":{"Name":"登美ヶ丘公民館","Jusho":"奈良県奈良市中登美ケ丘三丁目４１６２番地の８１","kouzui":"○","gake":"○","takashio":"×","jishin":"○","tsunami":"×","kaji":"○","naisui":"○","kazan":"×"}}
,{"type":"Feature","geometry":{"type":"Point","coordinates":[135.737,34.708]},"properties":{"Name":"二名小学校","Jusho":"奈良県奈良市二名一丁目３７１６番地の１","kouzui":"○","gake":"○","takashio":"×","jishin":"○","tsunami":"×","kaji":"○","naisui":"○","kazan":"×"}}
,{"type":"Feature","geometry":{"type":"Point","coordinates":[135.738,34.706]},"properties":{"Name":"二名中学校","Jusho":"奈良県奈良市二名一丁目３６６７番地の２","kouzui":"○","gake":"○","takashio":"×","jishin":"○","tsunami":"×","kaji":"○","naisui":"○","kazan":"×"}}
,{"type":"Feature","geometry":{"type":"Point","coordinates":[135.733,34.697]},"properties":{"Name":"富雄北小学校","Jusho":"奈良県奈良市富雄北一丁目１３番地の６","kouzui":"○","gake":"○","takashio":"×","jishin":"○","tsunami":"×","kaji":"○","naisui":"○","kazan":"×"}}
,{"type":"Feature","geometry":{"type":"Point","coordinates":[135.725,34.695]},"properties":{"Name":"鳥見小学校","Jusho":"奈良県奈良市鳥見町三丁目１１番地の２","kouzui":"○","gake":"○","takashio":"×","jishin":"○","tsunami":"×","kaji":"○","naisui":"○","kazan":"×"}}
,{"type":"Feature","geometry":{"type":"Point","coordinates":[135.727,34.689]},"properties":{"Name":"富雄公民館","Jusho":"奈良県奈良市鳥見町二丁目９","kouzui":"○","gake":"○","takashio":"×","jishin":"○","tsunami":"×","kaji":"○","naisui":"○","kazan":"×"}}
,{"type":"Feature","geometry":{"type":"Point","coordinates":[135.742,34.683]},"properties":{"Name":"三碓小学校","Jusho":"奈良県奈良市西千代ヶ丘一丁目２０番地の９","kouzui":"○","gake":"○","takashio":"×","jishin":"○","tsunami":"×","kaji":"○","naisui":"○","kazan":"×"}}
,{"type":"Feature","geometry":{"type":"Point","coordinates":[135.736,34.69]},"properties":{"Name":"富雄中学校","Jusho":"奈良県奈良市三碓二丁目３番地の１２","kouzui":"○","gake":"○","takashio":"×","jishin":"○","tsunami":"×","kaji":"○","naisui":"○","kazan":"×"}}
,{"type":"Feature","geometry":{"type":"Point","coordinates":[135.733,34.676]},"properties":{"Name":"富雄第三小中学校","Jusho":"奈良県奈良市帝塚山南二丁目１１番地の１","kouzui":"○","gake":"○","takashio":"×","jishin":"○","tsunami":"×","kaji":"○","naisui":"○","kazan":"×"}}
,{"type":"Feature","geometry":{"type":"Point","coordinates":[135.749,34.675]},"properties":{"Name":"富雄南小学校","Jusho":"奈良県奈良市中町４１８５番地","kouzui":"○","gake":"○","takashio":"×","jishin":"○","tsunami":"×","kaji":"○","naisui":"○","kazan":"×"}}
,{"type":"Feature","geometry":{"type":"Point","coordinates":[135.753,34.682]},"properties":{"Name":"富雄南中学校","Jusho":"奈良県奈良市藤ノ木台一丁目５番地の１３","kouzui":"○","gake":"○","takashio":"×","jishin":"○","tsunami":"×","kaji":"○","naisui":"○","kazan":"×"}}
,{"type":"Feature","geometry":{"type":"Point","coordinates":[135.75,34.679]},"properties":{"Name":"富雄南公民館","Jusho":"奈良県奈良市中町５０１番地の３","kouzui":"○","gake":"○","takashio":"×","jishin":"○","tsunami":"×","kaji":"○","naisui":"○","kazan":"×"}}
,{"type":"Feature","geometry":{"type":"Point","coordinates":[135.778,34.72]},"properties":{"Name":"神功小学校","Jusho":"奈良県奈良市神功二丁目２番地","kouzui":"○","gake":"○","takashio":"×","jishin":"○","tsunami":"×","kaji":"○","naisui":"○","kazan":"×"}}
,{"type":"Feature","geometry":{"type":"Point","coordinates":[135.78,34.72]},"properties":{"Name":"平城西中学校","Jusho":"奈良県奈良市神功二丁目１番地","kouzui":"○","gake":"○","takashio":"×","jishin":"○","tsunami":"×","kaji":"○","naisui":"○","kazan":"×"}}
,{"type":"Feature","geometry":{"type":"Point","coordinates":[135.777,34.721]},"properties":{"Name":"平城西公民館","Jusho":"奈良県奈良市神功四丁目２５番地","kouzui":"○","gake":"○","takashio":"×","jishin":"○","tsunami":"×","kaji":"○","naisui":"○","kazan":"×"}}
,{"type":"Feature","geometry":{"type":"Point","coordinates":[135.786,34.722]},"properties":{"Name":"右京小学校","Jusho":"奈良県奈良市右京四丁目１１番地の１","kouzui":"○","gake":"○","takashio":"×","jishin":"○","tsunami":"×","kaji":"○","naisui":"○","kazan":"×"}}
,{"type":"Feature","geometry":{"type":"Point","coordinates":[135.798,34.716]},"properties":{"Name":"朱雀小学校","Jusho":"奈良県奈良市朱雀六丁目１０番地の１","kouzui":"○","gake":"○","takashio":"×","jishin":"○","tsunami":"×","kaji":"○","naisui":"○","kazan":"×"}}
,{"type":"Feature","geometry":{"type":"Point","coordinates":[135.8,34.716]},"properties":{"Name":"平城東中学校","Jusho":"奈良県奈良市朱雀六丁目１１番地","kouzui":"○","gake":"○","takashio":"×","jishin":"○","tsunami":"×","kaji":"○","naisui":"○","kazan":"×"}}
,{"type":"Feature","geometry":{"type":"Point","coordinates":[135.797,34.716]},"properties":{"Name":"平城東公民館","Jusho":"奈良県奈良市朱雀六丁目９番地の１","kouzui":"○","gake":"○","takashio":"×","jishin":"○","tsunami":"×","kaji":"○","naisui":"○","kazan":"×"}}
,{"type":"Feature","geometry":{"type":"Point","coordinates":[135.806,34.714]},"properties":{"Name":"左京小学校","Jusho":"奈良県奈良市左京三丁目１番地の１","kouzui":"○","gake":"○","takashio":"×","jishin":"○","tsunami":"×","kaji":"○","naisui":"○","kazan":"×"}}
,{"type":"Feature","geometry":{"type":"Point","coordinates":[135.817,34.71]},"properties":{"Name":"佐保台小学校","Jusho":"奈良県奈良市佐保台三丁目９０２番地の３４１","kouzui":"○","gake":"○","takashio":"×","jishin":"○","tsunami":"×","kaji":"○","naisui":"○","kazan":"×"}}
,{"type":"Feature","geometry":{"type":"Point","coordinates":[136.044,34.711]},"properties":{"Name":"月ヶ瀬小中学校及び月ヶ瀬体育館","Jusho":"奈良県奈良市月ヶ瀬尾山２５５１番地","kouzui":"○","gake":"○","takashio":"×","jishin":"×","tsunami":"×","kaji":"○","naisui":"○","kazan":"×"}}
,{"type":"Feature","geometry":{"type":"Point","coordinates":[136.044,34.71]},"properties":{"Name":"月ヶ瀬公民館","Jusho":"奈良県奈良市月ヶ瀬尾山２８１５番地","kouzui":"○","gake":"○","takashio":"×","jishin":"○","tsunami":"×","kaji":"○","naisui":"○","kazan":"×"}}
,{"type":"Feature","geometry":{"type":"Point","coordinates":[135.942,34.594]},"properties":{"Name":"（旧）並松小学校","Jusho":"奈良県奈良市藺生町１８９４番地","kouzui":"○","gake":"○","takashio":"×","jishin":"○","tsunami":"×","kaji":"○","naisui":"○","kazan":"×"}}
,{"type":"Feature","geometry":{"type":"Point","coordinates":[135.959,34.605]},"properties":{"Name":"都祁小学校","Jusho":"奈良県奈良市都祁白石町９７４番地","kouzui":"○","gake":"○","takashio":"×","jishin":"○","tsunami":"×","kaji":"○","naisui":"○","kazan":"×"}}
,{"type":"Feature","geometry":{"type":"Point","coordinates":[135.955,34.607]},"properties":{"Name":"都祁中学校","Jusho":"奈良県奈良市針町２５５４番地","kouzui":"○","gake":"○","takashio":"×","jishin":"○","tsunami":"×","kaji":"○","naisui":"○","kazan":"×"}}
,{"type":"Feature","geometry":{"type":"Point","coordinates":[135.956,34.613]},"properties":{"Name":"都祁公民館","Jusho":"奈良県奈良市針町２１９１番地","kouzui":"○","gake":"○","takashio":"×","jishin":"○","tsunami":"×","kaji":"○","naisui":"○","kazan":"×"}}
,{"type":"Feature","geometry":{"type":"Point","coordinates":[135.965,34.574]},"properties":{"Name":"（旧）吐山小学校","Jusho":"奈良県奈良市都祁吐山町３９３９番地","kouzui":"○","gake":"○","takashio":"×","jishin":"○","tsunami":"×","kaji":"○","naisui":"○","kazan":"×"}}
,{"type":"Feature","geometry":{"type":"Point","coordinates":[135.972,34.625]},"properties":{"Name":"（旧）六郷小学校","Jusho":"奈良県奈良市針ケ別所町８２０番地","kouzui":"○","gake":"○","takashio":"×","jishin":"○","tsunami":"×","kaji":"○","naisui":"○","kazan":"×"}}
,{"type":"Feature","geometry":{"type":"Point","coordinates":[135.834,34.707]},"properties":{"Name":"青山近隣公園","Jusho":"奈良県奈良市青山三丁目２番地","kouzui":"○","gake":"○","takashio":"×","jishin":"○","tsunami":"×","kaji":"○","naisui":"○","kazan":"×"}}
,{"type":"Feature","geometry":{"type":"Point","coordinates":[135.797,34.666]},"properties":{"Name":"柏木公園","Jusho":"奈良県奈良市柏木町２５５番地の１","kouzui":"×","gake":"○","takashio":"×","jishin":"○","tsunami":"×","kaji":"○","naisui":"○","kazan":"×"}}
,{"type":"Feature","geometry":{"type":"Point","coordinates":[135.746,34.708]},"properties":{"Name":"大渕池公園","Jusho":"奈良県奈良市大渕池町　外","kouzui":"○","gake":"○","takashio":"×","jishin":"○","tsunami":"×","kaji":"○","naisui":"○","kazan":"×"}}
,{"type":"Feature","geometry":{"type":"Point","coordinates":[135.754,34.723]},"properties":{"Name":"登美ヶ丘近隣公園","Jusho":"奈良県奈良市北登美ヶ丘一丁目１７６１番地の１","kouzui":"○","gake":"○","takashio":"×","jishin":"○","tsunami":"×","kaji":"○","naisui":"○","kazan":"×"}}
,{"type":"Feature","geometry":{"type":"Point","coordinates":[135.75,34.721]},"properties":{"Name":"中登美ヶ丘近隣公園","Jusho":"奈良県奈良市中登美ヶ丘三丁目６番地","kouzui":"○","gake":"○","takashio":"×","jishin":"○","tsunami":"×","kaji":"○","naisui":"○","kazan":"×"}}
,{"type":"Feature","geometry":{"type":"Point","coordinates":[135.786,34.719]},"properties":{"Name":"平城第３号近隣公園","Jusho":"奈良県奈良市右京三丁目１８番地","kouzui":"○","gake":"○","takashio":"×","jishin":"○","tsunami":"×","kaji":"○","naisui":"○","kazan":"×"}}
,{"type":"Feature","geometry":{"type":"Point","coordinates":[135.795,34.719]},"properties":{"Name":"平城第２号公園","Jusho":"奈良県奈良市朱雀二丁目１２番地","kouzui":"○","gake":"○","takashio":"×","jishin":"○","tsunami":"×","kaji":"○","naisui":"○","kazan":"×"}}
,{"type":"Feature","geometry":{"type":"Point","coordinates":[135.804,34.711]},"properties":{"Name":"平城第１号近隣公園","Jusho":"奈良県奈良市右京二丁目１番地","kouzui":"○","gake":"○","takashio":"×","jishin":"○","tsunami":"×","kaji":"○","naisui":"○","kazan":"×"}}
,{"type":"Feature","geometry":{"type":"Point","coordinates":[135.817,34.707]},"properties":{"Name":"佐保山近隣公園","Jusho":"奈良県奈良市佐保台二丁目９０２番地の３７４","kouzui":"○","gake":"○","takashio":"×","jishin":"○","tsunami":"×","kaji":"○","naisui":"○","kazan":"×"}}
,{"type":"Feature","geometry":{"type":"Point","coordinates":[135.784,34.697]},"properties":{"Name":"西大寺近隣公園","Jusho":"奈良県奈良市西大寺東町一丁目７２番地の５","kouzui":"○","gake":"○","takashio":"×","jishin":"○","tsunami":"×","kaji":"○","naisui":"○","kazan":"×"}}
,{"type":"Feature","geometry":{"type":"Point","coordinates":[135.843,34.654]},"properties":{"Name":"古市公園","Jusho":"奈良県奈良市９８番地","kouzui":"○","gake":"○","takashio":"×","jishin":"○","tsunami":"×","kaji":"○","naisui":"○","kazan":"×"}}
,{"type":"Feature","geometry":{"type":"Point","coordinates":[135.834,34.684]},"properties":{"Name":"奈良公園","Jusho":"奈良県奈良市登大路町　外","kouzui":"○","gake":"○","takashio":"×","jishin":"○","tsunami":"×","kaji":"○","naisui":"○","kazan":"×"}}
,{"type":"Feature","geometry":{"type":"Point","coordinates":[135.83,34.699]},"properties":{"Name":"鴻ノ池運動公園","Jusho":"奈良県奈良市佐保山四丁目５番地の１","kouzui":"○","gake":"○","takashio":"×","jishin":"○","tsunami":"×","kaji":"○","naisui":"○","kazan":"×"}}
,{"type":"Feature","geometry":{"type":"Point","coordinates":[135.798,34.692]},"properties":{"Name":"平城宮跡","Jusho":"奈良県奈良市法蓮町　外","kouzui":"○","gake":"○","takashio":"×","jishin":"○","tsunami":"×","kaji":"○","naisui":"○","kazan":"×"}}
,{"type":"Feature","geometry":{"type":"Point","coordinates":[135.758,34.683]},"properties":{"Name":"奈良国際ゴルフ倶楽部","Jusho":"奈良県奈良市宝来五丁目　外","kouzui":"○","gake":"○","takashio":"×","jishin":"○","tsunami":"×","kaji":"○","naisui":"○","kazan":"×"}}
,{"type":"Feature","geometry":{"type":"Point","coordinates":[135.718,34.703]},"properties":{"Name":"飛鳥カンツリー倶楽部","Jusho":"奈良県奈良市二名七丁目　他","kouzui":"○","gake":"○","takashio":"×","jishin":"○","tsunami":"×","kaji":"○","naisui":"○","kazan":"×"}}
,{"type":"Feature","geometry":{"type":"Point","coordinates":[135.747,34.512]},"properties":{"Name":"片塩小学校","Jusho":"奈良県大和高田市旭北町2-1","kouzui":"○","gake":"×","takashio":"×","jishin":"○","tsunami":"×","kaji":"×","naisui":"×","kazan":"×"}}
,{"type":"Feature","geometry":{"type":"Point","coordinates":[135.758,34.483]},"properties":{"Name":"菅原小学校","Jusho":"奈良県大和高田市大字根成柿436","kouzui":"○","gake":"×","takashio":"×","jishin":"○","tsunami":"×","kaji":"×","naisui":"×","kazan":"×"}}
,{"type":"Feature","geometry":{"type":"Point","coordinates":[135.756,34.521]},"properties":{"Name":"土庫小学校","Jusho":"奈良県大和高田市土庫3-2-61","kouzui":"○","gake":"×","takashio":"×","jishin":"○","tsunami":"×","kaji":"×","naisui":"×","kazan":"×"}}
,{"type":"Feature","geometry":{"type":"Point","coordinates":[135.74,34.513]},"properties":{"Name":"高田小学校","Jusho":"奈良県大和高田市大中東町5-15","kouzui":"×","gake":"×","takashio":"×","jishin":"○","tsunami":"×","kaji":"×","naisui":"×","kazan":"×"}}
,{"type":"Feature","geometry":{"type":"Point","coordinates":[135.739,34.519]},"properties":{"Name":"磐園小学校","Jusho":"奈良県大和高田市大字有井1","kouzui":"×","gake":"×","takashio":"×","jishin":"○","tsunami":"×","kaji":"×","naisui":"×","kazan":"×"}}
,{"type":"Feature","geometry":{"type":"Point","coordinates":[135.725,34.519]},"properties":{"Name":"陵西小学校","Jusho":"奈良県大和高田市大字池田3","kouzui":"○","gake":"×","takashio":"×","jishin":"○","tsunami":"×","kaji":"×","naisui":"×","kazan":"×"}}
,{"type":"Feature","geometry":{"type":"Point","coordinates":[135.746,34.502]},"properties":{"Name":"浮孔小学校","Jusho":"奈良県大和高田市中三倉堂2-5-43","kouzui":"○","gake":"×","takashio":"×","jishin":"○","tsunami":"×","kaji":"×","naisui":"×","kazan":"×"}}
,{"type":"Feature","geometry":{"type":"Point","coordinates":[135.739,34.499]},"properties":{"Name":"浮孔西小学校","Jusho":"奈良県大和高田市曽大根1-5-1","kouzui":"○","gake":"×","takashio":"×","jishin":"○","tsunami":"×","kaji":"×","naisui":"×","kazan":"×"}}
,{"type":"Feature","geometry":{"type":"Point","coordinates":[135.746,34.501]},"properties":{"Name":"片塩中学校","Jusho":"奈良県大和高田市中三倉堂2-9-28","kouzui":"○","gake":"×","takashio":"×","jishin":"○","tsunami":"×","kaji":"×","naisui":"×","kazan":"×"}}
,{"type":"Feature","geometry":{"type":"Point","coordinates":[135.739,34.513]},"properties":{"Name":"高田中学校","Jusho":"奈良県大和高田市大中東町5-48","kouzui":"○","gake":"×","takashio":"×","jishin":"○","tsunami":"×","kaji":"×","naisui":"×","kazan":"×"}}
,{"type":"Feature","geometry":{"type":"Point","coordinates":[135.729,34.517]},"properties":{"Name":"高田西中学校","Jusho":"奈良県大和高田市大字池田330","kouzui":"○","gake":"×","takashio":"×","jishin":"○","tsunami":"×","kaji":"×","naisui":"×","kazan":"×"}}
,{"type":"Feature","geometry":{"type":"Point","coordinates":[135.74,34.509]},"properties":{"Name":"県立高田高等学校","Jusho":"奈良県大和高田市礒野東町6-6","kouzui":"○","gake":"×","takashio":"×","jishin":"○","tsunami":"×","kaji":"×","naisui":"×","kazan":"×"}}
,{"type":"Feature","geometry":{"type":"Point","coordinates":[135.756,34.518]},"properties":{"Name":"市立高田商業高等学校","Jusho":"奈良県大和高田市材木町8-3","kouzui":"○","gake":"×","takashio":"×","jishin":"○","tsunami":"×","kaji":"×","naisui":"×","kazan":"×"}}
,{"type":"Feature","geometry":{"type":"Point","coordinates":[135.756,34.486]},"properties":{"Name":"菅原校区公民館","Jusho":"奈良県大和高田市大字吉井77-1","kouzui":"○","gake":"×","takashio":"×","jishin":"○","tsunami":"×","kaji":"×","naisui":"×","kazan":"×"}}
,{"type":"Feature","geometry":{"type":"Point","coordinates":[135.748,34.518]},"properties":{"Name":"武道館","Jusho":"奈良県大和高田市幸町11-14","kouzui":"○","gake":"×","takashio":"×","jishin":"○","tsunami":"×","kaji":"×","naisui":"×","kazan":"×"}}
,{"type":"Feature","geometry":{"type":"Point","coordinates":[135.744,34.514]},"properties":{"Name":"文化会館（さざんかホール）","Jusho":"奈良県大和高田市本郷町6-36","kouzui":"○","gake":"×","takashio":"×","jishin":"○","tsunami":"×","kaji":"×","naisui":"×","kazan":"×"}}
,{"type":"Feature","geometry":{"type":"Point","coordinates":[135.718,34.517]},"properties":{"Name":"勤労青少年ホーム","Jusho":"奈良県大和高田市大字野口20-1","kouzui":"○","gake":"×","takashio":"×","jishin":"×","tsunami":"×","kaji":"×","naisui":"×","kazan":"×"}}
,{"type":"Feature","geometry":{"type":"Point","coordinates":[135.744,34.496]},"properties":{"Name":"葛城コミュニティセンター","Jusho":"奈良県大和高田市大字曽大根783-1","kouzui":"○","gake":"×","takashio":"×","jishin":"○","tsunami":"×","kaji":"×","naisui":"×","kazan":"×"}}
,{"type":"Feature","geometry":{"type":"Point","coordinates":[135.748,34.491]},"properties":{"Name":"総合公園プール","Jusho":"奈良県大和高田市大字西坊城414","kouzui":"○","gake":"×","takashio":"×","jishin":"○","tsunami":"×","kaji":"×","naisui":"×","kazan":"×"}}
,{"type":"Feature","geometry":{"type":"Point","coordinates":[135.732,34.519]},"properties":{"Name":"総合福祉会館（ゆうゆうセンター）","Jusho":"奈良県大和高田市大字池田418-1","kouzui":"○","gake":"×","takashio":"×","jishin":"○","tsunami":"×","kaji":"×","naisui":"×","kazan":"×"}}
,{"type":"Feature","geometry":{"type":"Point","coordinates":[135.787,34.646]},"properties":{"Name":"大和郡山市立郡山南小学校","Jusho":"奈良県大和郡山市柳町８５番地","kouzui":"○","gake":"×","takashio":"×","jishin":"○","tsunami":"×","kaji":"×","naisui":"○","kazan":"×"}}
,{"type":"Feature","geometry":{"type":"Point","coordinates":[135.787,34.654]},"properties":{"Name":"大和郡山市立郡山北小学校","Jusho":"奈良県大和郡山市北郡山町１１５番地","kouzui":"○","gake":"×","takashio":"×","jishin":"○","tsunami":"×","kaji":"×","naisui":"○","kazan":"×"}}
,{"type":"Feature","geometry":{"type":"Point","coordinates":[135.772,34.654]},"properties":{"Name":"大和郡山市立郡山中学校","Jusho":"奈良県大和郡山市柳町４０４番地","kouzui":"○","gake":"×","takashio":"×","jishin":"○","tsunami":"×","kaji":"×","naisui":"○","kazan":"×"}}
,{"type":"Feature","geometry":{"type":"Point","coordinates":[135.782,34.648]},"properties":{"Name":"大和郡山市立中央公民館","Jusho":"奈良県大和郡山市南郡山町５２９番地１","kouzui":"○","gake":"×","takashio":"×","jishin":"○","tsunami":"×","kaji":"○","naisui":"○","kazan":"×"}}
,{"type":"Feature","geometry":{"type":"Point","coordinates":[135.77,34.649]},"properties":{"Name":"大和郡山市立郡山西小学校","Jusho":"奈良県大和郡山市田中町６３２番地","kouzui":"○","gake":"×","takashio":"×","jishin":"○","tsunami":"×","kaji":"×","naisui":"○","kazan":"×"}}
,{"type":"Feature","geometry":{"type":"Point","coordinates":[135.749,34.652]},"properties":{"Name":"大和郡山市立矢田小学校","Jusho":"奈良県大和郡山市矢田町９６６番地２","kouzui":"○","gake":"○","takashio":"×","jishin":"○","tsunami":"×","kaji":"×","naisui":"○","kazan":"×"}}
,{"type":"Feature","geometry":{"type":"Point","coordinates":[135.746,34.646]},"properties":{"Name":"大和郡山市総合公園多目的体育館","Jusho":"奈良県大和郡山市矢田山町２番地","kouzui":"○","gake":"×","takashio":"×","jishin":"○","tsunami":"×","kaji":"○","naisui":"○","kazan":"×"}}
,{"type":"Feature","geometry":{"type":"Point","coordinates":[135.744,34.631]},"properties":{"Name":"大和郡山市立矢田南小学校","Jusho":"奈良県大和郡山市山田町８３番地","kouzui":"○","gake":"○","takashio":"×","jishin":"○","tsunami":"×","kaji":"×","naisui":"○","kazan":"×"}}
,{"type":"Feature","geometry":{"type":"Point","coordinates":[135.765,34.644]},"properties":{"Name":"大和郡山市立郡山西中学校","Jusho":"奈良県大和郡山市田中町７６７番地","kouzui":"○","gake":"×","takashio":"×","jishin":"○","tsunami":"×","kaji":"×","naisui":"○","kazan":"×"}}
,{"type":"Feature","geometry":{"type":"Point","coordinates":[135.765,34.63]},"properties":{"Name":"大和郡山市立片桐小学校","Jusho":"奈良県大和郡山市池ノ内町１１７番地","kouzui":"○","gake":"×","takashio":"×","jishin":"○","tsunami":"×","kaji":"×","naisui":"○","kazan":"×"}}
,{"type":"Feature","geometry":{"type":"Point","coordinates":[135.756,34.631]},"properties":{"Name":"大和郡山市立片桐西小学校","Jusho":"奈良県大和郡山市小泉町１６１８番地","kouzui":"○","gake":"×","takashio":"×","jishin":"○","tsunami":"×","kaji":"×","naisui":"○","kazan":"×"}}
,{"type":"Feature","geometry":{"type":"Point","coordinates":[135.761,34.628]},"properties":{"Name":"大和郡山市立片桐中学校","Jusho":"奈良県大和郡山市小泉町１７３番地１","kouzui":"○","gake":"×","takashio":"×","jishin":"○","tsunami":"×","kaji":"×","naisui":"○","kazan":"×"}}
,{"type":"Feature","geometry":{"type":"Point","coordinates":[135.763,34.629]},"properties":{"Name":"大和郡山市立片桐地区公民館","Jusho":"奈良県大和郡山市小泉町１０５番地１","kouzui":"○","gake":"×","takashio":"×","jishin":"○","tsunami":"×","kaji":"○","naisui":"○","kazan":"×"}}
,{"type":"Feature","geometry":{"type":"Point","coordinates":[135.782,34.627]},"properties":{"Name":"大和郡山市立筒井小学校","Jusho":"奈良県大和郡山市筒井町１２０番地","kouzui":"○","gake":"×","takashio":"×","jishin":"○","tsunami":"×","kaji":"×","naisui":"○","kazan":"×"}}
,{"type":"Feature","geometry":{"type":"Point","coordinates":[135.78,34.608]},"properties":{"Name":"大和郡山市立昭和小学校","Jusho":"奈良県大和郡山市額田部北町５５５番地","kouzui":"○","gake":"×","takashio":"×","jishin":"○","tsunami":"×","kaji":"×","naisui":"○","kazan":"×"}}
,{"type":"Feature","geometry":{"type":"Point","coordinates":[135.779,34.624]},"properties":{"Name":"大和郡山市立郡山南中学校","Jusho":"奈良県大和郡山市筒井町３９８番地","kouzui":"○","gake":"×","takashio":"×","jishin":"○","tsunami":"×","kaji":"×","naisui":"○","kazan":"×"}}
,{"type":"Feature","geometry":{"type":"Point","coordinates":[135.779,34.621]},"properties":{"Name":"大和郡山市立南部公民館","Jusho":"奈良県大和郡山市筒井町６００番地４","kouzui":"○","gake":"×","takashio":"×","jishin":"○","tsunami":"×","kaji":"○","naisui":"○","kazan":"×"}}
,{"type":"Feature","geometry":{"type":"Point","coordinates":[135.781,34.61]},"properties":{"Name":"大和郡山市立昭和地区公民館","Jusho":"奈良県大和郡山市馬司町３３１番地５６","kouzui":"○","gake":"×","takashio":"×","jishin":"○","tsunami":"×","kaji":"○","naisui":"○","kazan":"×"}}
,{"type":"Feature","geometry":{"type":"Point","coordinates":[135.805,34.64]},"properties":{"Name":"大和郡山市立平和小学校","Jusho":"奈良県大和郡山市美濃庄町２６２番地","kouzui":"○","gake":"×","takashio":"×","jishin":"○","tsunami":"×","kaji":"×","naisui":"○","kazan":"×"}}
,{"type":"Feature","geometry":{"type":"Point","coordinates":[135.798,34.636]},"properties":{"Name":"大和郡山市立郡山東中学校","Jusho":"奈良県大和郡山市若槻町１３４番地２","kouzui":"○","gake":"×","takashio":"×","jishin":"○","tsunami":"×","kaji":"×","naisui":"○","kazan":"×"}}
,{"type":"Feature","geometry":{"type":"Point","coordinates":[135.801,34.639]},"properties":{"Name":"大和郡山市立平和地区公民館","Jusho":"奈良県大和郡山市若槻町４番地４","kouzui":"○","gake":"×","takashio":"×","jishin":"○","tsunami":"×","kaji":"○","naisui":"○","kazan":"×"}}
,{"type":"Feature","geometry":{"type":"Point","coordinates":[135.806,34.624]},"properties":{"Name":"大和郡山市立治道小学校","Jusho":"奈良県大和郡山市横田町２５４番地","kouzui":"○","gake":"×","takashio":"×","jishin":"○","tsunami":"×","kaji":"×","naisui":"○","kazan":"×"}}
,{"type":"Feature","geometry":{"type":"Point","coordinates":[135.807,34.623]},"properties":{"Name":"大和郡山市立治道地区公民館","Jusho":"奈良県大和郡山市横田町２６１番地１","kouzui":"○","gake":"×","takashio":"×","jishin":"○","tsunami":"×","kaji":"○","naisui":"○","kazan":"×"}}
,{"type":"Feature","geometry":{"type":"Point","coordinates":[135.782,34.652]},"properties":{"Name":"やまと郡山城ホール","Jusho":"奈良県大和郡山市北郡山町２１１番地３","kouzui":"○","gake":"×","takashio":"×","jishin":"○","tsunami":"×","kaji":"○","naisui":"○","kazan":"×"}}
,{"type":"Feature","geometry":{"type":"Point","coordinates":[135.78,34.654]},"properties":{"Name":"大和郡山市社会福祉会館","Jusho":"奈良県大和郡山市植槻町３番地８","kouzui":"○","gake":"×","takashio":"×","jishin":"○","tsunami":"×","kaji":"○","naisui":"○","kazan":"×"}}
,{"type":"Feature","geometry":{"type":"Point","coordinates":[135.78,34.654]},"properties":{"Name":"大和郡山市老人福祉センター","Jusho":"奈良県大和郡山市植槻町３番地１１","kouzui":"○","gake":"×","takashio":"×","jishin":"○","tsunami":"×","kaji":"○","naisui":"○","kazan":"×"}}
,{"type":"Feature","geometry":{"type":"Point","coordinates":[135.791,34.648]},"properties":{"Name":"大和郡山市民交流館","Jusho":"奈良県大和郡山市高田町９２番地１６","kouzui":"○","gake":"×","takashio":"×","jishin":"○","tsunami":"×","kaji":"×","naisui":"○","kazan":"×"}}
,{"type":"Feature","geometry":{"type":"Point","coordinates":[135.747,34.648]},"properties":{"Name":"大和郡山市矢田コミュニティ会館","Jusho":"奈良県大和郡山市矢田町４５４７番地","kouzui":"○","gake":"○","takashio":"×","jishin":"○","tsunami":"×","kaji":"○","naisui":"○","kazan":"×"}}
,{"type":"Feature","geometry":{"type":"Point","coordinates":[135.776,34.606]},"properties":{"Name":"大和郡山市額田部運動公園施設","Jusho":"奈良県大和郡山市額田部北町６４２番地","kouzui":"○","gake":"×","takashio":"×","jishin":"○","tsunami":"×","kaji":"×","naisui":"○","kazan":"×"}}
,{"type":"Feature","geometry":{"type":"Point","coordinates":[135.786,34.646]},"properties":{"Name":"大和郡山市立郡山南幼稚園","Jusho":"奈良県大和郡山市柳町８５","kouzui":"○","gake":"×","takashio":"×","jishin":"○","tsunami":"×","kaji":"×","naisui":"○","kazan":"×"}}
,{"type":"Feature","geometry":{"type":"Point","coordinates":[135.783,34.626]},"properties":{"Name":"大和郡山市立筒井幼稚園","Jusho":"奈良県大和郡山市丹後庄町１７７-３","kouzui":"○","gake":"×","takashio":"×","jishin":"○","tsunami":"×","kaji":"×","naisui":"○","kazan":"×"}}
,{"type":"Feature","geometry":{"type":"Point","coordinates":[135.755,34.648]},"properties":{"Name":"大和郡山市立矢田認定こども園","Jusho":"奈良県大和郡山市矢田町７７４","kouzui":"○","gake":"○","takashio":"×","jishin":"○","tsunami":"×","kaji":"×","naisui":"○","kazan":"×"}}
,{"type":"Feature","geometry":{"type":"Point","coordinates":[135.806,34.624]},"properties":{"Name":"大和郡山市立治道認定こども園","Jusho":"奈良県大和郡山市横田町２５４","kouzui":"○","gake":"×","takashio":"×","jishin":"○","tsunami":"×","kaji":"×","naisui":"○","kazan":"×"}}
,{"type":"Feature","geometry":{"type":"Point","coordinates":[135.781,34.608]},"properties":{"Name":"大和郡山市立昭和幼稚園","Jusho":"奈良県大和郡山市額田部北町５５５","kouzui":"○","gake":"×","takashio":"×","jishin":"○","tsunami":"×","kaji":"×","naisui":"○","kazan":"×"}}
,{"type":"Feature","geometry":{"type":"Point","coordinates":[135.765,34.629]},"properties":{"Name":"大和郡山市立片桐幼稚園","Jusho":"奈良県大和郡山市池之内町１６７","kouzui":"○","gake":"×","takashio":"×","jishin":"○","tsunami":"×","kaji":"×","naisui":"○","kazan":"×"}}
,{"type":"Feature","geometry":{"type":"Point","coordinates":[135.786,34.655]},"properties":{"Name":"大和郡山市立郡山北幼稚園","Jusho":"奈良県大和郡山市北郡山町１１５","kouzui":"○","gake":"×","takashio":"×","jishin":"○","tsunami":"×","kaji":"×","naisui":"○","kazan":"×"}}
,{"type":"Feature","geometry":{"type":"Point","coordinates":[135.805,34.642]},"properties":{"Name":"大和郡山市立平和幼稚園","Jusho":"奈良県大和郡山市美濃庄町５３３","kouzui":"○","gake":"×","takashio":"×","jishin":"○","tsunami":"×","kaji":"×","naisui":"○","kazan":"×"}}
,{"type":"Feature","geometry":{"type":"Point","coordinates":[135.755,34.63]},"properties":{"Name":"大和郡山市立片桐西幼稚園","Jusho":"奈良県大和郡山市小泉町１６５８","kouzui":"○","gake":"×","takashio":"×","jishin":"○","tsunami":"×","kaji":"×","naisui":"○","kazan":"×"}}
,{"type":"Feature","geometry":{"type":"Point","coordinates":[135.769,34.648]},"properties":{"Name":"大和郡山市立郡山西幼稚園","Jusho":"奈良県大和郡山市田中町７２３","kouzui":"○","gake":"×","takashio":"×","jishin":"○","tsunami":"×","kaji":"×","naisui":"○","kazan":"×"}}
,{"type":"Feature","geometry":{"type":"Point","coordinates":[135.745,34.631]},"properties":{"Name":"大和郡山市立矢田南幼稚園","Jusho":"奈良県大和郡山市山田町８２","kouzui":"○","gake":"×","takashio":"×","jishin":"○","tsunami":"×","kaji":"×","naisui":"○","kazan":"×"}}
,{"type":"Feature","geometry":{"type":"Point","coordinates":[135.833,34.595]},"properties":{"Name":"天理市立丹波市幼稚園","Jusho":"奈良県天理市丹波市町135-3","kouzui":"×","gake":"○","takashio":"×","jishin":"○","tsunami":"×","kaji":"×","naisui":"×","kazan":"×"}}
,{"type":"Feature","geometry":{"type":"Point","coordinates":[135.83,34.595]},"properties":{"Name":"天理市立丹波市小学校","Jusho":"奈良県天理市丹波市町180","kouzui":"×","gake":"○","takashio":"×","jishin":"○","tsunami":"×","kaji":"○","naisui":"×","kazan":"×"}}
,{"type":"Feature","geometry":{"type":"Point","coordinates":[135.834,34.596]},"properties":{"Name":"天理市立丹波市公民館","Jusho":"奈良県天理市丹波市町285-2","kouzui":"○","gake":"○","takashio":"×","jishin":"○","tsunami":"×","kaji":"×","naisui":"○","kazan":"×"}}
,{"type":"Feature","geometry":{"type":"Point","coordinates":[135.833,34.598]},"properties":{"Name":"天理市民会館","Jusho":"奈良県天理市川原城町739","kouzui":"○","gake":"○","takashio":"×","jishin":"○","tsunami":"×","kaji":"×","naisui":"○","kazan":"×"}}
,{"type":"Feature","geometry":{"type":"Point","coordinates":[135.838,34.59]},"properties":{"Name":"天理市立南保育所","Jusho":"奈良県天理市勾田町92","kouzui":"○","gake":"○","takashio":"×","jishin":"○","tsunami":"×","kaji":"×","naisui":"○","kazan":"×"}}
,{"type":"Feature","geometry":{"type":"Point","coordinates":[135.829,34.603]},"properties":{"Name":"天理市立中央保育所","Jusho":"奈良県天理市田部町553","kouzui":"○","gake":"○","takashio":"×","jishin":"○","tsunami":"×","kaji":"×","naisui":"○","kazan":"×"}}
,{"type":"Feature","geometry":{"type":"Point","coordinates":[135.837,34.604]},"properties":{"Name":"天理市立山の辺幼稚園","Jusho":"奈良県天理市三島町140-1","kouzui":"○","gake":"○","takashio":"×","jishin":"○","tsunami":"×","kaji":"×","naisui":"○","kazan":"×"}}
,{"type":"Feature","geometry":{"type":"Point","coordinates":[135.837,34.604]},"properties":{"Name":"天理市立三島体育館","Jusho":"奈良県天理市三島町140-1","kouzui":"○","gake":"○","takashio":"×","jishin":"×","tsunami":"×","kaji":"×","naisui":"○","kazan":"×"}}
,{"type":"Feature","geometry":{"type":"Point","coordinates":[135.837,34.609]},"properties":{"Name":"天理市立山の辺小学校","Jusho":"奈良県天理市別所町380","kouzui":"○","gake":"○","takashio":"×","jishin":"○","tsunami":"×","kaji":"○","naisui":"○","kazan":"×"}}
,{"type":"Feature","geometry":{"type":"Point","coordinates":[135.836,34.613]},"properties":{"Name":"天理市立北中学校","Jusho":"奈良県天理市石上町777","kouzui":"○","gake":"○","takashio":"×","jishin":"○","tsunami":"×","kaji":"○","naisui":"○","kazan":"×"}}
,{"type":"Feature","geometry":{"type":"Point","coordinates":[135.831,34.615]},"properties":{"Name":"天理市立北保育所","Jusho":"奈良県天理市石上町511-2","kouzui":"○","gake":"○","takashio":"×","jishin":"○","tsunami":"×","kaji":"×","naisui":"○","kazan":"×"}}
,{"type":"Feature","geometry":{"type":"Point","coordinates":[135.851,34.602]},"properties":{"Name":"天理市立東部公民館","Jusho":"奈良県天理市豊井町87","kouzui":"○","gake":"○","takashio":"×","jishin":"○","tsunami":"×","kaji":"×","naisui":"○","kazan":"×"}}
,{"type":"Feature","geometry":{"type":"Point","coordinates":[135.815,34.587]},"properties":{"Name":"天理市立井戸堂小学校","Jusho":"奈良県天理市西井戸堂町301","kouzui":"○","gake":"○","takashio":"×","jishin":"○","tsunami":"×","kaji":"○","naisui":"○","kazan":"×"}}
,{"type":"Feature","geometry":{"type":"Point","coordinates":[135.817,34.582]},"properties":{"Name":"天理市立井戸堂公民館","Jusho":"奈良県天理市西井戸堂町122-4","kouzui":"○","gake":"○","takashio":"×","jishin":"○","tsunami":"×","kaji":"×","naisui":"○","kazan":"×"}}
,{"type":"Feature","geometry":{"type":"Point","coordinates":[135.814,34.588]},"properties":{"Name":"天理市立井戸堂幼稚園","Jusho":"奈良県天理市西井戸堂町406","kouzui":"○","gake":"○","takashio":"×","jishin":"○","tsunami":"×","kaji":"×","naisui":"○","kazan":"×"}}
,{"type":"Feature","geometry":{"type":"Point","coordinates":[135.819,34.599]},"properties":{"Name":"天理市立前栽小学校","Jusho":"奈良県天理市前栽町329","kouzui":"○","gake":"○","takashio":"×","jishin":"○","tsunami":"×","kaji":"○","naisui":"○","kazan":"×"}}
,{"type":"Feature","geometry":{"type":"Point","coordinates":[135.817,34.603]},"properties":{"Name":"天理市立前栽幼稚園","Jusho":"奈良県天理市杉本町243-1","kouzui":"○","gake":"○","takashio":"×","jishin":"○","tsunami":"×","kaji":"×","naisui":"○","kazan":"×"}}
,{"type":"Feature","geometry":{"type":"Point","coordinates":[135.817,34.599]},"properties":{"Name":"天理市立前栽公民館","Jusho":"奈良県天理市杉本町351-3","kouzui":"○","gake":"○","takashio":"×","jishin":"○","tsunami":"×","kaji":"×","naisui":"○","kazan":"×"}}
,{"type":"Feature","geometry":{"type":"Point","coordinates":[135.796,34.595]},"properties":{"Name":"天理市立二階堂小学校","Jusho":"奈良県天理市二階堂南菅田町640-1","kouzui":"×","gake":"○","takashio":"×","jishin":"○","tsunami":"×","kaji":"○","naisui":"×","kazan":"×"}}
,{"type":"Feature","geometry":{"type":"Point","coordinates":[135.795,34.593]},"properties":{"Name":"天理市立二階堂幼稚園","Jusho":"奈良県天理市二階堂南菅田町38-1","kouzui":"×","gake":"○","takashio":"×","jishin":"○","tsunami":"×","kaji":"×","naisui":"×","kazan":"×"}}
,{"type":"Feature","geometry":{"type":"Point","coordinates":[135.803,34.6]},"properties":{"Name":"天理市立西中学校","Jusho":"奈良県天理市二階堂上ノ庄町210-1","kouzui":"○","gake":"○","takashio":"×","jishin":"○","tsunami":"×","kaji":"○","naisui":"○","kazan":"×"}}
,{"type":"Feature","geometry":{"type":"Point","coordinates":[135.805,34.6]},"properties":{"Name":"奈良県立二階堂高等学校","Jusho":"奈良県天理市荒蒔町100-1","kouzui":"○","gake":"○","takashio":"×","jishin":"○","tsunami":"×","kaji":"○","naisui":"○","kazan":"×"}}
,{"type":"Feature","geometry":{"type":"Point","coordinates":[135.796,34.591]},"properties":{"Name":"天理市立二階堂公民館","Jusho":"奈良県天理市嘉幡町520","kouzui":"○","gake":"○","takashio":"×","jishin":"○","tsunami":"×","kaji":"×","naisui":"○","kazan":"×"}}
,{"type":"Feature","geometry":{"type":"Point","coordinates":[135.796,34.592]},"properties":{"Name":"天理市立二階堂体育館","Jusho":"奈良県天理市嘉幡町520","kouzui":"○","gake":"○","takashio":"×","jishin":"×","tsunami":"×","kaji":"×","naisui":"○","kazan":"×"}}
,{"type":"Feature","geometry":{"type":"Point","coordinates":[135.797,34.589]},"properties":{"Name":"天理市立嘉幡保育所","Jusho":"奈良県天理市嘉幡町425","kouzui":"○","gake":"○","takashio":"×","jishin":"○","tsunami":"×","kaji":"×","naisui":"○","kazan":"×"}}
,{"type":"Feature","geometry":{"type":"Point","coordinates":[135.797,34.579]},"properties":{"Name":"奈良県立二階堂養護学校","Jusho":"奈良県天理市庵治町358-1","kouzui":"○","gake":"○","takashio":"×","jishin":"○","tsunami":"×","kaji":"○","naisui":"○","kazan":"×"}}
,{"type":"Feature","geometry":{"type":"Point","coordinates":[135.842,34.572]},"properties":{"Name":"天理市立朝和小学校","Jusho":"奈良県天理市成願寺町420","kouzui":"○","gake":"○","takashio":"×","jishin":"○","tsunami":"×","kaji":"○","naisui":"○","kazan":"×"}}
,{"type":"Feature","geometry":{"type":"Point","coordinates":[135.843,34.571]},"properties":{"Name":"天理市立朝和幼稚園","Jusho":"奈良県天理市成願寺町386","kouzui":"○","gake":"○","takashio":"×","jishin":"○","tsunami":"×","kaji":"×","naisui":"○","kazan":"×"}}
,{"type":"Feature","geometry":{"type":"Point","coordinates":[135.841,34.575]},"properties":{"Name":"天理市立朝和公民館","Jusho":"奈良県天理市三昧田町460-3","kouzui":"○","gake":"○","takashio":"×","jishin":"○","tsunami":"×","kaji":"×","naisui":"○","kazan":"×"}}
,{"type":"Feature","geometry":{"type":"Point","coordinates":[135.835,34.571]},"properties":{"Name":"天理市立南中学校","Jusho":"奈良県天理市兵庫町336-2","kouzui":"○","gake":"○","takashio":"×","jishin":"○","tsunami":"×","kaji":"○","naisui":"○","kazan":"×"}}
,{"type":"Feature","geometry":{"type":"Point","coordinates":[135.82,34.576]},"properties":{"Name":"天理市立総合体育館","Jusho":"奈良県天理市西長柄町595","kouzui":"○","gake":"○","takashio":"×","jishin":"○","tsunami":"×","kaji":"×","naisui":"○","kazan":"×"}}
,{"type":"Feature","geometry":{"type":"Point","coordinates":[135.918,34.613]},"properties":{"Name":"天理市立福住小学校","Jusho":"奈良県天理市福住町1954-1","kouzui":"×","gake":"×","takashio":"×","jishin":"○","tsunami":"×","kaji":"○","naisui":"×","kazan":"×"}}
,{"type":"Feature","geometry":{"type":"Point","coordinates":[135.914,34.613]},"properties":{"Name":"天理市立福住中学校","Jusho":"奈良県天理市福住町2105","kouzui":"○","gake":"○","takashio":"×","jishin":"○","tsunami":"×","kaji":"○","naisui":"○","kazan":"×"}}
,{"type":"Feature","geometry":{"type":"Point","coordinates":[135.916,34.611]},"properties":{"Name":"天理市立福住公民館","Jusho":"奈良県天理市福住町2025","kouzui":"○","gake":"○","takashio":"×","jishin":"○","tsunami":"×","kaji":"×","naisui":"○","kazan":"×"}}
,{"type":"Feature","geometry":{"type":"Point","coordinates":[135.911,34.609]},"properties":{"Name":"旧天理市立福住幼稚園","Jusho":"奈良県天理市福住町3902","kouzui":"○","gake":"○","takashio":"×","jishin":"○","tsunami":"×","kaji":"×","naisui":"○","kazan":"×"}}
,{"type":"Feature","geometry":{"type":"Point","coordinates":[135.903,34.606]},"properties":{"Name":"旧天理市福祉センター","Jusho":"奈良県天理市福住町4890","kouzui":"○","gake":"○","takashio":"×","jishin":"×","tsunami":"×","kaji":"×","naisui":"○","kazan":"×"}}
,{"type":"Feature","geometry":{"type":"Point","coordinates":[135.938,34.628]},"properties":{"Name":"天理市立やまだこども園","Jusho":"奈良県天理市山田町1560","kouzui":"×","gake":"×","takashio":"×","jishin":"○","tsunami":"×","kaji":"×","naisui":"×","kazan":"×"}}
,{"type":"Feature","geometry":{"type":"Point","coordinates":[135.831,34.62]},"properties":{"Name":"天理市立櫟本小学校","Jusho":"奈良県天理市櫟本町2426-1","kouzui":"○","gake":"○","takashio":"×","jishin":"○","tsunami":"×","kaji":"○","naisui":"○","kazan":"×"}}
,{"type":"Feature","geometry":{"type":"Point","coordinates":[135.833,34.62]},"properties":{"Name":"天理市立櫟本公民館","Jusho":"奈良県天理市櫟本町2460-1","kouzui":"○","gake":"○","takashio":"×","jishin":"○","tsunami":"×","kaji":"×","naisui":"○","kazan":"×"}}
,{"type":"Feature","geometry":{"type":"Point","coordinates":[135.829,34.623]},"properties":{"Name":"天理市立櫟本幼稚園","Jusho":"奈良県天理市櫟本町2066","kouzui":"○","gake":"○","takashio":"×","jishin":"○","tsunami":"×","kaji":"×","naisui":"○","kazan":"×"}}
,{"type":"Feature","geometry":{"type":"Point","coordinates":[135.823,34.621]},"properties":{"Name":"奈良県立添上高等学校","Jusho":"奈良県天理市櫟本町1532-2","kouzui":"×","gake":"○","takashio":"×","jishin":"○","tsunami":"×","kaji":"○","naisui":"×","kazan":"×"}}
,{"type":"Feature","geometry":{"type":"Point","coordinates":[135.844,34.559]},"properties":{"Name":"天理市立柳本小学校","Jusho":"奈良県天理市柳本町1213","kouzui":"○","gake":"○","takashio":"×","jishin":"○","tsunami":"×","kaji":"○","naisui":"○","kazan":"×"}}
,{"type":"Feature","geometry":{"type":"Point","coordinates":[135.844,34.559]},"properties":{"Name":"天理市立柳本公民館","Jusho":"奈良県天理市柳本町1127","kouzui":"○","gake":"○","takashio":"×","jishin":"○","tsunami":"×","kaji":"×","naisui":"○","kazan":"×"}}
,{"type":"Feature","geometry":{"type":"Point","coordinates":[135.844,34.561]},"properties":{"Name":"天理市障害者ふれあいセンター","Jusho":"奈良県天理市柳本町719","kouzui":"○","gake":"○","takashio":"×","jishin":"○","tsunami":"×","kaji":"×","naisui":"○","kazan":"×"}}
,{"type":"Feature","geometry":{"type":"Point","coordinates":[135.836,34.561]},"properties":{"Name":"天理市立柳本幼稚園","Jusho":"奈良県天理市柳本町891-2","kouzui":"○","gake":"○","takashio":"×","jishin":"○","tsunami":"×","kaji":"×","naisui":"○","kazan":"×"}}
,{"type":"Feature","geometry":{"type":"Point","coordinates":[135.825,34.559]},"properties":{"Name":"天理市立式上公民館","Jusho":"奈良県天理市遠田町45-9","kouzui":"○","gake":"○","takashio":"×","jishin":"○","tsunami":"×","kaji":"×","naisui":"○","kazan":"×"}}
,{"type":"Feature","geometry":{"type":"Point","coordinates":[135.849,34.56]},"properties":{"Name":"天理市トレイルセンター","Jusho":"奈良県天理市柳本町577-1","kouzui":"○","gake":"○","takashio":"×","jishin":"○","tsunami":"×","kaji":"×","naisui":"○","kazan":"×"}}
,{"type":"Feature","geometry":{"type":"Point","coordinates":[135.838,34.623]},"properties":{"Name":"櫟本高塚公園","Jusho":"奈良県天理市櫟本町2533-4他","kouzui":"○","gake":"○","takashio":"×","jishin":"○","tsunami":"×","kaji":"○","naisui":"○","kazan":"×"}}
,{"type":"Feature","geometry":{"type":"Point","coordinates":[135.819,34.575]},"properties":{"Name":"天理市長柄運動公園","Jusho":"奈良県天理市西長柄町595","kouzui":"○","gake":"○","takashio":"×","jishin":"○","tsunami":"×","kaji":"○","naisui":"○","kazan":"×"}}
,{"type":"Feature","geometry":{"type":"Point","coordinates":[135.831,34.6]},"properties":{"Name":"天理駅前広場","Jusho":"奈良県天理市川原城町803","kouzui":"○","gake":"○","takashio":"×","jishin":"○","tsunami":"×","kaji":"○","naisui":"○","kazan":"×"}}
,{"type":"Feature","geometry":{"type":"Point","coordinates":[135.806,34.522]},"properties":{"Name":"耳成小学校体育館","Jusho":"奈良県橿原市葛本町625","kouzui":"○","gake":"○","takashio":"×","jishin":"○","tsunami":"×","kaji":"○","naisui":"○","kazan":"×"}}
,{"type":"Feature","geometry":{"type":"Point","coordinates":[135.809,34.519]},"properties":{"Name":"耳成南小学校体育館","Jusho":"奈良県橿原市常盤町3","kouzui":"○","gake":"○","takashio":"×","jishin":"○","tsunami":"×","kaji":"○","naisui":"○","kazan":"×"}}
,{"type":"Feature","geometry":{"type":"Point","coordinates":[135.79,34.522]},"properties":{"Name":"耳成西小学校体育館","Jusho":"奈良県橿原市上品寺町455-1","kouzui":"○","gake":"○","takashio":"×","jishin":"○","tsunami":"×","kaji":"○","naisui":"○","kazan":"×"}}
,{"type":"Feature","geometry":{"type":"Point","coordinates":[135.804,34.519]},"properties":{"Name":"八木中学校体育館","Jusho":"奈良県橿原市新賀町33","kouzui":"○","gake":"○","takashio":"×","jishin":"○","tsunami":"×","kaji":"○","naisui":"○","kazan":"×"}}
,{"type":"Feature","geometry":{"type":"Point","coordinates":[135.806,34.523]},"properties":{"Name":"耳成地区公民館","Jusho":"奈良県橿原市葛本町593","kouzui":"○","gake":"○","takashio":"×","jishin":"○","tsunami":"×","kaji":"○","naisui":"○","kazan":"×"}}
,{"type":"Feature","geometry":{"type":"Point","coordinates":[135.81,34.531]},"properties":{"Name":"福祉センター「やわらぎの郷」","Jusho":"奈良県橿原市十市町63-1","kouzui":"○","gake":"○","takashio":"×","jishin":"○","tsunami":"×","kaji":"○","naisui":"○","kazan":"×"}}
,{"type":"Feature","geometry":{"type":"Point","coordinates":[135.786,34.53]},"properties":{"Name":"橿原中学校体育館","Jusho":"奈良県橿原市西新堂町26-1","kouzui":"○","gake":"○","takashio":"×","jishin":"○","tsunami":"×","kaji":"○","naisui":"○","kazan":"×"}}
,{"type":"Feature","geometry":{"type":"Point","coordinates":[135.789,34.526]},"properties":{"Name":"多地区公民館","Jusho":"奈良県橿原市新口町244-2","kouzui":"○","gake":"○","takashio":"×","jishin":"○","tsunami":"×","kaji":"○","naisui":"○","kazan":"×"}}
,{"type":"Feature","geometry":{"type":"Point","coordinates":[135.797,34.506]},"properties":{"Name":"晩成小学校体育館","Jusho":"奈良県橿原市小房町1-54","kouzui":"○","gake":"○","takashio":"×","jishin":"○","tsunami":"×","kaji":"○","naisui":"○","kazan":"×"}}
,{"type":"Feature","geometry":{"type":"Point","coordinates":[135.796,34.511]},"properties":{"Name":"八木地区公民館","Jusho":"奈良県橿原市北八木町2-1-6","kouzui":"○","gake":"○","takashio":"×","jishin":"○","tsunami":"×","kaji":"○","naisui":"○","kazan":"×"}}
,{"type":"Feature","geometry":{"type":"Point","coordinates":[135.797,34.501]},"properties":{"Name":"中央公民館・分館","Jusho":"奈良県橿原市小房町11-4","kouzui":"○","gake":"○","takashio":"×","jishin":"×","tsunami":"×","kaji":"○","naisui":"○","kazan":"×"}}
,{"type":"Feature","geometry":{"type":"Point","coordinates":[135.797,34.5]},"properties":{"Name":"市立中央体育館","Jusho":"奈良県橿原市小房町11-1","kouzui":"○","gake":"○","takashio":"×","jishin":"○","tsunami":"×","kaji":"○","naisui":"○","kazan":"×"}}
,{"type":"Feature","geometry":{"type":"Point","coordinates":[135.797,34.5]},"properties":{"Name":"中央公民館","Jusho":"奈良県橿原市小房町11-1","kouzui":"○","gake":"○","takashio":"×","jishin":"×","tsunami":"×","kaji":"○","naisui":"○","kazan":"×"}}
,{"type":"Feature","geometry":{"type":"Point","coordinates":[135.8,34.509]},"properties":{"Name":"奈良県立畝傍高等学校","Jusho":"奈良県橿原市八木町3-13-2","kouzui":"○","gake":"○","takashio":"×","jishin":"○","tsunami":"×","kaji":"○","naisui":"○","kazan":"×"}}
,{"type":"Feature","geometry":{"type":"Point","coordinates":[135.803,34.501]},"properties":{"Name":"鴨公小学校体育館","Jusho":"奈良県橿原市縄手町324","kouzui":"○","gake":"○","takashio":"×","jishin":"○","tsunami":"×","kaji":"○","naisui":"○","kazan":"×"}}
,{"type":"Feature","geometry":{"type":"Point","coordinates":[135.804,34.505]},"properties":{"Name":"鴨公地区公民館","Jusho":"奈良県橿原市醍醐町42-2","kouzui":"○","gake":"○","takashio":"×","jishin":"○","tsunami":"×","kaji":"○","naisui":"○","kazan":"×"}}
,{"type":"Feature","geometry":{"type":"Point","coordinates":[135.803,34.497]},"properties":{"Name":"飛騨コミュニティーセンター","Jusho":"奈良県橿原市飛騨町94-2","kouzui":"○","gake":"○","takashio":"×","jishin":"×","tsunami":"×","kaji":"○","naisui":"○","kazan":"×"}}
,{"type":"Feature","geometry":{"type":"Point","coordinates":[135.821,34.505]},"properties":{"Name":"香久山小学校体育館","Jusho":"奈良県橿原市膳夫町98-1","kouzui":"○","gake":"○","takashio":"×","jishin":"○","tsunami":"×","kaji":"○","naisui":"○","kazan":"×"}}
,{"type":"Feature","geometry":{"type":"Point","coordinates":[135.823,34.508]},"properties":{"Name":"香久山地区公民館","Jusho":"奈良県橿原市膳夫町477","kouzui":"○","gake":"○","takashio":"×","jishin":"○","tsunami":"×","kaji":"○","naisui":"○","kazan":"×"}}
,{"type":"Feature","geometry":{"type":"Point","coordinates":[135.824,34.492]},"properties":{"Name":"香久山体育館","Jusho":"奈良県橿原市南山町624","kouzui":"○","gake":"○","takashio":"×","jishin":"○","tsunami":"×","kaji":"○","naisui":"○","kazan":"×"}}
,{"type":"Feature","geometry":{"type":"Point","coordinates":[135.793,34.48]},"properties":{"Name":"畝傍南小学校体育館","Jusho":"奈良県橿原市見瀬町164","kouzui":"○","gake":"○","takashio":"×","jishin":"○","tsunami":"×","kaji":"○","naisui":"○","kazan":"×"}}
,{"type":"Feature","geometry":{"type":"Point","coordinates":[135.802,34.48]},"properties":{"Name":"畝傍東小学校体育館","Jusho":"奈良県橿原市大軽町283","kouzui":"○","gake":"○","takashio":"×","jishin":"○","tsunami":"×","kaji":"○","naisui":"○","kazan":"×"}}
,{"type":"Feature","geometry":{"type":"Point","coordinates":[135.795,34.496]},"properties":{"Name":"畝傍北小学校体育館","Jusho":"奈良県橿原市大久保町156","kouzui":"○","gake":"○","takashio":"×","jishin":"○","tsunami":"×","kaji":"○","naisui":"○","kazan":"×"}}
,{"type":"Feature","geometry":{"type":"Point","coordinates":[135.802,34.485]},"properties":{"Name":"畝傍中学校体育館","Jusho":"奈良県橿原市石川町204","kouzui":"○","gake":"○","takashio":"×","jishin":"○","tsunami":"×","kaji":"○","naisui":"○","kazan":"×"}}
,{"type":"Feature","geometry":{"type":"Point","coordinates":[135.793,34.481]},"properties":{"Name":"畝傍地区公民館","Jusho":"奈良県橿原市見瀬町202-1","kouzui":"○","gake":"○","takashio":"×","jishin":"○","tsunami":"×","kaji":"○","naisui":"○","kazan":"×"}}
,{"type":"Feature","geometry":{"type":"Point","coordinates":[135.794,34.499]},"properties":{"Name":"大久保コミュニティーセンター","Jusho":"奈良県橿原市大久保町15-1","kouzui":"○","gake":"○","takashio":"×","jishin":"×","tsunami":"×","kaji":"○","naisui":"○","kazan":"×"}}
,{"type":"Feature","geometry":{"type":"Point","coordinates":[135.79,34.47]},"properties":{"Name":"白橿南小学校体育館","Jusho":"奈良県橿原市白橿町8-19-1","kouzui":"○","gake":"○","takashio":"×","jishin":"○","tsunami":"×","kaji":"○","naisui":"○","kazan":"×"}}
,{"type":"Feature","geometry":{"type":"Point","coordinates":[135.786,34.479]},"properties":{"Name":"白橿北小学校体育館","Jusho":"奈良県橿原市白橿町3-10-2","kouzui":"○","gake":"○","takashio":"×","jishin":"○","tsunami":"×","kaji":"○","naisui":"○","kazan":"×"}}
,{"type":"Feature","geometry":{"type":"Point","coordinates":[135.792,34.468]},"properties":{"Name":"白橿中学校体育館","Jusho":"奈良県橿原市白橿町8-12-1","kouzui":"○","gake":"○","takashio":"×","jishin":"○","tsunami":"×","kaji":"○","naisui":"○","kazan":"×"}}
,{"type":"Feature","geometry":{"type":"Point","coordinates":[135.791,34.475]},"properties":{"Name":"白橿地区公民館","Jusho":"奈良県橿原市白橿町2-32-11","kouzui":"○","gake":"○","takashio":"×","jishin":"○","tsunami":"×","kaji":"○","naisui":"○","kazan":"×"}}
,{"type":"Feature","geometry":{"type":"Point","coordinates":[135.786,34.505]},"properties":{"Name":"今井小学校体育館","Jusho":"奈良県橿原市今井町3-4-46","kouzui":"○","gake":"○","takashio":"×","jishin":"○","tsunami":"×","kaji":"○","naisui":"○","kazan":"×"}}
,{"type":"Feature","geometry":{"type":"Point","coordinates":[135.783,34.509]},"properties":{"Name":"大成中学校体育館","Jusho":"奈良県橿原市小綱町77-2","kouzui":"○","gake":"○","takashio":"×","jishin":"○","tsunami":"×","kaji":"○","naisui":"○","kazan":"×"}}
,{"type":"Feature","geometry":{"type":"Point","coordinates":[135.789,34.505]},"properties":{"Name":"今井地区公民館","Jusho":"奈良県橿原市今井町2-3-23","kouzui":"○","gake":"○","takashio":"×","jishin":"○","tsunami":"×","kaji":"○","naisui":"○","kazan":"×"}}
,{"type":"Feature","geometry":{"type":"Point","coordinates":[135.779,34.515]},"properties":{"Name":"真菅小学校体育館","Jusho":"奈良県橿原市曽我町710","kouzui":"○","gake":"○","takashio":"×","jishin":"○","tsunami":"×","kaji":"○","naisui":"○","kazan":"×"}}
,{"type":"Feature","geometry":{"type":"Point","coordinates":[135.78,34.528]},"properties":{"Name":"真菅北小学校体育館","Jusho":"奈良県橿原市大垣町220-1","kouzui":"○","gake":"○","takashio":"×","jishin":"○","tsunami":"×","kaji":"○","naisui":"○","kazan":"×"}}
,{"type":"Feature","geometry":{"type":"Point","coordinates":[135.779,34.512]},"properties":{"Name":"真菅地区公民館","Jusho":"奈良県橿原市曽我町1281-18","kouzui":"○","gake":"○","takashio":"×","jishin":"○","tsunami":"×","kaji":"○","naisui":"○","kazan":"×"}}
,{"type":"Feature","geometry":{"type":"Point","coordinates":[135.769,34.518]},"properties":{"Name":"曽我川緑地体育館","Jusho":"奈良県橿原市曽我町1212","kouzui":"○","gake":"○","takashio":"×","jishin":"○","tsunami":"×","kaji":"○","naisui":"○","kazan":"×"}}
,{"type":"Feature","geometry":{"type":"Point","coordinates":[135.767,34.5]},"properties":{"Name":"金橋小学校体育館","Jusho":"奈良県橿原市雲悌町216-1","kouzui":"○","gake":"○","takashio":"×","jishin":"○","tsunami":"×","kaji":"○","naisui":"○","kazan":"×"}}
,{"type":"Feature","geometry":{"type":"Point","coordinates":[135.772,34.488]},"properties":{"Name":"光陽中学校体育館","Jusho":"奈良県橿原市古川町20","kouzui":"○","gake":"○","takashio":"×","jishin":"○","tsunami":"×","kaji":"○","naisui":"○","kazan":"×"}}
,{"type":"Feature","geometry":{"type":"Point","coordinates":[135.772,34.5]},"properties":{"Name":"金橋地区公民館","Jusho":"奈良県橿原市雲梯町927","kouzui":"○","gake":"○","takashio":"×","jishin":"○","tsunami":"×","kaji":"○","naisui":"○","kazan":"×"}}
,{"type":"Feature","geometry":{"type":"Point","coordinates":[135.771,34.476]},"properties":{"Name":"新沢小学校体育館","Jusho":"奈良県橿原市一町1296","kouzui":"○","gake":"○","takashio":"×","jishin":"○","tsunami":"×","kaji":"○","naisui":"○","kazan":"×"}}
,{"type":"Feature","geometry":{"type":"Point","coordinates":[135.771,34.477]},"properties":{"Name":"新沢地区公民館","Jusho":"奈良県橿原市川西町611","kouzui":"○","gake":"○","takashio":"×","jishin":"○","tsunami":"×","kaji":"○","naisui":"○","kazan":"×"}}
,{"type":"Feature","geometry":{"type":"Point","coordinates":[135.773,34.48]},"properties":{"Name":"橿原市新沢千塚公園拠点施設","Jusho":"奈良県橿原市川西町855-1","kouzui":"○","gake":"○","takashio":"×","jishin":"○","tsunami":"×","kaji":"○","naisui":"○","kazan":"×"}}
,{"type":"Feature","geometry":{"type":"Point","coordinates":[135.777,34.476]},"properties":{"Name":"奈良県立橿原高等学校","Jusho":"奈良県橿原市北越智町282","kouzui":"○","gake":"○","takashio":"×","jishin":"○","tsunami":"×","kaji":"○","naisui":"○","kazan":"×"}}
,{"type":"Feature","geometry":{"type":"Point","coordinates":[135.772,34.498]},"properties":{"Name":"橿原運動公園","Jusho":"奈良県橿原市雲梯町323-2外","kouzui":"○","gake":"○","takashio":"×","jishin":"○","tsunami":"×","kaji":"○","naisui":"○","kazan":"×"}}
,{"type":"Feature","geometry":{"type":"Point","coordinates":[135.773,34.478]},"properties":{"Name":"新沢千塚古墳群公園","Jusho":"奈良県橿原市川西町755-3外","kouzui":"○","gake":"○","takashio":"×","jishin":"○","tsunami":"×","kaji":"○","naisui":"○","kazan":"×"}}
,{"type":"Feature","geometry":{"type":"Point","coordinates":[135.846,34.513]},"properties":{"Name":"まほろばセンター","Jusho":"奈良県桜井市桜井1259","kouzui":"○","gake":"○","takashio":"×","jishin":"○","tsunami":"×","kaji":"○","naisui":"×","kazan":"×"}}
,{"type":"Feature","geometry":{"type":"Point","coordinates":[135.846,34.505]},"properties":{"Name":"桜井小学校 体育館","Jusho":"奈良県桜井市谷957","kouzui":"○","gake":"○","takashio":"×","jishin":"○","tsunami":"×","kaji":"○","naisui":"×","kazan":"×"}}
,{"type":"Feature","geometry":{"type":"Point","coordinates":[135.846,34.505]},"properties":{"Name":"桜井小学校 グラウンド","Jusho":"奈良県桜井市谷957","kouzui":"×","gake":"×","takashio":"×","jishin":"○","tsunami":"×","kaji":"○","naisui":"×","kazan":"×"}}
,{"type":"Feature","geometry":{"type":"Point","coordinates":[135.858,34.516]},"properties":{"Name":"城島小学校 体育館","Jusho":"奈良県桜井市外山330","kouzui":"○","gake":"○","takashio":"×","jishin":"○","tsunami":"×","kaji":"○","naisui":"×","kazan":"×"}}
,{"type":"Feature","geometry":{"type":"Point","coordinates":[135.858,34.515]},"properties":{"Name":"城島小学校 グラウンド","Jusho":"奈良県桜井市外山330","kouzui":"×","gake":"×","takashio":"×","jishin":"○","tsunami":"×","kaji":"○","naisui":"×","kazan":"×"}}
,{"type":"Feature","geometry":{"type":"Point","coordinates":[135.862,34.499]},"properties":{"Name":"桜井中学校 体育館","Jusho":"奈良県桜井市浅古593","kouzui":"○","gake":"○","takashio":"×","jishin":"○","tsunami":"×","kaji":"○","naisui":"×","kazan":"×"}}
,{"type":"Feature","geometry":{"type":"Point","coordinates":[135.862,34.498]},"properties":{"Name":"桜井中学校 グラウンド","Jusho":"奈良県桜井市浅古593","kouzui":"×","gake":"×","takashio":"×","jishin":"○","tsunami":"×","kaji":"○","naisui":"×","kazan":"×"}}
,{"type":"Feature","geometry":{"type":"Point","coordinates":[135.853,34.503]},"properties":{"Name":"桜井南小学校 体育館","Jusho":"奈良県桜井市浅古21","kouzui":"○","gake":"○","takashio":"×","jishin":"○","tsunami":"×","kaji":"○","naisui":"×","kazan":"×"}}
,{"type":"Feature","geometry":{"type":"Point","coordinates":[135.852,34.503]},"properties":{"Name":"桜井南小学校 グラウンド","Jusho":"奈良県桜井市浅古21","kouzui":"×","gake":"×","takashio":"×","jishin":"○","tsunami":"×","kaji":"○","naisui":"×","kazan":"×"}}
,{"type":"Feature","geometry":{"type":"Point","coordinates":[135.839,34.496]},"properties":{"Name":"安倍小学校 体育館","Jusho":"奈良県桜井市生田578","kouzui":"○","gake":"○","takashio":"×","jishin":"○","tsunami":"×","kaji":"○","naisui":"×","kazan":"×"}}
,{"type":"Feature","geometry":{"type":"Point","coordinates":[135.839,34.496]},"properties":{"Name":"安倍小学校 グラウンド","Jusho":"奈良県桜井市生田578","kouzui":"×","gake":"×","takashio":"×","jishin":"○","tsunami":"×","kaji":"○","naisui":"×","kazan":"×"}}
,{"type":"Feature","geometry":{"type":"Point","coordinates":[135.863,34.492]},"properties":{"Name":"高齢者総合福祉センター","Jusho":"奈良県桜井市倉橋1166","kouzui":"○","gake":"○","takashio":"×","jishin":"○","tsunami":"×","kaji":"○","naisui":"×","kazan":"×"}}
,{"type":"Feature","geometry":{"type":"Point","coordinates":[135.862,34.491]},"properties":{"Name":"高齢者総合福祉センター 駐車場","Jusho":"奈良県桜井市倉橋1166","kouzui":"×","gake":"×","takashio":"×","jishin":"○","tsunami":"×","kaji":"○","naisui":"×","kazan":"×"}}
,{"type":"Feature","geometry":{"type":"Point","coordinates":[135.909,34.568]},"properties":{"Name":"上之郷体育館 体育館","Jusho":"奈良県桜井市笠82","kouzui":"○","gake":"○","takashio":"×","jishin":"○","tsunami":"×","kaji":"○","naisui":"×","kazan":"×"}}
,{"type":"Feature","geometry":{"type":"Point","coordinates":[135.909,34.568]},"properties":{"Name":"上之郷体育館 グラウンド","Jusho":"奈良県桜井市笠82","kouzui":"×","gake":"×","takashio":"×","jishin":"○","tsunami":"×","kaji":"○","naisui":"×","kazan":"×"}}
,{"type":"Feature","geometry":{"type":"Point","coordinates":[135.916,34.573]},"properties":{"Name":"上之郷公民館","Jusho":"奈良県桜井市小夫3266","kouzui":"○","gake":"○","takashio":"×","jishin":"×","tsunami":"×","kaji":"○","naisui":"×","kazan":"×"}}
,{"type":"Feature","geometry":{"type":"Point","coordinates":[135.916,34.572]},"properties":{"Name":"上之郷公民館 駐車場","Jusho":"奈良県桜井市小夫3266","kouzui":"×","gake":"×","takashio":"×","jishin":"○","tsunami":"×","kaji":"○","naisui":"×","kazan":"×"}}
,{"type":"Feature","geometry":{"type":"Point","coordinates":[135.901,34.527]},"properties":{"Name":"初瀬観光センター","Jusho":"奈良県桜井市初瀬1593-2","kouzui":"○","gake":"○","takashio":"×","jishin":"○","tsunami":"×","kaji":"○","naisui":"×","kazan":"×"}}
,{"type":"Feature","geometry":{"type":"Point","coordinates":[135.901,34.527]},"properties":{"Name":"初瀬観光センター 駐車場","Jusho":"奈良県桜井市初瀬1593-2","kouzui":"×","gake":"×","takashio":"×","jishin":"○","tsunami":"×","kaji":"○","naisui":"×","kazan":"×"}}
,{"type":"Feature","geometry":{"type":"Point","coordinates":[135.905,34.527]},"properties":{"Name":"桜井東ふれあいセンター","Jusho":"奈良県桜井市初瀬2337","kouzui":"○","gake":"○","takashio":"×","jishin":"×","tsunami":"×","kaji":"○","naisui":"×","kazan":"×"}}
,{"type":"Feature","geometry":{"type":"Point","coordinates":[135.899,34.526]},"properties":{"Name":"桜井東ふれあいセンター分館","Jusho":"奈良県桜井市初瀬1626-1","kouzui":"○","gake":"○","takashio":"×","jishin":"○","tsunami":"×","kaji":"○","naisui":"×","kazan":"×"}}
,{"type":"Feature","geometry":{"type":"Point","coordinates":[135.899,34.527]},"properties":{"Name":"初瀬小学校 体育館","Jusho":"奈良県桜井市初瀬1556","kouzui":"○","gake":"○","takashio":"×","jishin":"○","tsunami":"×","kaji":"○","naisui":"×","kazan":"×"}}
,{"type":"Feature","geometry":{"type":"Point","coordinates":[135.899,34.527]},"properties":{"Name":"初瀬小学校 グラウンド","Jusho":"奈良県桜井市初瀬1556","kouzui":"×","gake":"×","takashio":"×","jishin":"○","tsunami":"×","kaji":"○","naisui":"×","kazan":"×"}}
,{"type":"Feature","geometry":{"type":"Point","coordinates":[135.896,34.526]},"properties":{"Name":"桜井東中学校 体育館","Jusho":"奈良県桜井市初瀬1655","kouzui":"○","gake":"○","takashio":"×","jishin":"○","tsunami":"×","kaji":"○","naisui":"×","kazan":"×"}}
,{"type":"Feature","geometry":{"type":"Point","coordinates":[135.896,34.525]},"properties":{"Name":"桜井東中学校 グラウンド","Jusho":"奈良県桜井市初瀬1655","kouzui":"×","gake":"×","takashio":"×","jishin":"○","tsunami":"×","kaji":"○","naisui":"×","kazan":"×"}}
,{"type":"Feature","geometry":{"type":"Point","coordinates":[135.934,34.532]},"properties":{"Name":"吉隠公民館","Jusho":"奈良県桜井市吉隠726","kouzui":"○","gake":"○","takashio":"×","jishin":"×","tsunami":"×","kaji":"○","naisui":"×","kazan":"×"}}
,{"type":"Feature","geometry":{"type":"Point","coordinates":[135.934,34.532]},"properties":{"Name":"吉隠公民館 グラウンド","Jusho":"奈良県桜井市吉隠726","kouzui":"×","gake":"×","takashio":"×","jishin":"○","tsunami":"×","kaji":"○","naisui":"×","kazan":"×"}}
,{"type":"Feature","geometry":{"type":"Point","coordinates":[135.876,34.522]},"properties":{"Name":"朝倉小学校 体育館","Jusho":"奈良県桜井市黒崎626","kouzui":"○","gake":"○","takashio":"×","jishin":"○","tsunami":"×","kaji":"○","naisui":"×","kazan":"×"}}
,{"type":"Feature","geometry":{"type":"Point","coordinates":[135.877,34.522]},"properties":{"Name":"朝倉小学校 グラウンド","Jusho":"奈良県桜井市黒崎626","kouzui":"×","gake":"×","takashio":"×","jishin":"○","tsunami":"×","kaji":"○","naisui":"×","kazan":"×"}}
,{"type":"Feature","geometry":{"type":"Point","coordinates":[135.826,34.518]},"properties":{"Name":"大福小学校 体育館","Jusho":"奈良県桜井市大福820","kouzui":"○","gake":"○","takashio":"×","jishin":"○","tsunami":"×","kaji":"○","naisui":"×","kazan":"×"}}
,{"type":"Feature","geometry":{"type":"Point","coordinates":[135.825,34.518]},"properties":{"Name":"大福小学校 グラウンド","Jusho":"奈良県桜井市大福820","kouzui":"×","gake":"×","takashio":"×","jishin":"○","tsunami":"×","kaji":"○","naisui":"×","kazan":"×"}}
,{"type":"Feature","geometry":{"type":"Point","coordinates":[135.829,34.51]},"properties":{"Name":"桜井市西老人憩いの家","Jusho":"奈良県桜井市大福77-1","kouzui":"○","gake":"○","takashio":"×","jishin":"×","tsunami":"×","kaji":"○","naisui":"×","kazan":"×"}}
,{"type":"Feature","geometry":{"type":"Point","coordinates":[135.829,34.509]},"properties":{"Name":"第１保育所","Jusho":"奈良県桜井市吉備648-1","kouzui":"○","gake":"○","takashio":"×","jishin":"○","tsunami":"×","kaji":"○","naisui":"×","kazan":"×"}}
,{"type":"Feature","geometry":{"type":"Point","coordinates":[135.829,34.509]},"properties":{"Name":"桜井西ふれあいセンター","Jusho":"奈良県桜井市吉備646-16","kouzui":"○","gake":"○","takashio":"×","jishin":"×","tsunami":"×","kaji":"○","naisui":"×","kazan":"×"}}
,{"type":"Feature","geometry":{"type":"Point","coordinates":[135.826,34.513]},"properties":{"Name":"桜井西ふれあいセンター分館","Jusho":"奈良県桜井市西之宮211-1","kouzui":"○","gake":"○","takashio":"×","jishin":"○","tsunami":"×","kaji":"○","naisui":"×","kazan":"×"}}
,{"type":"Feature","geometry":{"type":"Point","coordinates":[135.838,34.519]},"properties":{"Name":"桜井西小学校 体育館","Jusho":"奈良県桜井市上之庄594-1","kouzui":"○","gake":"○","takashio":"×","jishin":"○","tsunami":"×","kaji":"○","naisui":"×","kazan":"×"}}
,{"type":"Feature","geometry":{"type":"Point","coordinates":[135.839,34.518]},"properties":{"Name":"桜井西小学校 グラウンド","Jusho":"奈良県桜井市上之庄594-1","kouzui":"×","gake":"×","takashio":"×","jishin":"○","tsunami":"×","kaji":"○","naisui":"×","kazan":"×"}}
,{"type":"Feature","geometry":{"type":"Point","coordinates":[135.83,34.519]},"properties":{"Name":"桜井西中学校 体育館","Jusho":"奈良県桜井市大福747","kouzui":"○","gake":"○","takashio":"×","jishin":"○","tsunami":"×","kaji":"○","naisui":"×","kazan":"×"}}
,{"type":"Feature","geometry":{"type":"Point","coordinates":[135.831,34.518]},"properties":{"Name":"桜井西中学校 グラウンド","Jusho":"奈良県桜井市大福747","kouzui":"×","gake":"×","takashio":"×","jishin":"○","tsunami":"×","kaji":"○","naisui":"×","kazan":"×"}}
,{"type":"Feature","geometry":{"type":"Point","coordinates":[135.84,34.53]},"properties":{"Name":"芝運動公園","Jusho":"奈良県桜井市三輪686","kouzui":"×","gake":"×","takashio":"×","jishin":"○","tsunami":"×","kaji":"○","naisui":"×","kazan":"×"}}
,{"type":"Feature","geometry":{"type":"Point","coordinates":[135.841,34.529]},"properties":{"Name":"総合体育館","Jusho":"奈良県桜井市三輪686","kouzui":"○","gake":"○","takashio":"×","jishin":"○","tsunami":"×","kaji":"○","naisui":"×","kazan":"×"}}
,{"type":"Feature","geometry":{"type":"Point","coordinates":[135.841,34.53]},"properties":{"Name":"桜井市民体育館","Jusho":"奈良県桜井市芝54-1","kouzui":"×","gake":"○","takashio":"×","jishin":"×","tsunami":"×","kaji":"○","naisui":"×","kazan":"×"}}
,{"type":"Feature","geometry":{"type":"Point","coordinates":[135.85,34.525]},"properties":{"Name":"三輪小学校 体育館","Jusho":"奈良県桜井市三輪324","kouzui":"○","gake":"○","takashio":"×","jishin":"○","tsunami":"×","kaji":"○","naisui":"×","kazan":"×"}}
,{"type":"Feature","geometry":{"type":"Point","coordinates":[135.851,34.526]},"properties":{"Name":"三輪小学校 グラウンド","Jusho":"奈良県桜井市三輪324","kouzui":"×","gake":"×","takashio":"×","jishin":"○","tsunami":"×","kaji":"○","naisui":"×","kazan":"×"}}
,{"type":"Feature","geometry":{"type":"Point","coordinates":[135.842,34.532]},"properties":{"Name":"大三輪中学校 体育館","Jusho":"奈良県桜井市芝1401","kouzui":"○","gake":"○","takashio":"×","jishin":"○","tsunami":"×","kaji":"○","naisui":"×","kazan":"×"}}
,{"type":"Feature","geometry":{"type":"Point","coordinates":[135.843,34.532]},"properties":{"Name":"大三輪中学校 グラウンド","Jusho":"奈良県桜井市芝1401","kouzui":"×","gake":"×","takashio":"×","jishin":"○","tsunami":"×","kaji":"○","naisui":"×","kazan":"×"}}
,{"type":"Feature","geometry":{"type":"Point","coordinates":[135.843,34.536]},"properties":{"Name":"織田小学校 体育館","Jusho":"奈良県桜井市芝1177","kouzui":"○","gake":"○","takashio":"×","jishin":"○","tsunami":"×","kaji":"○","naisui":"×","kazan":"×"}}
,{"type":"Feature","geometry":{"type":"Point","coordinates":[135.843,34.536]},"properties":{"Name":"織田小学校 グラウンド","Jusho":"奈良県桜井市芝1177","kouzui":"×","gake":"×","takashio":"×","jishin":"○","tsunami":"×","kaji":"○","naisui":"×","kazan":"×"}}
,{"type":"Feature","geometry":{"type":"Point","coordinates":[135.834,34.547]},"properties":{"Name":"纒向小学校 体育館","Jusho":"奈良県桜井市東田339","kouzui":"○","gake":"○","takashio":"×","jishin":"○","tsunami":"×","kaji":"○","naisui":"×","kazan":"×"}}
,{"type":"Feature","geometry":{"type":"Point","coordinates":[135.835,34.546]},"properties":{"Name":"纒向小学校 グラウンド","Jusho":"奈良県桜井市東田339","kouzui":"×","gake":"×","takashio":"×","jishin":"○","tsunami":"×","kaji":"○","naisui":"×","kazan":"×"}}
,{"type":"Feature","geometry":{"type":"Point","coordinates":[135.832,34.537]},"properties":{"Name":"桜井北ふれあいセンター","Jusho":"奈良県桜井市豊田311-2","kouzui":"○","gake":"○","takashio":"×","jishin":"×","tsunami":"×","kaji":"○","naisui":"×","kazan":"×"}}
,{"type":"Feature","geometry":{"type":"Point","coordinates":[135.832,34.539]},"properties":{"Name":"第５保育所","Jusho":"奈良県桜井市豊前267","kouzui":"○","gake":"○","takashio":"×","jishin":"×","tsunami":"×","kaji":"○","naisui":"×","kazan":"×"}}
,{"type":"Feature","geometry":{"type":"Point","coordinates":[135.833,34.538]},"properties":{"Name":"桜井北ふれあいセンター分館","Jusho":"奈良県桜井市豊田314-2","kouzui":"○","gake":"○","takashio":"×","jishin":"○","tsunami":"×","kaji":"○","naisui":"×","kazan":"×"}}
,{"type":"Feature","geometry":{"type":"Point","coordinates":[135.852,34.506]},"properties":{"Name":"図書館","Jusho":"奈良県桜井市河西31","kouzui":"○","gake":"○","takashio":"×","jishin":"○","tsunami":"×","kaji":"○","naisui":"×","kazan":"×"}}
,{"type":"Feature","geometry":{"type":"Point","coordinates":[135.851,34.507]},"properties":{"Name":"図書館 駐車場","Jusho":"奈良県桜井市河西31","kouzui":"×","gake":"×","takashio":"×","jishin":"○","tsunami":"×","kaji":"○","naisui":"×","kazan":"×"}}
,{"type":"Feature","geometry":{"type":"Point","coordinates":[135.87,34.503]},"properties":{"Name":"桜井市グリーンパーク","Jusho":"奈良県桜井市浅古485-1","kouzui":"○","gake":"○","takashio":"×","jishin":"○","tsunami":"×","kaji":"○","naisui":"×","kazan":"×"}}
,{"type":"Feature","geometry":{"type":"Point","coordinates":[135.845,34.514]},"properties":{"Name":"天理教明和大教会","Jusho":"奈良県桜井市川合254-1","kouzui":"○","gake":"○","takashio":"×","jishin":"○","tsunami":"×","kaji":"○","naisui":"×","kazan":"×"}}
,{"type":"Feature","geometry":{"type":"Point","coordinates":[135.845,34.506]},"properties":{"Name":"桜井公園","Jusho":"奈良県桜井市谷565外","kouzui":"×","gake":"×","takashio":"×","jishin":"○","tsunami":"×","kaji":"○","naisui":"×","kazan":"×"}}
,{"type":"Feature","geometry":{"type":"Point","coordinates":[135.84,34.502]},"properties":{"Name":"安倍史跡公園","Jusho":"奈良県桜井市安倍木材団地1-8-6","kouzui":"×","gake":"×","takashio":"×","jishin":"○","tsunami":"×","kaji":"○","naisui":"×","kazan":"×"}}
,{"type":"Feature","geometry":{"type":"Point","coordinates":[135.869,34.515]},"properties":{"Name":"朝倉台２号公園","Jusho":"奈良県桜井市慈恩寺1000-135外","kouzui":"×","gake":"×","takashio":"×","jishin":"○","tsunami":"×","kaji":"○","naisui":"×","kazan":"×"}}
,{"type":"Feature","geometry":{"type":"Point","coordinates":[135.84,34.544]},"properties":{"Name":"旧纒向小学校跡地","Jusho":"奈良県桜井市辻24-1","kouzui":"×","gake":"×","takashio":"×","jishin":"○","tsunami":"×","kaji":"○","naisui":"×","kazan":"×"}}
,{"type":"Feature","geometry":{"type":"Point","coordinates":[135.833,34.537]},"properties":{"Name":"豊田児童公園","Jusho":"奈良県桜井市","kouzui":"×","gake":"×","takashio":"×","jishin":"○","tsunami":"×","kaji":"○","naisui":"×","kazan":"×"}}
,{"type":"Feature","geometry":{"type":"Point","coordinates":[135.834,34.536]},"properties":{"Name":"高齢者ふれあい広場","Jusho":"奈良県桜井市芝24-1","kouzui":"×","gake":"×","takashio":"×","jishin":"○","tsunami":"×","kaji":"○","naisui":"×","kazan":"×"}}
,{"type":"Feature","geometry":{"type":"Point","coordinates":[135.821,34.517]},"properties":{"Name":"なかつみち児童公園","Jusho":"奈良県桜井市大福370","kouzui":"×","gake":"×","takashio":"×","jishin":"○","tsunami":"×","kaji":"○","naisui":"×","kazan":"×"}}
,{"type":"Feature","geometry":{"type":"Point","coordinates":[135.828,34.511]},"properties":{"Name":"大福吉備中央公園","Jusho":"奈良県桜井市大福107","kouzui":"×","gake":"×","takashio":"×","jishin":"○","tsunami":"×","kaji":"○","naisui":"×","kazan":"×"}}
,{"type":"Feature","geometry":{"type":"Point","coordinates":[135.845,34.519]},"properties":{"Name":"桜井中央児童公園","Jusho":"奈良県桜井市粟殿1001","kouzui":"×","gake":"×","takashio":"×","jishin":"○","tsunami":"×","kaji":"○","naisui":"×","kazan":"×"}}
,{"type":"Feature","geometry":{"type":"Point","coordinates":[135.875,34.515]},"properties":{"Name":"朝倉台４号公園","Jusho":"奈良県桜井市朝倉台西6-1370","kouzui":"×","gake":"×","takashio":"×","jishin":"○","tsunami":"×","kaji":"○","naisui":"×","kazan":"×"}}
,{"type":"Feature","geometry":{"type":"Point","coordinates":[135.846,34.51]},"properties":{"Name":"昭和児童公園","Jusho":"奈良県桜井市桜井243-1","kouzui":"×","gake":"×","takashio":"×","jishin":"○","tsunami":"×","kaji":"○","naisui":"×","kazan":"×"}}
,{"type":"Feature","geometry":{"type":"Point","coordinates":[135.862,34.464]},"properties":{"Name":"多武峰第１駐車場","Jusho":"奈良県桜井市多武峰473外","kouzui":"×","gake":"×","takashio":"×","jishin":"○","tsunami":"×","kaji":"○","naisui":"×","kazan":"×"}}
,{"type":"Feature","geometry":{"type":"Point","coordinates":[135.837,34.521]},"properties":{"Name":"イオン桜井店 駐車場","Jusho":"奈良県桜井市上之庄278-1","kouzui":"×","gake":"×","takashio":"×","jishin":"○","tsunami":"×","kaji":"○","naisui":"×","kazan":"×"}}
,{"type":"Feature","geometry":{"type":"Point","coordinates":[135.831,34.523]},"properties":{"Name":"LAMU（ラ・ムー）桜井店 駐車場","Jusho":"奈良県桜井市東新堂500","kouzui":"×","gake":"×","takashio":"×","jishin":"○","tsunami":"×","kaji":"○","naisui":"×","kazan":"×"}}
,{"type":"Feature","geometry":{"type":"Point","coordinates":[135.692,34.354]},"properties":{"Name":"市民会館","Jusho":"奈良県五條市本町３丁目１-１３","kouzui":"○","gake":"○","takashio":"×","jishin":"○","tsunami":"×","kaji":"○","naisui":"○","kazan":"×"}}
,{"type":"Feature","geometry":{"type":"Point","coordinates":[135.691,34.353]},"properties":{"Name":"中央体育館","Jusho":"奈良県五條市本町３丁目１-１３","kouzui":"○","gake":"○","takashio":"×","jishin":"○","tsunami":"×","kaji":"○","naisui":"○","kazan":"×"}}
,{"type":"Feature","geometry":{"type":"Point","coordinates":[135.692,34.354]},"properties":{"Name":"中央公民館","Jusho":"奈良県五條市本町３丁目１-１３","kouzui":"○","gake":"○","takashio":"×","jishin":"○","tsunami":"×","kaji":"○","naisui":"○","kazan":"×"}}
,{"type":"Feature","geometry":{"type":"Point","coordinates":[135.693,34.352]},"properties":{"Name":"五條小学校","Jusho":"奈良県五條市本町１丁目１-４","kouzui":"○","gake":"○","takashio":"×","jishin":"○","tsunami":"×","kaji":"○","naisui":"○","kazan":"×"}}
,{"type":"Feature","geometry":{"type":"Point","coordinates":[135.702,34.351]},"properties":{"Name":"人権総合センター","Jusho":"奈良県五條市五條４丁目１-３","kouzui":"×","gake":"○","takashio":"×","jishin":"○","tsunami":"×","kaji":"○","naisui":"○","kazan":"×"}}
,{"type":"Feature","geometry":{"type":"Point","coordinates":[135.703,34.352]},"properties":{"Name":"五條東体育館","Jusho":"奈良県五條市五條４丁目２-６","kouzui":"×","gake":"○","takashio":"×","jishin":"○","tsunami":"×","kaji":"○","naisui":"○","kazan":"×"}}
,{"type":"Feature","geometry":{"type":"Point","coordinates":[135.689,34.353]},"properties":{"Name":"五條中学校","Jusho":"奈良県五條市下之町５０","kouzui":"○","gake":"○","takashio":"×","jishin":"○","tsunami":"×","kaji":"○","naisui":"○","kazan":"×"}}
,{"type":"Feature","geometry":{"type":"Point","coordinates":[135.696,34.356]},"properties":{"Name":"旧五條高等学校跡地","Jusho":"奈良県五條市岡口1丁目１１１-２","kouzui":"○","gake":"○","takashio":"×","jishin":"○","tsunami":"×","kaji":"○","naisui":"○","kazan":"×"}}
,{"type":"Feature","geometry":{"type":"Point","coordinates":[135.7,34.356]},"properties":{"Name":"五条駅前臨時駐車場","Jusho":"奈良県五條市須恵３丁目２４０-１","kouzui":"○","gake":"○","takashio":"×","jishin":"○","tsunami":"×","kaji":"○","naisui":"○","kazan":"×"}}
,{"type":"Feature","geometry":{"type":"Point","coordinates":[135.707,34.351]},"properties":{"Name":"五條中央公園","Jusho":"奈良県五條市五條４丁目１０","kouzui":"×","gake":"○","takashio":"×","jishin":"○","tsunami":"×","kaji":"○","naisui":"○","kazan":"×"}}
,{"type":"Feature","geometry":{"type":"Point","coordinates":[135.692,34.353]},"properties":{"Name":"本町３丁目市駐車場","Jusho":"奈良県五條市本町３丁目１０１","kouzui":"○","gake":"○","takashio":"×","jishin":"○","tsunami":"×","kaji":"○","naisui":"○","kazan":"×"}}
,{"type":"Feature","geometry":{"type":"Point","coordinates":[135.699,34.354]},"properties":{"Name":"須恵公民館","Jusho":"奈良県五條市須恵３丁目４-４４","kouzui":"○","gake":"○","takashio":"×","jishin":"○","tsunami":"×","kaji":"○","naisui":"○","kazan":"×"}}
,{"type":"Feature","geometry":{"type":"Point","coordinates":[135.678,34.344]},"properties":{"Name":"二見文化体育センター","Jusho":"奈良県五條市二見７丁目６-５０","kouzui":"○","gake":"○","takashio":"×","jishin":"○","tsunami":"×","kaji":"○","naisui":"○","kazan":"×"}}
,{"type":"Feature","geometry":{"type":"Point","coordinates":[135.686,34.344]},"properties":{"Name":"二見公民館","Jusho":"奈良県五條市二見２丁目５-１","kouzui":"○","gake":"○","takashio":"×","jishin":"○","tsunami":"×","kaji":"○","naisui":"○","kazan":"×"}}
,{"type":"Feature","geometry":{"type":"Point","coordinates":[135.689,34.345]},"properties":{"Name":"二見保育所跡地","Jusho":"奈良県五條市二見４丁目４","kouzui":"○","gake":"○","takashio":"×","jishin":"○","tsunami":"×","kaji":"○","naisui":"○","kazan":"×"}}
,{"type":"Feature","geometry":{"type":"Point","coordinates":[135.687,34.34]},"properties":{"Name":"衛生センター","Jusho":"奈良県五條市二見５丁目４-２","kouzui":"×","gake":"○","takashio":"×","jishin":"○","tsunami":"×","kaji":"○","naisui":"○","kazan":"×"}}
,{"type":"Feature","geometry":{"type":"Point","coordinates":[135.672,34.336]},"properties":{"Name":"上野公園","Jusho":"奈良県五條市上野町２４６","kouzui":"×","gake":"○","takashio":"×","jishin":"○","tsunami":"×","kaji":"○","naisui":"○","kazan":"×"}}
,{"type":"Feature","geometry":{"type":"Point","coordinates":[135.679,34.335]},"properties":{"Name":"阪合部小学校","Jusho":"奈良県五條市中町３１","kouzui":"○","gake":"○","takashio":"×","jishin":"○","tsunami":"×","kaji":"○","naisui":"○","kazan":"×"}}
,{"type":"Feature","geometry":{"type":"Point","coordinates":[135.69,34.324]},"properties":{"Name":"プレディアゴルフ場","Jusho":"奈良県五條市阪合部新田町４４１-１","kouzui":"○","gake":"○","takashio":"×","jishin":"○","tsunami":"×","kaji":"○","naisui":"○","kazan":"×"}}
,{"type":"Feature","geometry":{"type":"Point","coordinates":[135.671,34.308]},"properties":{"Name":"田殿集会所","Jusho":"奈良県五條市田殿町２４５","kouzui":"○","gake":"○","takashio":"×","jishin":"○","tsunami":"×","kaji":"○","naisui":"○","kazan":"×"}}
,{"type":"Feature","geometry":{"type":"Point","coordinates":[135.678,34.366]},"properties":{"Name":"牧野小学校","Jusho":"奈良県五條市中之町９２１","kouzui":"○","gake":"○","takashio":"×","jishin":"○","tsunami":"×","kaji":"○","naisui":"○","kazan":"×"}}
,{"type":"Feature","geometry":{"type":"Point","coordinates":[135.666,34.364]},"properties":{"Name":"五條西中学校","Jusho":"奈良県五條市大澤町３７４","kouzui":"○","gake":"○","takashio":"×","jishin":"○","tsunami":"×","kaji":"○","naisui":"○","kazan":"×"}}
,{"type":"Feature","geometry":{"type":"Point","coordinates":[135.671,34.355]},"properties":{"Name":"シプレカントリーゴルフ場","Jusho":"奈良県五條市木ノ原町９６３","kouzui":"○","gake":"○","takashio":"×","jishin":"○","tsunami":"×","kaji":"○","naisui":"○","kazan":"×"}}
,{"type":"Feature","geometry":{"type":"Point","coordinates":[135.668,34.347]},"properties":{"Name":"なつみ台近隣公園","Jusho":"奈良県五條市なつみ台１丁目１４０","kouzui":"○","gake":"○","takashio":"×","jishin":"○","tsunami":"×","kaji":"○","naisui":"○","kazan":"×"}}
,{"type":"Feature","geometry":{"type":"Point","coordinates":[135.683,34.37]},"properties":{"Name":"田園体育館兼集会所","Jusho":"奈良県五條市田園２丁目１８-２","kouzui":"○","gake":"○","takashio":"×","jishin":"○","tsunami":"×","kaji":"○","naisui":"○","kazan":"×"}}
,{"type":"Feature","geometry":{"type":"Point","coordinates":[135.688,34.369]},"properties":{"Name":"田園公民館","Jusho":"奈良県五條市田園４丁目１４-３","kouzui":"○","gake":"○","takashio":"×","jishin":"○","tsunami":"×","kaji":"○","naisui":"○","kazan":"×"}}
,{"type":"Feature","geometry":{"type":"Point","coordinates":[135.685,34.371]},"properties":{"Name":"岡近隣公園","Jusho":"奈良県五條市田園２丁目８６","kouzui":"○","gake":"○","takashio":"×","jishin":"○","tsunami":"×","kaji":"○","naisui":"○","kazan":"×"}}
,{"type":"Feature","geometry":{"type":"Point","coordinates":[135.747,34.363]},"properties":{"Name":"阿太小学校","Jusho":"奈良県五條市原町２２５","kouzui":"○","gake":"○","takashio":"×","jishin":"○","tsunami":"×","kaji":"○","naisui":"○","kazan":"×"}}
,{"type":"Feature","geometry":{"type":"Point","coordinates":[135.749,34.368]},"properties":{"Name":"阿太ミニ体育館","Jusho":"奈良県五條市山田町２","kouzui":"×","gake":"○","takashio":"×","jishin":"○","tsunami":"×","kaji":"○","naisui":"○","kazan":"×"}}
,{"type":"Feature","geometry":{"type":"Point","coordinates":[135.749,34.368]},"properties":{"Name":"阿太運動場","Jusho":"奈良県五條市原町６３７","kouzui":"×","gake":"○","takashio":"×","jishin":"○","tsunami":"×","kaji":"○","naisui":"○","kazan":"×"}}
,{"type":"Feature","geometry":{"type":"Point","coordinates":[135.729,34.382]},"properties":{"Name":"阿田峯公園","Jusho":"奈良県五條市三在町１６８０","kouzui":"○","gake":"○","takashio":"×","jishin":"○","tsunami":"×","kaji":"○","naisui":"○","kazan":"×"}}
,{"type":"Feature","geometry":{"type":"Point","coordinates":[135.752,34.358]},"properties":{"Name":"南阿太公民館","Jusho":"奈良県五條市滝町５０４","kouzui":"○","gake":"○","takashio":"×","jishin":"○","tsunami":"×","kaji":"○","naisui":"○","kazan":"×"}}
,{"type":"Feature","geometry":{"type":"Point","coordinates":[135.75,34.354]},"properties":{"Name":"芝崎河川公園（駐車場含む）","Jusho":"奈良県五條市滝町２６１-１","kouzui":"×","gake":"○","takashio":"×","jishin":"○","tsunami":"×","kaji":"○","naisui":"○","kazan":"×"}}
,{"type":"Feature","geometry":{"type":"Point","coordinates":[135.716,34.349]},"properties":{"Name":"野原東住民センター","Jusho":"奈良県五條市野原東２丁目７-２６","kouzui":"○","gake":"○","takashio":"×","jishin":"○","tsunami":"×","kaji":"○","naisui":"○","kazan":"×"}}
,{"type":"Feature","geometry":{"type":"Point","coordinates":[135.717,34.348]},"properties":{"Name":"野原東運動場","Jusho":"奈良県五條市野原東２丁目４４","kouzui":"○","gake":"○","takashio":"×","jishin":"○","tsunami":"×","kaji":"○","naisui":"○","kazan":"×"}}
,{"type":"Feature","geometry":{"type":"Point","coordinates":[135.702,34.34]},"properties":{"Name":"野原中学校","Jusho":"奈良県五條市野原中３丁目５-４３","kouzui":"○","gake":"○","takashio":"×","jishin":"○","tsunami":"×","kaji":"○","naisui":"○","kazan":"×"}}
,{"type":"Feature","geometry":{"type":"Point","coordinates":[135.702,34.339]},"properties":{"Name":"野原小学校","Jusho":"奈良県五條市野原中３丁目８-３８","kouzui":"○","gake":"○","takashio":"×","jishin":"○","tsunami":"×","kaji":"○","naisui":"○","kazan":"×"}}
,{"type":"Feature","geometry":{"type":"Point","coordinates":[135.703,34.345]},"properties":{"Name":"野原公民館","Jusho":"奈良県五條市野原西３丁目４-３","kouzui":"○","gake":"○","takashio":"×","jishin":"○","tsunami":"×","kaji":"○","naisui":"○","kazan":"×"}}
,{"type":"Feature","geometry":{"type":"Point","coordinates":[135.705,34.343]},"properties":{"Name":"智辯学園","Jusho":"奈良県五條市野原中４丁目１-５１","kouzui":"○","gake":"○","takashio":"×","jishin":"○","tsunami":"×","kaji":"○","naisui":"○","kazan":"×"}}
,{"type":"Feature","geometry":{"type":"Point","coordinates":[135.701,34.335]},"properties":{"Name":"南宇智公民館","Jusho":"奈良県五條市霊安寺町２０１６-３","kouzui":"○","gake":"○","takashio":"×","jishin":"○","tsunami":"×","kaji":"○","naisui":"○","kazan":"×"}}
,{"type":"Feature","geometry":{"type":"Point","coordinates":[135.699,34.336]},"properties":{"Name":"老人憩の家","Jusho":"奈良県五條市霊安寺町２２０５","kouzui":"○","gake":"○","takashio":"×","jishin":"○","tsunami":"×","kaji":"○","naisui":"○","kazan":"×"}}
,{"type":"Feature","geometry":{"type":"Point","coordinates":[135.708,34.382]},"properties":{"Name":"北宇智体育館","Jusho":"奈良県五條市近内町７７９","kouzui":"○","gake":"○","takashio":"×","jishin":"○","tsunami":"×","kaji":"○","naisui":"○","kazan":"×"}}
,{"type":"Feature","geometry":{"type":"Point","coordinates":[135.706,34.383]},"properties":{"Name":"北宇智公民館","Jusho":"奈良県五條市近内町７３５","kouzui":"○","gake":"○","takashio":"×","jishin":"○","tsunami":"×","kaji":"○","naisui":"○","kazan":"×"}}
,{"type":"Feature","geometry":{"type":"Point","coordinates":[135.705,34.389]},"properties":{"Name":"北宇智小学校","Jusho":"奈良県五條市近内町１１５８","kouzui":"○","gake":"○","takashio":"×","jishin":"○","tsunami":"×","kaji":"○","naisui":"○","kazan":"×"}}
,{"type":"Feature","geometry":{"type":"Point","coordinates":[135.702,34.372]},"properties":{"Name":"奈良カントリークラブ","Jusho":"奈良県五條市今井町１１４１","kouzui":"○","gake":"○","takashio":"×","jishin":"○","tsunami":"×","kaji":"○","naisui":"○","kazan":"×"}}
,{"type":"Feature","geometry":{"type":"Point","coordinates":[135.71,34.362]},"properties":{"Name":"宇智小学校","Jusho":"奈良県五條市今井町１１５３","kouzui":"○","gake":"○","takashio":"×","jishin":"○","tsunami":"×","kaji":"○","naisui":"○","kazan":"×"}}
,{"type":"Feature","geometry":{"type":"Point","coordinates":[135.705,34.358]},"properties":{"Name":"宇智公民館","Jusho":"奈良県五條市今井３丁目３-４８","kouzui":"○","gake":"○","takashio":"×","jishin":"○","tsunami":"×","kaji":"○","naisui":"○","kazan":"×"}}
,{"type":"Feature","geometry":{"type":"Point","coordinates":[135.706,34.357]},"properties":{"Name":"今井コミュニティセンター","Jusho":"奈良県五條市今井３丁目３-２０","kouzui":"○","gake":"○","takashio":"×","jishin":"○","tsunami":"×","kaji":"○","naisui":"○","kazan":"×"}}
,{"type":"Feature","geometry":{"type":"Point","coordinates":[135.694,34.37]},"properties":{"Name":"五條高等学校","Jusho":"奈良県五條市岡町１４２８","kouzui":"○","gake":"○","takashio":"×","jishin":"○","tsunami":"×","kaji":"○","naisui":"○","kazan":"×"}}
,{"type":"Feature","geometry":{"type":"Point","coordinates":[135.711,34.358]},"properties":{"Name":"五條東中学校","Jusho":"奈良県五條市今井５丁目７-１２","kouzui":"○","gake":"○","takashio":"×","jishin":"○","tsunami":"×","kaji":"○","naisui":"○","kazan":"×"}}
,{"type":"Feature","geometry":{"type":"Point","coordinates":[135.699,34.362]},"properties":{"Name":"宇智体育館","Jusho":"奈良県五條市岡町９８９","kouzui":"○","gake":"○","takashio":"×","jishin":"○","tsunami":"×","kaji":"○","naisui":"○","kazan":"×"}}
,{"type":"Feature","geometry":{"type":"Point","coordinates":[135.765,34.304]},"properties":{"Name":"西吉野コミュニティセンター","Jusho":"奈良県五條市西吉野町八ツ川４５１","kouzui":"○","gake":"○","takashio":"×","jishin":"○","tsunami":"×","kaji":"○","naisui":"○","kazan":"×"}}
,{"type":"Feature","geometry":{"type":"Point","coordinates":[135.746,34.326]},"properties":{"Name":"旧白銀北中学校","Jusho":"奈良県五條市西吉野町平沼田１６８７","kouzui":"○","gake":"○","takashio":"×","jishin":"○","tsunami":"×","kaji":"○","naisui":"○","kazan":"×"}}
,{"type":"Feature","geometry":{"type":"Point","coordinates":[135.726,34.305]},"properties":{"Name":"西吉野小中学校","Jusho":"奈良県五條市西吉野町屋那瀬４６８","kouzui":"○","gake":"○","takashio":"×","jishin":"○","tsunami":"×","kaji":"○","naisui":"○","kazan":"×"}}
,{"type":"Feature","geometry":{"type":"Point","coordinates":[135.723,34.323]},"properties":{"Name":"果樹・薬草研究センター","Jusho":"奈良県五條市西吉野町湯塩１３４５","kouzui":"○","gake":"○","takashio":"×","jishin":"○","tsunami":"×","kaji":"○","naisui":"○","kazan":"×"}}
,{"type":"Feature","geometry":{"type":"Point","coordinates":[135.721,34.297]},"properties":{"Name":"賀名生体育館","Jusho":"奈良県五條市西吉野町和田７７-１","kouzui":"○","gake":"×","takashio":"×","jishin":"○","tsunami":"×","kaji":"○","naisui":"○","kazan":"×"}}
,{"type":"Feature","geometry":{"type":"Point","coordinates":[135.744,34.291]},"properties":{"Name":"五條高等学校賀名生分校","Jusho":"奈良県五條市西吉野町黒渕８８８","kouzui":"○","gake":"○","takashio":"×","jishin":"○","tsunami":"×","kaji":"○","naisui":"○","kazan":"×"}}
,{"type":"Feature","geometry":{"type":"Point","coordinates":[135.749,34.281]},"properties":{"Name":"西吉野支所","Jusho":"奈良県五條市西吉野町城戸１２２","kouzui":"○","gake":"×","takashio":"×","jishin":"○","tsunami":"×","kaji":"○","naisui":"○","kazan":"×"}}
,{"type":"Feature","geometry":{"type":"Point","coordinates":[135.749,34.264]},"properties":{"Name":"旧西吉野小学校","Jusho":"奈良県五條市西吉野町宗川野７７-１","kouzui":"○","gake":"○","takashio":"×","jishin":"○","tsunami":"×","kaji":"○","naisui":"○","kazan":"×"}}
,{"type":"Feature","geometry":{"type":"Point","coordinates":[135.757,34.172]},"properties":{"Name":"大塔支所","Jusho":"奈良県五條市大塔町辻堂４１","kouzui":"○","gake":"×","takashio":"×","jishin":"○","tsunami":"×","kaji":"○","naisui":"○","kazan":"×"}}
,{"type":"Feature","geometry":{"type":"Point","coordinates":[135.732,34.212]},