var nara={"type":"FeatureCollection","name":"nara","features":[
{"type":"Feature","geometry":{"type":"Point","coordinates":[135.758,34.693]},"properties":{"Name":"あやめ池小学校","Jusho":"奈良県奈良市あやめ池南9-939-39","kouzui":"○","gake":"○","takashio":"×","jishin":"○","tsunami":"×","kaji":"○","naisui":"×","kazan":"×"}}
,{"type":"Feature","geometry":{"type":"Point","coordinates":[135.762,34.699]},"properties":{"Name":"近畿大学附属小学校","Jusho":"奈良県奈良市あやめ池北1-33-3","kouzui":"○","gake":"○","takashio":"×","jishin":"○","tsunami":"×","kaji":"○","naisui":"×","kazan":"×"}}
,{"type":"Feature","geometry":{"type":"Point","coordinates":[135.801,34.661]},"properties":{"Name":"南人権文化センター","Jusho":"奈良県奈良市杏町401-1","kouzui":"○","gake":"○","takashio":"×","jishin":"○","tsunami":"×","kaji":"○","naisui":"×","kazan":"×"}}
,{"type":"Feature","geometry":{"type":"Point","coordinates":[135.791,34.722]},"properties":{"Name":"北部会館（市民文化ホール）","Jusho":"奈良県奈良市右京1-1-4","kouzui":"○","gake":"○","takashio":"×","jishin":"○","tsunami":"×","kaji":"○","naisui":"×","kazan":"×"}}
,{"type":"Feature","geometry":{"type":"Point","coordinates":[135.804,34.711]},"properties":{"Name":"平城第１号近隣公園","Jusho":"奈良県奈良市右京2-1","kouzui":"○","gake":"○","takashio":"×","jishin":"○","tsunami":"×","kaji":"○","naisui":"×","kazan":"×"}}
,{"type":"Feature","geometry":{"type":"Point","coordinates":[135.786,34.719]},"properties":{"Name":"平城第３号近隣公園","Jusho":"奈良県奈良市右京3-18","kouzui":"○","gake":"○","takashio":"×","jishin":"○","tsunami":"×","kaji":"○","naisui":"×","kazan":"×"}}
,{"type":"Feature","geometry":{"type":"Point","coordinates":[135.786,34.722]},"properties":{"Name":"（旧）右京小学校","Jusho":"奈良県奈良市右京4-11-1","kouzui":"○","gake":"○","takashio":"×","jishin":"○","tsunami":"×","kaji":"○","naisui":"×","kazan":"×"}}
,{"type":"Feature","geometry":{"type":"Point","coordinates":[135.83,34.651]},"properties":{"Name":"横井児童館","Jusho":"奈良県奈良市横井5-337-2","kouzui":"○","gake":"○","takashio":"×","jishin":"○","tsunami":"×","kaji":"○","naisui":"×","kazan":"×"}}
,{"type":"Feature","geometry":{"type":"Point","coordinates":[135.911,34.659]},"properties":{"Name":"田原小学校","Jusho":"奈良県奈良市横田町199-1","kouzui":"○","gake":"○","takashio":"×","jishin":"○","tsunami":"×","kaji":"○","naisui":"×","kazan":"×"}}
,{"type":"Feature","geometry":{"type":"Point","coordinates":[135.912,34.66]},"properties":{"Name":"田原中学校","Jusho":"奈良県奈良市横田町295-1","kouzui":"○","gake":"○","takashio":"×","jishin":"○","tsunami":"×","kaji":"○","naisui":"×","kazan":"×"}}
,{"type":"Feature","geometry":{"type":"Point","coordinates":[135.913,34.735]},"properties":{"Name":"興東公民館狭川分館","Jusho":"奈良県奈良市下狭川町3109-2","kouzui":"○","gake":"○","takashio":"×","jishin":"○","tsunami":"×","kaji":"○","naisui":"×","kazan":"×"}}
,{"type":"Feature","geometry":{"type":"Point","coordinates":[135.738,34.705]},"properties":{"Name":"二名公民館","Jusho":"奈良県奈良市学園赤松町3684","kouzui":"○","gake":"○","takashio":"×","jishin":"○","tsunami":"×","kaji":"○","naisui":"×","kazan":"×"}}
,{"type":"Feature","geometry":{"type":"Point","coordinates":[135.75,34.696]},"properties":{"Name":"私立帝塚山大学（学園前キャンパス）","Jusho":"奈良県奈良市学園南3-1-3","kouzui":"○","gake":"○","takashio":"×","jishin":"○","tsunami":"×","kaji":"○","naisui":"×","kazan":"×"}}
,{"type":"Feature","geometry":{"type":"Point","coordinates":[135.75,34.697]},"properties":{"Name":"西部会館（市民ホール）","Jusho":"奈良県奈良市学園南3-1-5","kouzui":"○","gake":"○","takashio":"×","jishin":"○","tsunami":"×","kaji":"○","naisui":"×","kazan":"×"}}
,{"type":"Feature","geometry":{"type":"Point","coordinates":[135.75,34.697]},"properties":{"Name":"西部公民館","Jusho":"奈良県奈良市学園南3-1-5","kouzui":"○","gake":"○","takashio":"×","jishin":"○","tsunami":"×","kaji":"○","naisui":"×","kazan":"×"}}
,{"type":"Feature","geometry":{"type":"Point","coordinates":[135.836,34.675]},"properties":{"Name":"飛鳥小学校","Jusho":"奈良県奈良市紀寺町785","kouzui":"○","gake":"○","takashio":"×","jishin":"○","tsunami":"×","kaji":"○","naisui":"×","kazan":"×"}}
,{"type":"Feature","geometry":{"type":"Point","coordinates":[135.835,34.676]},"properties":{"Name":"飛鳥公民館","Jusho":"奈良県奈良市紀寺町984","kouzui":"○","gake":"○","takashio":"×","jishin":"○","tsunami":"×","kaji":"○","naisui":"×","kazan":"×"}}
,{"type":"Feature","geometry":{"type":"Point","coordinates":[135.876,34.626]},"properties":{"Name":"興隆寺町公民館","Jusho":"奈良県奈良市興隆寺町356-2","kouzui":"○","gake":"×","takashio":"×","jishin":"×","tsunami":"×","kaji":"○","naisui":"×","kazan":"×"}}
,{"type":"Feature","geometry":{"type":"Point","coordinates":[136.044,34.71]},"properties":{"Name":"月ヶ瀬公民館","Jusho":"奈良県奈良市月ケ瀬尾山2815","kouzui":"○","gake":"○","takashio":"×","jishin":"○","tsunami":"×","kaji":"○","naisui":"×","kazan":"×"}}
,{"type":"Feature","geometry":{"type":"Point","coordinates":[136.044,34.711]},"properties":{"Name":"月ヶ瀬小中学校及び月ヶ瀬体育館","Jusho":"奈良県奈良市月ヶ瀬尾山2551","kouzui":"○","gake":"○","takashio":"×","jishin":"○","tsunami":"×","kaji":"○","naisui":"×","kazan":"×"}}
,{"type":"Feature","geometry":{"type":"Point","coordinates":[135.835,34.663]},"properties":{"Name":"東人権文化センター","Jusho":"奈良県奈良市古市町1226","kouzui":"○","gake":"○","takashio":"×","jishin":"○","tsunami":"×","kaji":"○","naisui":"×","kazan":"×"}}
,{"type":"Feature","geometry":{"type":"Point","coordinates":[135.835,34.662]},"properties":{"Name":"古市児童館","Jusho":"奈良県奈良市古市町1263","kouzui":"○","gake":"○","takashio":"×","jishin":"○","tsunami":"×","kaji":"○","naisui":"×","kazan":"×"}}
,{"type":"Feature","geometry":{"type":"Point","coordinates":[135.842,34.656]},"properties":{"Name":"東市小学校","Jusho":"奈良県奈良市古市町268","kouzui":"○","gake":"○","takashio":"×","jishin":"○","tsunami":"×","kaji":"○","naisui":"×","kazan":"×"}}
,{"type":"Feature","geometry":{"type":"Point","coordinates":[135.843,34.654]},"properties":{"Name":"古市公園","Jusho":"奈良県奈良市古市町98","kouzui":"○","gake":"○","takashio":"×","jishin":"○","tsunami":"×","kaji":"○","naisui":"×","kazan":"×"}}
,{"type":"Feature","geometry":{"type":"Point","coordinates":[135.789,34.675]},"properties":{"Name":"都跡公民館","Jusho":"奈良県奈良市五条町204-1","kouzui":"○","gake":"○","takashio":"×","jishin":"○","tsunami":"×","kaji":"○","naisui":"×","kazan":"×"}}
,{"type":"Feature","geometry":{"type":"Point","coordinates":[135.842,34.674]},"properties":{"Name":"奈良教育大学","Jusho":"奈良県奈良市高畑町","kouzui":"○","gake":"○","takashio":"×","jishin":"○","tsunami":"×","kaji":"○","naisui":"×","kazan":"×"}}
,{"type":"Feature","geometry":{"type":"Point","coordinates":[135.849,34.675]},"properties":{"Name":"飛鳥中学校","Jusho":"奈良県奈良市高畑町1475-1","kouzui":"○","gake":"○","takashio":"×","jishin":"○","tsunami":"×","kaji":"○","naisui":"×","kazan":"×"}}
,{"type":"Feature","geometry":{"type":"Point","coordinates":[135.854,34.633]},"properties":{"Name":"南部公民館精華分館","Jusho":"奈良県奈良市高樋町640-1","kouzui":"○","gake":"○","takashio":"×","jishin":"○","tsunami":"×","kaji":"○","naisui":"×","kazan":"×"}}
,{"type":"Feature","geometry":{"type":"Point","coordinates":[135.798,34.692]},"properties":{"Name":"平城宮跡","Jusho":"奈良県奈良市佐紀町外","kouzui":"○","gake":"○","takashio":"×","jishin":"○","tsunami":"×","kaji":"○","naisui":"×","kazan":"×"}}
,{"type":"Feature","geometry":{"type":"Point","coordinates":[135.817,34.707]},"properties":{"Name":"佐保山近隣公園","Jusho":"奈良県奈良市佐保台2-902-374","kouzui":"○","gake":"○","takashio":"×","jishin":"○","tsunami":"×","kaji":"○","naisui":"×","kazan":"×"}}
,{"type":"Feature","geometry":{"type":"Point","coordinates":[135.817,34.71]},"properties":{"Name":"佐保台小学校","Jusho":"奈良県奈良市佐保台3-902-341","kouzui":"○","gake":"○","takashio":"×","jishin":"○","tsunami":"×","kaji":"○","naisui":"×","kazan":"×"}}
,{"type":"Feature","geometry":{"type":"Point","coordinates":[135.806,34.714]},"properties":{"Name":"左京小学校","Jusho":"奈良県奈良市左京3-1-1","kouzui":"○","gake":"○","takashio":"×","jishin":"○","tsunami":"×","kaji":"○","naisui":"×","kazan":"×"}}
,{"type":"Feature","geometry":{"type":"Point","coordinates":[135.836,34.692]},"properties":{"Name":"鼓阪小学校","Jusho":"奈良県奈良市雑司町97","kouzui":"○","gake":"○","takashio":"×","jishin":"○","tsunami":"×","kaji":"○","naisui":"×","kazan":"×"}}
,{"type":"Feature","geometry":{"type":"Point","coordinates":[135.736,34.69]},"properties":{"Name":"富雄中学校","Jusho":"奈良県奈良市三碓2-3-12","kouzui":"○","gake":"○","takashio":"×","jishin":"○","tsunami":"×","kaji":"○","naisui":"×","kazan":"×"}}
,{"type":"Feature","geometry":{"type":"Point","coordinates":[135.728,34.703]},"properties":{"Name":"育英西中学校・高等学校","Jusho":"奈良県奈良市三松4-637-1","kouzui":"○","gake":"○","takashio":"×","jishin":"○","tsunami":"×","kaji":"○","naisui":"×","kazan":"×"}}
,{"type":"Feature","geometry":{"type":"Point","coordinates":[135.815,34.682]},"properties":{"Name":"奈良女子高等学校","Jusho":"奈良県奈良市三条宮前町3-6","kouzui":"○","gake":"○","takashio":"×","jishin":"○","tsunami":"×","kaji":"○","naisui":"×","kazan":"×"}}
,{"type":"Feature","geometry":{"type":"Point","coordinates":[135.817,34.68]},"properties":{"Name":"なら１００年会館","Jusho":"奈良県奈良市三条宮前町7-1","kouzui":"○","gake":"○","takashio":"×","jishin":"○","tsunami":"×","kaji":"○","naisui":"×","kazan":"×"}}
,{"type":"Feature","geometry":{"type":"Point","coordinates":[135.806,34.68]},"properties":{"Name":"三笠中学校","Jusho":"奈良県奈良市三条川西町3-1","kouzui":"○","gake":"○","takashio":"×","jishin":"○","tsunami":"×","kaji":"○","naisui":"×","kazan":"×"}}
,{"type":"Feature","geometry":{"type":"Point","coordinates":[135.829,34.644]},"properties":{"Name":"南部公民館","Jusho":"奈良県奈良市山町27-1","kouzui":"○","gake":"○","takashio":"×","jishin":"○","tsunami":"×","kaji":"○","naisui":"×","kazan":"×"}}
,{"type":"Feature","geometry":{"type":"Point","coordinates":[135.787,34.711]},"properties":{"Name":"関西文化芸術高等学校","Jusho":"奈良県奈良市山陵町1179","kouzui":"○","gake":"○","takashio":"×","jishin":"○","tsunami":"×","kaji":"○","naisui":"×","kazan":"×"}}
,{"type":"Feature","geometry":{"type":"Point","coordinates":[135.789,34.713]},"properties":{"Name":"学校法人東大寺学園","Jusho":"奈良県奈良市山陵町1375","kouzui":"○","gake":"○","takashio":"×","jishin":"○","tsunami":"×","kaji":"○","naisui":"×","kazan":"×"}}
,{"type":"Feature","geometry":{"type":"Point","coordinates":[135.783,34.715]},"properties":{"Name":"学校法人奈良大学","Jusho":"奈良県奈良市山陵町1500","kouzui":"○","gake":"○","takashio":"×","jishin":"○","tsunami":"×","kaji":"○","naisui":"×","kazan":"×"}}
,{"type":"Feature","geometry":{"type":"Point","coordinates":[135.788,34.681]},"properties":{"Name":"都跡小学校","Jusho":"奈良県奈良市四条大路5-6-1","kouzui":"×","gake":"○","takashio":"×","jishin":"○","tsunami":"×","kaji":"○","naisui":"×","kazan":"×"}}
,{"type":"Feature","geometry":{"type":"Point","coordinates":[135.807,34.677]},"properties":{"Name":"大安寺西地域ふれあい会館","Jusho":"奈良県奈良市四条大路南町1-22","kouzui":"○","gake":"○","takashio":"×","jishin":"○","tsunami":"×","kaji":"○","naisui":"×","kazan":"×"}}
,{"type":"Feature","geometry":{"type":"Point","coordinates":[135.844,34.664]},"properties":{"Name":"奈良佐保短期大学","Jusho":"奈良県奈良市鹿野園町806","kouzui":"○","gake":"○","takashio":"×","jishin":"○","tsunami":"×","kaji":"○","naisui":"×","kazan":"×"}}
,{"type":"Feature","geometry":{"type":"Point","coordinates":[135.778,34.664]},"properties":{"Name":"県立奈良東養護学校（体育館）","Jusho":"奈良県奈良市七条2-670","kouzui":"○","gake":"○","takashio":"×","jishin":"○","tsunami":"×","kaji":"○","naisui":"×","kazan":"×"}}
,{"type":"Feature","geometry":{"type":"Point","coordinates":[135.791,34.662]},"properties":{"Name":"県立奈良養護学校（体育館）","Jusho":"奈良県奈良市七条町135","kouzui":"×","gake":"○","takashio":"×","jishin":"○","tsunami":"×","kaji":"○","naisui":"×","kazan":"×"}}
,{"type":"Feature","geometry":{"type":"Point","coordinates":[135.829,34.645]},"properties":{"Name":"帯解小学校","Jusho":"奈良県奈良市柴屋町9","kouzui":"○","gake":"○","takashio":"×","jishin":"○","tsunami":"×","kaji":"○","naisui":"×","kazan":"×"}}
,{"type":"Feature","geometry":{"type":"Point","coordinates":[135.794,34.72]},"properties":{"Name":"県立奈良高等学校","Jusho":"奈良県奈良市朱雀2-11","kouzui":"○","gake":"○","takashio":"×","jishin":"○","tsunami":"×","kaji":"○","naisui":"×","kazan":"×"}}
,{"type":"Feature","geometry":{"type":"Point","coordinates":[135.795,34.719]},"properties":{"Name":"平城第２号公園","Jusho":"奈良県奈良市朱雀2-12","kouzui":"○","gake":"○","takashio":"×","jishin":"○","tsunami":"×","kaji":"○","naisui":"×","kazan":"×"}}
,{"type":"Feature","geometry":{"type":"Point","coordinates":[135.798,34.716]},"properties":{"Name":"朱雀小学校","Jusho":"奈良県奈良市朱雀6-10-1","kouzui":"○","gake":"○","takashio":"×","jishin":"○","tsunami":"×","kaji":"○","naisui":"×","kazan":"×"}}
,{"type":"Feature","geometry":{"type":"Point","coordinates":[135.8,34.716]},"properties":{"Name":"平城東中学校","Jusho":"奈良県奈良市朱雀6-11","kouzui":"○","gake":"○","takashio":"×","jishin":"○","tsunami":"×","kaji":"○","naisui":"×","kazan":"×"}}
,{"type":"Feature","geometry":{"type":"Point","coordinates":[135.797,34.716]},"properties":{"Name":"平城東公民館","Jusho":"奈良県奈良市朱雀6-9-1","kouzui":"○","gake":"○","takashio":"×","jishin":"○","tsunami":"×","kaji":"○","naisui":"×","kazan":"×"}}
,{"type":"Feature","geometry":{"type":"Point","coordinates":[135.774,34.709]},"properties":{"Name":"平城中学校","Jusho":"奈良県奈良市秋篠町1333","kouzui":"○","gake":"○","takashio":"×","jishin":"○","tsunami":"×","kaji":"○","naisui":"×","kazan":"×"}}
,{"type":"Feature","geometry":{"type":"Point","coordinates":[135.778,34.711]},"properties":{"Name":"平城小学校","Jusho":"奈良県奈良市秋篠町1394","kouzui":"○","gake":"○","takashio":"×","jishin":"○","tsunami":"×","kaji":"○","naisui":"×","kazan":"×"}}
,{"type":"Feature","geometry":{"type":"Point","coordinates":[135.778,34.706]},"properties":{"Name":"平城公民館","Jusho":"奈良県奈良市秋篠町1468","kouzui":"○","gake":"○","takashio":"×","jishin":"○","tsunami":"×","kaji":"○","naisui":"×","kazan":"×"}}
,{"type":"Feature","geometry":{"type":"Point","coordinates":[135.78,34.708]},"properties":{"Name":"私立奈良大学附属高等学校","Jusho":"奈良県奈良市秋篠町50","kouzui":"○","gake":"○","takashio":"×","jishin":"○","tsunami":"×","kaji":"○","naisui":"×","kazan":"×"}}
,{"type":"Feature","geometry":{"type":"Point","coordinates":[135.826,34.682]},"properties":{"Name":"中部公民館","Jusho":"奈良県奈良市上三条町23-4","kouzui":"○","gake":"○","takashio":"×","jishin":"○","tsunami":"×","kaji":"○","naisui":"×","kazan":"×"}}
,{"type":"Feature","geometry":{"type":"Point","coordinates":[135.78,34.72]},"properties":{"Name":"ならやま中学校","Jusho":"奈良県奈良市神功2-1","kouzui":"○","gake":"○","takashio":"×","jishin":"○","tsunami":"×","kaji":"○","naisui":"×","kazan":"×"}}
,{"type":"Feature","geometry":{"type":"Point","coordinates":[135.781,34.72]},"properties":{"Name":"ならやま小学校","Jusho":"奈良県奈良市神功2-1","kouzui":"○","gake":"○","takashio":"×","jishin":"○","tsunami":"×","kaji":"○","naisui":"×","kazan":"×"}}
,{"type":"Feature","geometry":{"type":"Point","coordinates":[135.777,34.721]},"properties":{"Name":"平城西公民館","Jusho":"奈良県奈良市神功4-25","kouzui":"○","gake":"○","takashio":"×","jishin":"○","tsunami":"×","kaji":"○","naisui":"×","kazan":"×"}}
,{"type":"Feature","geometry":{"type":"Point","coordinates":[135.972,34.625]},"properties":{"Name":"（旧）六郷小学校","Jusho":"奈良県奈良市針ケ別所町820","kouzui":"○","gake":"○","takashio":"×","jishin":"○","tsunami":"×","kaji":"○","naisui":"×","kazan":"×"}}
,{"type":"Feature","geometry":{"type":"Point","coordinates":[135.956,34.613]},"properties":{"Name":"都祁公民館","Jusho":"奈良県奈良市針町2191","kouzui":"○","gake":"○","takashio":"×","jishin":"○","tsunami":"×","kaji":"○","naisui":"×","kazan":"×"}}
,{"type":"Feature","geometry":{"type":"Point","coordinates":[135.955,34.607]},"properties":{"Name":"都祁中学校","Jusho":"奈良県奈良市針町2554","kouzui":"○","gake":"○","takashio":"×","jishin":"○","tsunami":"×","kaji":"○","naisui":"×","kazan":"×"}}
,{"type":"Feature","geometry":{"type":"Point","coordinates":[135.912,34.717]},"properties":{"Name":"興東小学校","Jusho":"奈良県奈良市須川町1424","kouzui":"○","gake":"○","takashio":"×","jishin":"○","tsunami":"×","kaji":"○","naisui":"×","kazan":"×"}}
,{"type":"Feature","geometry":{"type":"Point","coordinates":[135.91,34.716]},"properties":{"Name":"東里地域ふれあい会館","Jusho":"奈良県奈良市須川町776","kouzui":"○","gake":"○","takashio":"×","jishin":"○","tsunami":"×","kaji":"○","naisui":"×","kazan":"×"}}
,{"type":"Feature","geometry":{"type":"Point","coordinates":[135.945,34.672]},"properties":{"Name":"（旧）水間小学校","Jusho":"奈良県奈良市水間町450-2","kouzui":"○","gake":"○","takashio":"×","jishin":"○","tsunami":"×","kaji":"○","naisui":"×","kazan":"×"}}
,{"type":"Feature","geometry":{"type":"Point","coordinates":[135.821,34.677]},"properties":{"Name":"生涯学習センター","Jusho":"奈良県奈良市杉ケ町23","kouzui":"○","gake":"○","takashio":"×","jishin":"○","tsunami":"×","kaji":"○","naisui":"×","kazan":"×"}}
,{"type":"Feature","geometry":{"type":"Point","coordinates":[135.775,34.688]},"properties":{"Name":"伏見小学校","Jusho":"奈良県奈良市菅原町370","kouzui":"○","gake":"○","takashio":"×","jishin":"○","tsunami":"×","kaji":"○","naisui":"×","kazan":"×"}}
,{"type":"Feature","geometry":{"type":"Point","coordinates":[135.807,34.659]},"properties":{"Name":"辰市小学校","Jusho":"奈良県奈良市西九条町1-7-1","kouzui":"○","gake":"○","takashio":"×","jishin":"○","tsunami":"×","kaji":"○","naisui":"×","kazan":"×"}}
,{"type":"Feature","geometry":{"type":"Point","coordinates":[135.742,34.683]},"properties":{"Name":"三碓小学校","Jusho":"奈良県奈良市西千代ケ丘1-20-9","kouzui":"○","gake":"○","takashio":"×","jishin":"○","tsunami":"×","kaji":"○","naisui":"×","kazan":"×"}}
,{"type":"Feature","geometry":{"type":"Point","coordinates":[135.773,34.699]},"properties":{"Name":"西大寺北小学校","Jusho":"奈良県奈良市西大寺赤田町1-6-1","kouzui":"○","gake":"○","takashio":"×","jishin":"○","tsunami":"×","kaji":"○","naisui":"×","kazan":"×"}}
,{"type":"Feature","geometry":{"type":"Point","coordinates":[135.784,34.696]},"properties":{"Name":"西大寺北地域ふれあい会館","Jusho":"奈良県奈良市西大寺東町1-1-15","kouzui":"○","gake":"○","takashio":"×","jishin":"○","tsunami":"×","kaji":"○","naisui":"×","kazan":"×"}}
,{"type":"Feature","geometry":{"type":"Point","coordinates":[135.784,34.697]},"properties":{"Name":"西大寺近隣公園","Jusho":"奈良県奈良市西大寺東町1-72-5","kouzui":"○","gake":"○","takashio":"×","jishin":"○","tsunami":"×","kaji":"○","naisui":"×","kazan":"×"}}
,{"type":"Feature","geometry":{"type":"Point","coordinates":[135.774,34.696]},"properties":{"Name":"伏見中学校","Jusho":"奈良県奈良市西大寺野神町1-6-1","kouzui":"○","gake":"○","takashio":"×","jishin":"○","tsunami":"×","kaji":"○","naisui":"×","kazan":"×"}}
,{"type":"Feature","geometry":{"type":"Point","coordinates":[135.739,34.72]},"properties":{"Name":"登美ヶ丘小学校","Jusho":"奈良県奈良市西登美ケ丘4-21-1","kouzui":"○","gake":"○","takashio":"×","jishin":"○","tsunami":"×","kaji":"○","naisui":"×","kazan":"×"}}
,{"type":"Feature","geometry":{"type":"Point","coordinates":[135.823,34.683]},"properties":{"Name":"（旧）男女共同参画センター","Jusho":"奈良県奈良市西之阪町12","kouzui":"○","gake":"○","takashio":"×","jishin":"○","tsunami":"×","kaji":"○","naisui":"×","kazan":"×"}}
,{"type":"Feature","geometry":{"type":"Point","coordinates":[135.823,34.683]},"properties":{"Name":"大宮児童館","Jusho":"奈良県奈良市西之阪町5-1","kouzui":"○","gake":"○","takashio":"×","jishin":"○","tsunami":"×","kaji":"○","naisui":"×","kazan":"×"}}
,{"type":"Feature","geometry":{"type":"Point","coordinates":[135.824,34.675]},"properties":{"Name":"済美小学校","Jusho":"奈良県奈良市西木辻町5-2","kouzui":"○","gake":"○","takashio":"×","jishin":"○","tsunami":"×","kaji":"○","naisui":"×","kazan":"×"}}
,{"type":"Feature","geometry":{"type":"Point","coordinates":[135.82,34.674]},"properties":{"Name":"春日中学校","Jusho":"奈良県奈良市西木辻町67","kouzui":"○","gake":"○","takashio":"×","jishin":"○","tsunami":"×","kaji":"○","naisui":"×","kazan":"×"}}
,{"type":"Feature","geometry":{"type":"Point","coordinates":[135.834,34.707]},"properties":{"Name":"青山近隣公園","Jusho":"奈良県奈良市青山3-2","kouzui":"○","gake":"○","takashio":"×","jishin":"○","tsunami":"×","kaji":"○","naisui":"×","kazan":"×"}}
,{"type":"Feature","geometry":{"type":"Point","coordinates":[135.837,34.709]},"properties":{"Name":"鼓阪北小学校","Jusho":"奈良県奈良市青山9-3-1","kouzui":"○","gake":"○","takashio":"×","jishin":"○","tsunami":"×","kaji":"○","naisui":"×","kazan":"×"}}
,{"type":"Feature","geometry":{"type":"Point","coordinates":[135.774,34.689]},"properties":{"Name":"伏見公民館","Jusho":"奈良県奈良市青野町2-13-4","kouzui":"○","gake":"○","takashio":"×","jishin":"○","tsunami":"×","kaji":"○","naisui":"×","kazan":"×"}}
,{"type":"Feature","geometry":{"type":"Point","coordinates":[135.837,34.696]},"properties":{"Name":"北人権文化センター","Jusho":"奈良県奈良市川上町418-1","kouzui":"○","gake":"○","takashio":"×","jishin":"○","tsunami":"×","kaji":"○","naisui":"×","kazan":"×"}}
,{"type":"Feature","geometry":{"type":"Point","coordinates":[135.836,34.697]},"properties":{"Name":"東之阪児童館","Jusho":"奈良県奈良市川上町461-1","kouzui":"○","gake":"○","takashio":"×","jishin":"○","tsunami":"×","kaji":"○","naisui":"×","kazan":"×"}}
,{"type":"Feature","geometry":{"type":"Point","coordinates":[135.832,34.693]},"properties":{"Name":"若草公民館","Jusho":"奈良県奈良市川上町575","kouzui":"×","gake":"○","takashio":"×","jishin":"○","tsunami":"×","kaji":"○","naisui":"×","kazan":"×"}}
,{"type":"Feature","geometry":{"type":"Point","coordinates":[135.821,34.688]},"properties":{"Name":"公立大学法人奈良県立大学","Jusho":"奈良県奈良市船橋町10","kouzui":"○","gake":"○","takashio":"×","jishin":"○","tsunami":"×","kaji":"○","naisui":"×","kazan":"×"}}
,{"type":"Feature","geometry":{"type":"Point","coordinates":[135.811,34.669]},"properties":{"Name":"大安寺小学校","Jusho":"奈良県奈良市大安寺2-15-1","kouzui":"○","gake":"○","takashio":"×","jishin":"○","tsunami":"×","kaji":"○","naisui":"×","kazan":"×"}}
,{"type":"Feature","geometry":{"type":"Point","coordinates":[135.805,34.675]},"properties":{"Name":"大安寺西小学校","Jusho":"奈良県奈良市大安寺西1-342","kouzui":"○","gake":"○","takashio":"×","jishin":"○","tsunami":"×","kaji":"○","naisui":"×","kazan":"×"}}
,{"type":"Feature","geometry":{"type":"Point","coordinates":[135.811,34.684]},"properties":{"Name":"大宮小学校","Jusho":"奈良県奈良市大宮町4-223-1","kouzui":"○","gake":"○","takashio":"×","jishin":"○","tsunami":"×","kaji":"○","naisui":"×","kazan":"×"}}
,{"type":"Feature","geometry":{"type":"Point","coordinates":[135.809,34.683]},"properties":{"Name":"三笠公民館","Jusho":"奈良県奈良市大宮町4-313-3","kouzui":"○","gake":"○","takashio":"×","jishin":"○","tsunami":"×","kaji":"○","naisui":"×","kazan":"×"}}
,{"type":"Feature","geometry":{"type":"Point","coordinates":[135.926,34.683]},"properties":{"Name":"興東公民館大平尾分館","Jusho":"奈良県奈良市大平尾町471","kouzui":"○","gake":"○","takashio":"×","jishin":"○","tsunami":"×","kaji":"○","naisui":"×","kazan":"×"}}
,{"type":"Feature","geometry":{"type":"Point","coordinates":[135.929,34.707]},"properties":{"Name":"興東公民館","Jusho":"奈良県奈良市大柳生町3633","kouzui":"○","gake":"○","takashio":"×","jishin":"○","tsunami":"×","kaji":"○","naisui":"×","kazan":"×"}}
,{"type":"Feature","geometry":{"type":"Point","coordinates":[135.922,34.716]},"properties":{"Name":"（旧）興東中学校","Jusho":"奈良県奈良市大柳生町4736","kouzui":"○","gake":"○","takashio":"×","jishin":"○","tsunami":"×","kaji":"○","naisui":"×","kazan":"×"}}
,{"type":"Feature","geometry":{"type":"Point","coordinates":[135.934,34.713]},"properties":{"Name":"興東館柳生中学校","Jusho":"奈良県奈良市大柳生町832","kouzui":"○","gake":"○","takashio":"×","jishin":"○","tsunami":"×","kaji":"○","naisui":"×","kazan":"×"}}
,{"type":"Feature","geometry":{"type":"Point","coordinates":[135.746,34.708]},"properties":{"Name":"大渕池公園","Jusho":"奈良県奈良市大渕池町外","kouzui":"○","gake":"○","takashio":"×","jishin":"○","tsunami":"×","kaji":"○","naisui":"×","kazan":"×"}}
,{"type":"Feature","geometry":{"type":"Point","coordinates":[135.967,34.697]},"properties":{"Name":"柳生地域ふれあい会館","Jusho":"奈良県奈良市丹生町847","kouzui":"○","gake":"×","takashio":"×","jishin":"○","tsunami":"×","kaji":"○","naisui":"×","kazan":"×"}}
,{"type":"Feature","geometry":{"type":"Point","coordinates":[135.755,34.713]},"properties":{"Name":"登美ヶ丘南公民館","Jusho":"奈良県奈良市中山町西2-921-1","kouzui":"○","gake":"○","takashio":"×","jishin":"○","tsunami":"×","kaji":"○","naisui":"×","kazan":"×"}}
,{"type":"Feature","geometry":{"type":"Point","coordinates":[135.732,34.672]},"properties":{"Name":"近畿大学農学部","Jusho":"奈良県奈良市中町3327-204","kouzui":"○","gake":"○","takashio":"×","jishin":"○","tsunami":"×","kaji":"○","naisui":"×","kazan":"×"}}
,{"type":"Feature","geometry":{"type":"Point","coordinates":[135.749,34.675]},"properties":{"Name":"富雄南小学校","Jusho":"奈良県奈良市中町4185","kouzui":"○","gake":"○","takashio":"×","jishin":"○","tsunami":"×","kaji":"○","naisui":"×","kazan":"×"}}
,{"type":"Feature","geometry":{"type":"Point","coordinates":[135.75,34.679]},"properties":{"Name":"富雄南公民館","Jusho":"奈良県奈良市中町501-3","kouzui":"○","gake":"○","takashio":"×","jishin":"○","tsunami":"×","kaji":"○","naisui":"×","kazan":"×"}}
,{"type":"Feature","geometry":{"type":"Point","coordinates":[135.749,34.72]},"properties":{"Name":"登美ヶ丘公民館","Jusho":"奈良県奈良市中登美ケ丘3-4162-81","kouzui":"○","gake":"○","takashio":"×","jishin":"○","tsunami":"×","kaji":"○","naisui":"×","kazan":"×"}}
,{"type":"Feature","geometry":{"type":"Point","coordinates":[135.75,34.721]},"properties":{"Name":"中登美ヶ丘近隣公園","Jusho":"奈良県奈良市中登美ケ丘3-6","kouzui":"○","gake":"○","takashio":"×","jishin":"○","tsunami":"×","kaji":"○","naisui":"×","kazan":"×"}}
,{"type":"Feature","geometry":{"type":"Point","coordinates":[135.746,34.721]},"properties":{"Name":"奈良学園大学登美ヶ丘キャンパス","Jusho":"奈良県奈良市中登美ヶ丘3-15-1","kouzui":"○","gake":"○","takashio":"×","jishin":"○","tsunami":"×","kaji":"○","naisui":"×","kazan":"×"}}
,{"type":"Feature","geometry":{"type":"Point","coordinates":[135.888,34.626]},"properties":{"Name":"中畑町公民館","Jusho":"奈良県奈良市中畑町1276","kouzui":"○","gake":"×","takashio":"×","jishin":"×","tsunami":"×","kaji":"○","naisui":"×","kazan":"×"}}
,{"type":"Feature","geometry":{"type":"Point","coordinates":[135.727,34.689]},"properties":{"Name":"富雄公民館","Jusho":"奈良県奈良市鳥見町2-9","kouzui":"○","gake":"○","takashio":"×","jishin":"○","tsunami":"×","kaji":"○","naisui":"×","kazan":"×"}}
,{"type":"Feature","geometry":{"type":"Point","coordinates":[135.725,34.695]},"properties":{"Name":"鳥見小学校","Jusho":"奈良県奈良市鳥見町3-11-2","kouzui":"○","gake":"○","takashio":"×","jishin":"○","tsunami":"×","kaji":"○","naisui":"×","kazan":"×"}}
,{"type":"Feature","geometry":{"type":"Point","coordinates":[135.828,34.681]},"properties":{"Name":"椿井小学校","Jusho":"奈良県奈良市椿井町25","kouzui":"○","gake":"○","takashio":"×","jishin":"○","tsunami":"×","kaji":"○","naisui":"×","kazan":"×"}}
,{"type":"Feature","geometry":{"type":"Point","coordinates":[135.753,34.706]},"properties":{"Name":"鶴舞小学校","Jusho":"奈良県奈良市鶴舞東町2-1","kouzui":"○","gake":"○","takashio":"×","jishin":"○","tsunami":"×","kaji":"○","naisui":"×","kazan":"×"}}
,{"type":"Feature","geometry":{"type":"Point","coordinates":[135.722,34.686]},"properties":{"Name":"私立帝塚山大学（東生駒キャンパス）","Jusho":"奈良県奈良市帝塚山7-1-1","kouzui":"○","gake":"○","takashio":"×","jishin":"○","tsunami":"×","kaji":"○","naisui":"×","kazan":"×"}}
,{"type":"Feature","geometry":{"type":"Point","coordinates":[135.725,34.679]},"properties":{"Name":"県立奈良西養護学校（体育館）","Jusho":"奈良県奈良市帝塚山西2-1-1","kouzui":"○","gake":"○","takashio":"×","jishin":"○","tsunami":"×","kaji":"○","naisui":"×","kazan":"×"}}
,{"type":"Feature","geometry":{"type":"Point","coordinates":[135.733,34.676]},"properties":{"Name":"富雄第三小中学校","Jusho":"奈良県奈良市帝塚山南2-11-1","kouzui":"○","gake":"○","takashio":"×","jishin":"○","tsunami":"×","kaji":"○","naisui":"×","kazan":"×"}}
,{"type":"Feature","geometry":{"type":"Point","coordinates":[135.834,34.684]},"properties":{"Name":"奈良公園","Jusho":"奈良県奈良市登大路町外","kouzui":"○","gake":"○","takashio":"×","jishin":"○","tsunami":"×","kaji":"○","naisui":"×","kazan":"×"}}
,{"type":"Feature","geometry":{"type":"Point","coordinates":[135.965,34.574]},"properties":{"Name":"（旧）吐山小学校","Jusho":"奈良県奈良市都祁吐山町3939","kouzui":"○","gake":"○","takashio":"×","jishin":"○","tsunami":"×","kaji":"○","naisui":"×","kazan":"×"}}
,{"type":"Feature","geometry":{"type":"Point","coordinates":[135.959,34.605]},"properties":{"Name":"都祁小学校","Jusho":"奈良県奈良市都祁白石町974","kouzui":"○","gake":"○","takashio":"×","jishin":"○","tsunami":"×","kaji":"○","naisui":"×","kazan":"×"}}
,{"type":"Feature","geometry":{"type":"Point","coordinates":[135.938,34.596]},"properties":{"Name":"県立山辺高等学校","Jusho":"奈良県奈良市都祁友田町937","kouzui":"○","gake":"○","takashio":"×","jishin":"○","tsunami":"×","kaji":"○","naisui":"×","kazan":"×"}}
,{"type":"Feature","geometry":{"type":"Point","coordinates":[135.838,34.673]},"properties":{"Name":"奈良女子大学附属中等教育学校","Jusho":"奈良県奈良市東紀寺町1-60-1","kouzui":"○","gake":"○","takashio":"×","jishin":"○","tsunami":"×","kaji":"○","naisui":"×","kazan":"×"}}
,{"type":"Feature","geometry":{"type":"Point","coordinates":[135.831,34.68]},"properties":{"Name":"ならまちセンター（市民文化ホール）","Jusho":"奈良県奈良市東寺林町38","kouzui":"○","gake":"○","takashio":"×","jishin":"○","tsunami":"×","kaji":"○","naisui":"×","kazan":"×"}}
,{"type":"Feature","geometry":{"type":"Point","coordinates":[135.762,34.714]},"properties":{"Name":"登美ヶ丘中学校","Jusho":"奈良県奈良市東登美ケ丘3-1059","kouzui":"○","gake":"○","takashio":"×","jishin":"○","tsunami":"×","kaji":"○","naisui":"×","kazan":"×"}}
,{"type":"Feature","geometry":{"type":"Point","coordinates":[135.764,34.714]},"properties":{"Name":"平城西小学校","Jusho":"奈良県奈良市東登美ケ丘3-1093-1","kouzui":"○","gake":"○","takashio":"×","jishin":"○","tsunami":"×","kaji":"○","naisui":"×","kazan":"×"}}
,{"type":"Feature","geometry":{"type":"Point","coordinates":[135.756,34.72]},"properties":{"Name":"東登美ヶ丘小学校","Jusho":"奈良県奈良市東登美ケ丘4-21-33","kouzui":"○","gake":"○","takashio":"×","jishin":"○","tsunami":"×","kaji":"○","naisui":"×","kazan":"×"}}
,{"type":"Feature","geometry":{"type":"Point","coordinates":[135.753,34.682]},"properties":{"Name":"富雄南中学校","Jusho":"奈良県奈良市藤ノ木台1-5-13","kouzui":"○","gake":"○","takashio":"×","jishin":"○","tsunami":"×","kaji":"○","naisui":"×","kazan":"×"}}
,{"type":"Feature","geometry":{"type":"Point","coordinates":[135.824,34.649]},"properties":{"Name":"都南中学校","Jusho":"奈良県奈良市南永井町98-1","kouzui":"○","gake":"○","takashio":"×","jishin":"○","tsunami":"×","kaji":"○","naisui":"×","kazan":"×"}}
,{"type":"Feature","geometry":{"type":"Point","coordinates":[135.822,34.672]},"properties":{"Name":"春日公民館","Jusho":"奈良県奈良市南京終町1-86-1","kouzui":"○","gake":"○","takashio":"×","jishin":"○","tsunami":"×","kaji":"○","naisui":"×","kazan":"×"}}
,{"type":"Feature","geometry":{"type":"Point","coordinates":[135.821,34.664]},"properties":{"Name":"済美南小学校","Jusho":"奈良県奈良市南京終町676","kouzui":"○","gake":"○","takashio":"×","jishin":"○","tsunami":"×","kaji":"○","naisui":"×","kazan":"×"}}
,{"type":"Feature","geometry":{"type":"Point","coordinates":[135.738,34.706]},"properties":{"Name":"二名中学校","Jusho":"奈良県奈良市二名1-3667-2","kouzui":"○","gake":"○","takashio":"×","jishin":"○","tsunami":"×","kaji":"○","naisui":"×","kazan":"×"}}
,{"type":"Feature","geometry":{"type":"Point","coordinates":[135.737,34.708]},"properties":{"Name":"二名小学校","Jusho":"奈良県奈良市二名1-3716-1","kouzui":"○","gake":"○","takashio":"×","jishin":"○","tsunami":"×","kaji":"○","naisui":"×","kazan":"×"}}
,{"type":"Feature","geometry":{"type":"Point","coordinates":[135.718,34.703]},"properties":{"Name":"飛鳥カンツリー倶楽部","Jusho":"奈良県奈良市二名7-1441","kouzui":"○","gake":"○","takashio":"×","jishin":"○","tsunami":"×","kaji":"○","naisui":"×","kazan":"×"}}
,{"type":"Feature","geometry":{"type":"Point","coordinates":[135.742,34.721]},"properties":{"Name":"県立国際中学校・高等学校","Jusho":"奈良県奈良市二名町1944-12","kouzui":"○","gake":"○","takashio":"×","jishin":"○","tsunami":"×","kaji":"○","naisui":"×","kazan":"×"}}
,{"type":"Feature","geometry":{"type":"Point","coordinates":[135.916,34.696]},"properties":{"Name":"（旧）大柳生幼稚園","Jusho":"奈良県奈良市忍辱山町1303","kouzui":"○","gake":"×","takashio":"×","jishin":"○","tsunami":"×","kaji":"○","naisui":"×","kazan":"×"}}
,{"type":"Feature","geometry":{"type":"Point","coordinates":[135.796,34.676]},"properties":{"Name":"都跡中学校","Jusho":"奈良県奈良市柏木町13","kouzui":"○","gake":"○","takashio":"×","jishin":"○","tsunami":"×","kaji":"○","naisui":"×","kazan":"×"}}
,{"type":"Feature","geometry":{"type":"Point","coordinates":[135.797,34.669]},"properties":{"Name":"県立奈良朱雀高等学校（県立奈良商工高等学校）","Jusho":"奈良県奈良市柏木町248","kouzui":"×","gake":"○","takashio":"×","jishin":"○","tsunami":"×","kaji":"○","naisui":"×","kazan":"×"}}
,{"type":"Feature","geometry":{"type":"Point","coordinates":[135.797,34.666]},"properties":{"Name":"柏木公園","Jusho":"奈良県奈良市柏木町255-1","kouzui":"×","gake":"○","takashio":"×","jishin":"○","tsunami":"×","kaji":"○","naisui":"×","kazan":"×"}}
,{"type":"Feature","geometry":{"type":"Point","coordinates":[135.846,34.668]},"properties":{"Name":"県立高円芸術高等学校","Jusho":"奈良県奈良市白毫寺町633","kouzui":"○","gake":"×","takashio":"×","jishin":"○","tsunami":"×","kaji":"○","naisui":"×","kazan":"×"}}
,{"type":"Feature","geometry":{"type":"Point","coordinates":[135.82,34.687]},"properties":{"Name":"中人権文化センター","Jusho":"奈良県奈良市畑中町4-4","kouzui":"○","gake":"○","takashio":"×","jishin":"○","tsunami":"×","kaji":"○","naisui":"×","kazan":"×"}}
,{"type":"Feature","geometry":{"type":"Point","coordinates":[135.802,34.669]},"properties":{"Name":"奈良市消防局第２庁舎","Jusho":"奈良県奈良市八条5-404-1","kouzui":"○","gake":"○","takashio":"×","jishin":"○","tsunami":"×","kaji":"○","naisui":"×","kazan":"×"}}
,{"type":"Feature","geometry":{"type":"Point","coordinates":[135.747,34.699]},"properties":{"Name":"奈良女子大学附属小学校","Jusho":"奈良県奈良市百楽園1-7-28","kouzui":"○","gake":"○","takashio":"×","jishin":"○","tsunami":"×","kaji":"○","naisui":"×","kazan":"×"}}
,{"type":"Feature","geometry":{"type":"Point","coordinates":[135.743,34.7]},"properties":{"Name":"青和小学校","Jusho":"奈良県奈良市百楽園4-1-1","kouzui":"○","gake":"○","takashio":"×","jishin":"○","tsunami":"×","kaji":"○","naisui":"×","kazan":"×"}}
,{"type":"Feature","geometry":{"type":"Point","coordinates":[135.733,34.697]},"properties":{"Name":"富雄北小学校","Jusho":"奈良県奈良市富雄北1-13-6","kouzui":"○","gake":"○","takashio":"×","jishin":"○","tsunami":"×","kaji":"○","naisui":"×","kazan":"×"}}
,{"type":"Feature","geometry":{"type":"Point","coordinates":[135.776,34.674]},"properties":{"Name":"京西中学校","Jusho":"奈良県奈良市平松4-3-1","kouzui":"○","gake":"○","takashio":"×","jishin":"○","tsunami":"×","kaji":"○","naisui":"×","kazan":"×"}}
,{"type":"Feature","geometry":{"type":"Point","coordinates":[135.88,34.618]},"properties":{"Name":"米谷町集会所","Jusho":"奈良県奈良市米谷町566-1","kouzui":"○","gake":"○","takashio":"×","jishin":"○","tsunami":"×","kaji":"○","naisui":"×","kazan":"×"}}
,{"type":"Feature","geometry":{"type":"Point","coordinates":[135.758,34.683]},"properties":{"Name":"奈良国際ゴルフ倶楽部","Jusho":"奈良県奈良市宝来5-10-1","kouzui":"○","gake":"○","takashio":"×","jishin":"○","tsunami":"×","kaji":"○","naisui":"×","kazan":"×"}}
,{"type":"Feature","geometry":{"type":"Point","coordinates":[135.77,34.681]},"properties":{"Name":"伏見南小学校","Jusho":"奈良県奈良市宝来5-2-1","kouzui":"○","gake":"○","takashio":"×","jishin":"○","tsunami":"×","kaji":"○","naisui":"×","kazan":"×"}}
,{"type":"Feature","geometry":{"type":"Point","coordinates":[135.811,34.693]},"properties":{"Name":"一条高等学校及び附属中学校","Jusho":"奈良県奈良市法華寺町1351","kouzui":"○","gake":"○","takashio":"×","jishin":"○","tsunami":"×","kaji":"○","naisui":"×","kazan":"×"}}
,{"type":"Feature","geometry":{"type":"Point","coordinates":[135.83,34.699]},"properties":{"Name":"鴻ノ池運動公園","Jusho":"奈良県奈良市法蓮佐保山4-1516-1","kouzui":"○","gake":"○","takashio":"×","jishin":"○","tsunami":"×","kaji":"○","naisui":"×","kazan":"×"}}
,{"type":"Feature","geometry":{"type":"Point","coordinates":[135.824,34.691]},"properties":{"Name":"学校法人奈良育英学園（中学校・高等学校）","Jusho":"奈良県奈良市法蓮町1000","kouzui":"○","gake":"○","takashio":"×","jishin":"○","tsunami":"×","kaji":"○","naisui":"×","kazan":"×"}}
,{"type":"Feature","geometry":{"type":"Point","coordinates":[135.831,34.695]},"properties":{"Name":"若草中学校","Jusho":"奈良県奈良市法蓮町1416-1","kouzui":"○","gake":"○","takashio":"×","jishin":"○","tsunami":"×","kaji":"○","naisui":"×","kazan":"×"}}
,{"type":"Feature","geometry":{"type":"Point","coordinates":[135.817,34.697]},"properties":{"Name":"奈良教育大学附属中学校","Jusho":"奈良県奈良市法蓮町2058-2","kouzui":"○","gake":"○","takashio":"×","jishin":"○","tsunami":"×","kaji":"○","naisui":"×","kazan":"×"}}
,{"type":"Feature","geometry":{"type":"Point","coordinates":[135.815,34.689]},"properties":{"Name":"佐保川小学校","Jusho":"奈良県奈良市法蓮町229-1","kouzui":"○","gake":"○","takashio":"×","jishin":"○","tsunami":"×","kaji":"○","naisui":"×","kazan":"×"}}
,{"type":"Feature","geometry":{"type":"Point","coordinates":[135.821,34.691]},"properties":{"Name":"佐保小学校","Jusho":"奈良県奈良市法蓮町280-1","kouzui":"○","gake":"○","takashio":"×","jishin":"○","tsunami":"×","kaji":"○","naisui":"×","kazan":"×"}}
,{"type":"Feature","geometry":{"type":"Point","coordinates":[135.822,34.656]},"properties":{"Name":"明治小学校","Jusho":"奈良県奈良市北永井町414","kouzui":"○","gake":"○","takashio":"×","jishin":"○","tsunami":"×","kaji":"○","naisui":"×","kazan":"×"}}
,{"type":"Feature","geometry":{"type":"Point","coordinates":[135.829,34.688]},"properties":{"Name":"奈良女子大学","Jusho":"奈良県奈良市北魚屋東町","kouzui":"○","gake":"○","takashio":"×","jishin":"○","tsunami":"×","kaji":"○","naisui":"×","kazan":"×"}}
,{"type":"Feature","geometry":{"type":"Point","coordinates":[135.868,34.631]},"properties":{"Name":"北椿尾町集会所","Jusho":"奈良県奈良市北椿尾町659","kouzui":"○","gake":"○","takashio":"×","jishin":"×","tsunami":"×","kaji":"○","naisui":"×","kazan":"×"}}
,{"type":"Feature","geometry":{"type":"Point","coordinates":[135.753,34.723]},"properties":{"Name":"登美ヶ丘北中学校","Jusho":"奈良県奈良市北登美ケ丘1-1-1","kouzui":"○","gake":"○","takashio":"×","jishin":"○","tsunami":"×","kaji":"○","naisui":"×","kazan":"×"}}
,{"type":"Feature","geometry":{"type":"Point","coordinates":[135.754,34.723]},"properties":{"Name":"登美ヶ丘近隣公園","Jusho":"奈良県奈良市北登美ケ丘1-1761-1","kouzui":"○","gake":"○","takashio":"×","jishin":"○","tsunami":"×","kaji":"○","naisui":"×","kazan":"×"}}
,{"type":"Feature","geometry":{"type":"Point","coordinates":[135.951,34.738]},"properties":{"Name":"柳生小学校","Jusho":"奈良県奈良市柳生下町138","kouzui":"○","gake":"○","takashio":"×","jishin":"○","tsunami":"×","kaji":"○","naisui":"×","kazan":"×"}}
,{"type":"Feature","geometry":{"type":"Point","coordinates":[135.952,34.731]},"properties":{"Name":"（旧）柳生中学校","Jusho":"奈良県奈良市柳生町212-2","kouzui":"○","gake":"○","takashio":"×","jishin":"○","tsunami":"×","kaji":"○","naisui":"×","kazan":"×"}}
,{"type":"Feature","geometry":{"type":"Point","coordinates":[135.953,34.728]},"properties":{"Name":"柳生公民館","Jusho":"奈良県奈良市柳生町340","kouzui":"○","gake":"×","takashio":"×","jishin":"○","tsunami":"×","kaji":"○","naisui":"×","kazan":"×"}}
,{"type":"Feature","geometry":{"type":"Point","coordinates":[135.979,34.716]},"properties":{"Name":"柳生公民館邑地分館","Jusho":"奈良県奈良市邑地町451-4","kouzui":"○","gake":"○","takashio":"×","jishin":"○","tsunami":"×","kaji":"○","naisui":"×","kazan":"×"}}
,{"type":"Feature","geometry":{"type":"Point","coordinates":[135.772,34.671]},"properties":{"Name":"六条小学校","Jusho":"奈良県奈良市六条2-14-1","kouzui":"○","gake":"○","takashio":"×","jishin":"○","tsunami":"×","kaji":"○","naisui":"×","kazan":"×"}}
,{"type":"Feature","geometry":{"type":"Point","coordinates":[135.771,34.672]},"properties":{"Name":"京西公民館","Jusho":"奈良県奈良市六条西1-3-43-2","kouzui":"○","gake":"○","takashio":"×","jishin":"○","tsunami":"×","kaji":"○","naisui":"×","kazan":"×"}}
,{"type":"Feature","geometry":{"type":"Point","coordinates":[135.767,34.668]},"properties":{"Name":"奈良県立大学附属高等学校","Jusho":"奈良県奈良市六条西3-24-1","kouzui":"○","gake":"○","takashio":"×","jishin":"○","tsunami":"×","kaji":"○","naisui":"×","kazan":"×"}}
,{"type":"Feature","geometry":{"type":"Point","coordinates":[135.908,34.657]},"properties":{"Name":"田原公民館","Jusho":"奈良県奈良市茗荷町1078-1","kouzui":"○","gake":"○","takashio":"×","jishin":"○","tsunami":"×","kaji":"○","naisui":"×","kazan":"×"}}
,{"type":"Feature","geometry":{"type":"Point","coordinates":[135.942,34.594]},"properties":{"Name":"（旧）並松小学校","Jusho":"奈良県奈良市藺生町1894","kouzui":"○","gake":"○","takashio":"×","jishin":"○","tsunami":"×","kaji":"○","naisui":"×","kazan":"×"}}
,{"type":"Feature","geometry":{"type":"Point","coordinates":[135.747,34.512]},"properties":{"Name":"片塩小学校","Jusho":"奈良県大和高田市旭北町2-1","kouzui":"○","gake":"×","takashio":"×","jishin":"○","tsunami":"×","kaji":"×","naisui":"×","kazan":"×"}}
,{"type":"Feature","geometry":{"type":"Point","coordinates":[135.748,34.518]},"properties":{"Name":"武道館","Jusho":"奈良県大和高田市幸町11-14","kouzui":"○","gake":"×","takashio":"×","jishin":"○","tsunami":"×","kaji":"×","naisui":"×","kazan":"×"}}
,{"type":"Feature","geometry":{"type":"Point","coordinates":[135.756,34.518]},"properties":{"Name":"市立高田商業高等学校","Jusho":"奈良県大和高田市材木町8-3","kouzui":"○","gake":"×","takashio":"×","jishin":"○","tsunami":"×","kaji":"×","naisui":"×","kazan":"×"}}
,{"type":"Feature","geometry":{"type":"Point","coordinates":[135.739,34.499]},"properties":{"Name":"浮孔西小学校","Jusho":"奈良県大和高田市曽大根1-5-1","kouzui":"○","gake":"×","takashio":"×","jishin":"○","tsunami":"×","kaji":"×","naisui":"×","kazan":"×"}}
,{"type":"Feature","geometry":{"type":"Point","coordinates":[135.756,34.486]},"properties":{"Name":"菅原校区公民館","Jusho":"奈良県大和高田市大字吉井77-1","kouzui":"×","gake":"×","takashio":"×","jishin":"○","tsunami":"×","kaji":"×","naisui":"×","kazan":"×"}}
,{"type":"Feature","geometry":{"type":"Point","coordinates":[135.758,34.483]},"properties":{"Name":"菅原小学校","Jusho":"奈良県大和高田市大字根成柿436","kouzui":"○","gake":"×","takashio":"×","jishin":"○","tsunami":"×","kaji":"×","naisui":"×","kazan":"×"}}
,{"type":"Feature","geometry":{"type":"Point","coordinates":[135.748,34.491]},"properties":{"Name":"総合公園コミュニティプール","Jusho":"奈良県大和高田市大字西坊城414","kouzui":"○","gake":"×","takashio":"×","jishin":"○","tsunami":"×","kaji":"×","naisui":"×","kazan":"×"}}
,{"type":"Feature","geometry":{"type":"Point","coordinates":[135.744,34.496]},"properties":{"Name":"葛城コミュニティセンター","Jusho":"奈良県大和高田市大字曽大根783-1","kouzui":"○","gake":"×","takashio":"×","jishin":"○","tsunami":"×","kaji":"×","naisui":"×","kazan":"×"}}
,{"type":"Feature","geometry":{"type":"Point","coordinates":[135.725,34.519]},"properties":{"Name":"陵西小学校","Jusho":"奈良県大和高田市大字池田3","kouzui":"○","gake":"×","takashio":"×","jishin":"○","tsunami":"×","kaji":"×","naisui":"×","kazan":"×"}}
,{"type":"Feature","geometry":{"type":"Point","coordinates":[135.729,34.517]},"properties":{"Name":"高田西中学校","Jusho":"奈良県大和高田市大字池田330","kouzui":"○","gake":"×","takashio":"×","jishin":"○","tsunami":"×","kaji":"×","naisui":"×","kazan":"×"}}
,{"type":"Feature","geometry":{"type":"Point","coordinates":[135.732,34.519]},"properties":{"Name":"総合福祉会館（ゆうゆうセンター）","Jusho":"奈良県大和高田市大字池田418-1","kouzui":"○","gake":"×","takashio":"×","jishin":"○","tsunami":"×","kaji":"×","naisui":"×","kazan":"×"}}
,{"type":"Feature","geometry":{"type":"Point","coordinates":[135.718,34.517]},"properties":{"Name":"勤労青少年ホーム","Jusho":"奈良県大和高田市大字野口20-1","kouzui":"○","gake":"×","takashio":"×","jishin":"×","tsunami":"×","kaji":"×","naisui":"×","kazan":"×"}}
,{"type":"Feature","geometry":{"type":"Point","coordinates":[135.739,34.519]},"properties":{"Name":"磐園小学校","Jusho":"奈良県大和高田市大字有井1","kouzui":"○","gake":"×","takashio":"×","jishin":"○","tsunami":"×","kaji":"×","naisui":"×","kazan":"×"}}
,{"type":"Feature","geometry":{"type":"Point","coordinates":[135.74,34.513]},"properties":{"Name":"高田小学校","Jusho":"奈良県大和高田市大中東町5-15","kouzui":"○","gake":"×","takashio":"×","jishin":"○","tsunami":"×","kaji":"×","naisui":"×","kazan":"×"}}
,{"type":"Feature","geometry":{"type":"Point","coordinates":[135.739,34.513]},"properties":{"Name":"高田中学校","Jusho":"奈良県大和高田市大中東町5-48","kouzui":"○","gake":"×","takashio":"×","jishin":"○","tsunami":"×","kaji":"×","naisui":"×","kazan":"×"}}
,{"type":"Feature","geometry":{"type":"Point","coordinates":[135.746,34.502]},"properties":{"Name":"浮孔小学校","Jusho":"奈良県大和高田市中三倉堂2-5-43","kouzui":"○","gake":"×","takashio":"×","jishin":"○","tsunami":"×","kaji":"×","naisui":"×","kazan":"×"}}
,{"type":"Feature","geometry":{"type":"Point","coordinates":[135.746,34.501]},"properties":{"Name":"片塩中学校","Jusho":"奈良県大和高田市中三倉堂2-9-28","kouzui":"○","gake":"×","takashio":"×","jishin":"○","tsunami":"×","kaji":"×","naisui":"×","kazan":"×"}}
,{"type":"Feature","geometry":{"type":"Point","coordinates":[135.756,34.521]},"properties":{"Name":"土庫小学校","Jusho":"奈良県大和高田市土庫3-2-61","kouzui":"○","gake":"×","takashio":"×","jishin":"○","tsunami":"×","kaji":"×","naisui":"×","kazan":"×"}}
,{"type":"Feature","geometry":{"type":"Point","coordinates":[135.744,34.514]},"properties":{"Name":"文化会館（さざんかホール）","Jusho":"奈良県大和高田市本郷町6-36","kouzui":"○","gake":"×","takashio":"×","jishin":"○","tsunami":"×","kaji":"×","naisui":"×","kazan":"×"}}
,{"type":"Feature","geometry":{"type":"Point","coordinates":[135.74,34.509]},"properties":{"Name":"県立高田高等学校","Jusho":"奈良県大和高田市礒野東町6-6","kouzui":"×","gake":"×","takashio":"×","jishin":"○","tsunami":"×","kaji":"×","naisui":"×","kazan":"×"}}
,{"type":"Feature","geometry":{"type":"Point","coordinates":[135.806,34.624]},"properties":{"Name":"大和郡山市立治道認定こども園","Jusho":"奈良県大和郡山市横田町254","kouzui":"○","gake":"×","takashio":"×","jishin":"○","tsunami":"×","kaji":"×","naisui":"○","kazan":"×"}}
,{"type":"Feature","geometry":{"type":"Point","coordinates":[135.806,34.624]},"properties":{"Name":"大和郡山市立治道小学校","Jusho":"奈良県大和郡山市横田町254","kouzui":"○","gake":"×","takashio":"×","jishin":"○","tsunami":"×","kaji":"×","naisui":"○","kazan":"×"}}
,{"type":"Feature","geometry":{"type":"Point","coordinates":[135.807,34.623]},"properties":{"Name":"大和郡山市立治道地区公民館","Jusho":"奈良県大和郡山市横田町261-1","kouzui":"○","gake":"×","takashio":"×","jishin":"○","tsunami":"×","kaji":"○","naisui":"○","kazan":"×"}}
,{"type":"Feature","geometry":{"type":"Point","coordinates":[135.78,34.608]},"properties":{"Name":"大和郡山市立昭和小学校","Jusho":"奈良県大和郡山市額田部北町555","kouzui":"○","gake":"×","takashio":"×","jishin":"○","tsunami":"×","kaji":"×","naisui":"○","kazan":"×"}}
,{"type":"Feature","geometry":{"type":"Point","coordinates":[135.78,34.608]},"properties":{"Name":"大和郡山市立昭和幼稚園","Jusho":"奈良県大和郡山市額田部北町555","kouzui":"○","gake":"×","takashio":"×","jishin":"○","tsunami":"×","kaji":"×","naisui":"○","kazan":"×"}}
,{"type":"Feature","geometry":{"type":"Point","coordinates":[135.776,34.606]},"properties":{"Name":"大和郡山市額田部運動公園施設","Jusho":"奈良県大和郡山市額田部北町642","kouzui":"○","gake":"×","takashio":"×","jishin":"○","tsunami":"×","kaji":"×","naisui":"○","kazan":"×"}}
,{"type":"Feature","geometry":{"type":"Point","coordinates":[135.791,34.648]},"properties":{"Name":"大和郡山市民交流館","Jusho":"奈良県大和郡山市高田町92-16","kouzui":"○","gake":"×","takashio":"×","jishin":"○","tsunami":"×","kaji":"×","naisui":"○","kazan":"×"}}
,{"type":"Feature","geometry":{"type":"Point","coordinates":[135.745,34.631]},"properties":{"Name":"大和郡山市立矢田南幼稚園","Jusho":"奈良県大和郡山市山田町82","kouzui":"○","gake":"×","takashio":"×","jishin":"○","tsunami":"×","kaji":"×","naisui":"○","kazan":"×"}}
,{"type":"Feature","geometry":{"type":"Point","coordinates":[135.744,34.631]},"properties":{"Name":"大和郡山市立矢田南小学校","Jusho":"奈良県大和郡山市山田町83","kouzui":"○","gake":"○","takashio":"×","jishin":"○","tsunami":"×","kaji":"×","naisui":"○","kazan":"×"}}
,{"type":"Feature","geometry":{"type":"Point","coordinates":[135.798,34.636]},"properties":{"Name":"大和郡山市立郡山東中学校","Jusho":"奈良県大和郡山市若槻町134-2","kouzui":"○","gake":"×","takashio":"×","jishin":"○","tsunami":"×","kaji":"×","naisui":"○","kazan":"×"}}
,{"type":"Feature","geometry":{"type":"Point","coordinates":[135.801,34.639]},"properties":{"Name":"大和郡山市立平和地区公民館","Jusho":"奈良県大和郡山市若槻町4-4","kouzui":"○","gake":"×","takashio":"×","jishin":"○","tsunami":"×","kaji":"○","naisui":"○","kazan":"×"}}
,{"type":"Feature","geometry":{"type":"Point","coordinates":[135.763,34.629]},"properties":{"Name":"大和郡山市立片桐地区公民館","Jusho":"奈良県大和郡山市小泉町105-1","kouzui":"○","gake":"×","takashio":"×","jishin":"○","tsunami":"×","kaji":"○","naisui":"○","kazan":"×"}}
,{"type":"Feature","geometry":{"type":"Point","coordinates":[135.756,34.631]},"properties":{"Name":"大和郡山市立片桐西小学校","Jusho":"奈良県大和郡山市小泉町1618","kouzui":"○","gake":"×","takashio":"×","jishin":"○","tsunami":"×","kaji":"×","naisui":"○","kazan":"×"}}
,{"type":"Feature","geometry":{"type":"Point","coordinates":[135.755,34.63]},"properties":{"Name":"大和郡山市立片桐西幼稚園","Jusho":"奈良県大和郡山市小泉町1658","kouzui":"○","gake":"×","takashio":"×","jishin":"○","tsunami":"×","kaji":"×","naisui":"○","kazan":"×"}}
,{"type":"Feature","geometry":{"type":"Point","coordinates":[135.761,34.628]},"properties":{"Name":"大和郡山市立片桐中学校","Jusho":"奈良県大和郡山市小泉町173-1","kouzui":"○","gake":"×","takashio":"×","jishin":"○","tsunami":"×","kaji":"×","naisui":"○","kazan":"×"}}
,{"type":"Feature","geometry":{"type":"Point","coordinates":[135.78,34.654]},"properties":{"Name":"大和郡山市老人福祉センター","Jusho":"奈良県大和郡山市植槻町3-11","kouzui":"○","gake":"×","takashio":"×","jishin":"○","tsunami":"×","kaji":"○","naisui":"○","kazan":"×"}}
,{"type":"Feature","geometry":{"type":"Point","coordinates":[135.78,34.654]},"properties":{"Name":"大和郡山市社会福祉会館","Jusho":"奈良県大和郡山市植槻町3-8","kouzui":"○","gake":"×","takashio":"×","jishin":"○","tsunami":"×","kaji":"○","naisui":"○","kazan":"×"}}
,{"type":"Feature","geometry":{"type":"Point","coordinates":[135.783,34.626]},"properties":{"Name":"大和郡山市立筒井幼稚園","Jusho":"奈良県大和郡山市丹後庄町177-3","kouzui":"○","gake":"×","takashio":"×","jishin":"○","tsunami":"×","kaji":"×","naisui":"○","kazan":"×"}}
,{"type":"Feature","geometry":{"type":"Point","coordinates":[135.765,34.63]},"properties":{"Name":"大和郡山市立片桐小学校","Jusho":"奈良県大和郡山市池ノ内町117","kouzui":"○","gake":"×","takashio":"×","jishin":"○","tsunami":"×","kaji":"×","naisui":"○","kazan":"×"}}
,{"type":"Feature","geometry":{"type":"Point","coordinates":[135.765,34.629]},"properties":{"Name":"大和郡山市立片桐幼稚園","Jusho":"奈良県大和郡山市池之内町167","kouzui":"○","gake":"×","takashio":"×","jishin":"○","tsunami":"×","kaji":"×","naisui":"○","kazan":"×"}}
,{"type":"Feature","geometry":{"type":"Point","coordinates":[135.77,34.648]},"properties":{"Name":"大和郡山市立郡山西小学校","Jusho":"奈良県大和郡山市田中町632","kouzui":"○","gake":"×","takashio":"×","jishin":"○","tsunami":"×","kaji":"×","naisui":"○","kazan":"×"}}
,{"type":"Feature","geometry":{"type":"Point","coordinates":[135.769,34.648]},"properties":{"Name":"大和郡山市立郡山西幼稚園","Jusho":"奈良県大和郡山市田中町723","kouzui":"○","gake":"×","takashio":"×","jishin":"○","tsunami":"×","kaji":"×","naisui":"○","kazan":"×"}}
,{"type":"Feature","geometry":{"type":"Point","coordinates":[135.765,34.644]},"properties":{"Name":"大和郡山市立郡山西中学校","Jusho":"奈良県大和郡山市田中町767","kouzui":"○","gake":"×","takashio":"×","jishin":"○","tsunami":"×","kaji":"×","naisui":"○","kazan":"×"}}
,{"type":"Feature","geometry":{"type":"Point","coordinates":[135.782,34.627]},"properties":{"Name":"大和郡山市立筒井小学校","Jusho":"奈良県大和郡山市筒井町120","kouzui":"○","gake":"×","takashio":"×","jishin":"○","tsunami":"×","kaji":"×","naisui":"○","kazan":"×"}}
,{"type":"Feature","geometry":{"type":"Point","coordinates":[135.779,34.624]},"properties":{"Name":"大和郡山市立郡山南中学校","Jusho":"奈良県大和郡山市筒井町398","kouzui":"○","gake":"×","takashio":"×","jishin":"○","tsunami":"×","kaji":"×","naisui":"○","kazan":"×"}}
,{"type":"Feature","geometry":{"type":"Point","coordinates":[135.779,34.621]},"properties":{"Name":"大和郡山市立南部公民館","Jusho":"奈良県大和郡山市筒井町600-4","kouzui":"○","gake":"×","takashio":"×","jishin":"○","tsunami":"×","kaji":"○","naisui":"○","kazan":"×"}}
,{"type":"Feature","geometry":{"type":"Point","coordinates":[135.782,34.648]},"properties":{"Name":"大和郡山市立中央公民館","Jusho":"奈良県大和郡山市南郡山町529-1","kouzui":"○","gake":"×","takashio":"×","jishin":"○","tsunami":"×","kaji":"○","naisui":"○","kazan":"×"}}
,{"type":"Feature","geometry":{"type":"Point","coordinates":[135.781,34.61]},"properties":{"Name":"大和郡山市立昭和地区公民館","Jusho":"奈良県大和郡山市馬司町331-56","kouzui":"○","gake":"×","takashio":"×","jishin":"○","tsunami":"×","kaji":"○","naisui":"○","kazan":"×"}}
,{"type":"Feature","geometry":{"type":"Point","coordinates":[135.805,34.639]},"properties":{"Name":"大和郡山市立平和小学校","Jusho":"奈良県大和郡山市美濃庄町262","kouzui":"○","gake":"×","takashio":"×","jishin":"○","tsunami":"×","kaji":"×","naisui":"○","kazan":"×"}}
,{"type":"Feature","geometry":{"type":"Point","coordinates":[135.807,34.641]},"properties":{"Name":"大和郡山市立平和認定こども園","Jusho":"奈良県大和郡山市美濃庄町533","kouzui":"○","gake":"×","takashio":"×","jishin":"○","tsunami":"×","kaji":"×","naisui":"○","kazan":"×"}}
,{"type":"Feature","geometry":{"type":"Point","coordinates":[135.787,34.654]},"properties":{"Name":"大和郡山市立郡山北小学校","Jusho":"奈良県大和郡山市北郡山町115","kouzui":"○","gake":"×","takashio":"×","jishin":"○","tsunami":"×","kaji":"×","naisui":"○","kazan":"×"}}
,{"type":"Feature","geometry":{"type":"Point","coordinates":[135.786,34.655]},"properties":{"Name":"大和郡山市立郡山北幼稚園","Jusho":"奈良県大和郡山市北郡山町115","kouzui":"○","gake":"×","takashio":"×","jishin":"○","tsunami":"×","kaji":"×","naisui":"○","kazan":"×"}}
,{"type":"Feature","geometry":{"type":"Point","coordinates":[135.782,34.652]},"properties":{"Name":"やまと郡山城ホール","Jusho":"奈良県大和郡山市北郡山町211-3","kouzui":"○","gake":"×","takashio":"×","jishin":"○","tsunami":"×","kaji":"○","naisui":"○","kazan":"×"}}
,{"type":"Feature","geometry":{"type":"Point","coordinates":[135.746,34.646]},"properties":{"Name":"大和郡山市総合公園多目的体育館","Jusho":"奈良県大和郡山市矢田山町2","kouzui":"○","gake":"×","takashio":"×","jishin":"○","tsunami":"×","kaji":"○","naisui":"○","kazan":"×"}}
,{"type":"Feature","geometry":{"type":"Point","coordinates":[135.747,34.648]},"properties":{"Name":"大和郡山市矢田コミュニティ会館","Jusho":"奈良県大和郡山市矢田町4547","kouzui":"○","gake":"○","takashio":"×","jishin":"○","tsunami":"×","kaji":"○","naisui":"○","kazan":"×"}}
,{"type":"Feature","geometry":{"type":"Point","coordinates":[135.755,34.648]},"properties":{"Name":"大和郡山市立矢田認定こども園","Jusho":"奈良県大和郡山市矢田町774","kouzui":"○","gake":"○","takashio":"×","jishin":"○","tsunami":"×","kaji":"×","naisui":"○","kazan":"×"}}
,{"type":"Feature","geometry":{"type":"Point","coordinates":[135.749,34.652]},"properties":{"Name":"大和郡山市立矢田小学校","Jusho":"奈良県大和郡山市矢田町966-2","kouzui":"○","gake":"○","takashio":"×","jishin":"○","tsunami":"×","kaji":"×","naisui":"○","kazan":"×"}}
,{"type":"Feature","geometry":{"type":"Point","coordinates":[135.772,34.654]},"properties":{"Name":"大和郡山市立郡山中学校","Jusho":"奈良県大和郡山市柳町404","kouzui":"○","gake":"×","takashio":"×","jishin":"○","tsunami":"×","kaji":"×","naisui":"○","kazan":"×"}}
,{"type":"Feature","geometry":{"type":"Point","coordinates":[135.786,34.646]},"properties":{"Name":"大和郡山市立郡山南幼稚園","Jusho":"奈良県大和郡山市柳町85","kouzui":"○","gake":"×","takashio":"×","jishin":"○","tsunami":"×","kaji":"×","naisui":"○","kazan":"×"}}
,{"type":"Feature","geometry":{"type":"Point","coordinates":[135.787,34.646]},"properties":{"Name":"大和郡山市立郡山南小学校","Jusho":"奈良県大和郡山市柳町85","kouzui":"○","gake":"×","takashio":"×","jishin":"○","tsunami":"×","kaji":"×","naisui":"○","kazan":"×"}}
,{"type":"Feature","geometry":{"type":"Point","coordinates":[135.797,34.579]},"properties":{"Name":"奈良県立二階堂養護学校","Jusho":"奈良県天理市庵治町358-1","kouzui":"○","gake":"○","takashio":"×","jishin":"○","tsunami":"×","kaji":"○","naisui":"○","kazan":"×"}}
,{"type":"Feature","geometry":{"type":"Point","coordinates":[135.825,34.559]},"properties":{"Name":"天理市立式上公民館","Jusho":"奈良県天理市遠田町45-9","kouzui":"○","gake":"○","takashio":"×","jishin":"○","tsunami":"×","kaji":"×","naisui":"○","kazan":"×"}}
,{"type":"Feature","geometry":{"type":"Point","coordinates":[135.797,34.589]},"properties":{"Name":"天理市立嘉幡保育所","Jusho":"奈良県天理市嘉幡町425","kouzui":"×","gake":"○","takashio":"×","jishin":"○","tsunami":"×","kaji":"×","naisui":"×","kazan":"×"}}
,{"type":"Feature","geometry":{"type":"Point","coordinates":[135.796,34.592]},"properties":{"Name":"天理市立二階堂体育館","Jusho":"奈良県天理市嘉幡町520","kouzui":"○","gake":"○","takashio":"×","jishin":"○","tsunami":"×","kaji":"×","naisui":"○","kazan":"×"}}
,{"type":"Feature","geometry":{"type":"Point","coordinates":[135.796,34.591]},"properties":{"Name":"天理市立二階堂公民館","Jusho":"奈良県天理市嘉幡町520","kouzui":"○","gake":"○","takashio":"×","jishin":"○","tsunami":"×","kaji":"×","naisui":"○","kazan":"×"}}
,{"type":"Feature","geometry":{"type":"Point","coordinates":[135.838,34.59]},"properties":{"Name":"天理市立丹波市南こども園","Jusho":"奈良県天理市勾田町92","kouzui":"○","gake":"○","takashio":"×","jishin":"○","tsunami":"×","kaji":"×","naisui":"○","kazan":"×"}}
,{"type":"Feature","geometry":{"type":"Point","coordinates":[135.805,34.6]},"properties":{"Name":"奈良県立二階堂高等学校","Jusho":"奈良県天理市荒蒔町100-1","kouzui":"○","gake":"○","takashio":"×","jishin":"○","tsunami":"×","kaji":"○","naisui":"○","kazan":"×"}}
,{"type":"Feature","geometry":{"type":"Point","coordinates":[135.837,34.604]},"properties":{"Name":"天理市立三島体育館","Jusho":"奈良県天理市三島町140-1","kouzui":"○","gake":"○","takashio":"×","jishin":"○","tsunami":"×","kaji":"×","naisui":"○","kazan":"×"}}
,{"type":"Feature","geometry":{"type":"Point","coordinates":[135.837,34.604]},"properties":{"Name":"天理市立山の辺幼稚園","Jusho":"奈良県天理市三島町140-1","kouzui":"○","gake":"○","takashio":"×","jishin":"○","tsunami":"×","kaji":"×","naisui":"○","kazan":"×"}}
,{"type":"Feature","geometry":{"type":"Point","coordinates":[135.841,34.575]},"properties":{"Name":"天理市立朝和公民館","Jusho":"奈良県天理市三昧田町460-3","kouzui":"○","gake":"○","takashio":"×","jishin":"○","tsunami":"×","kaji":"×","naisui":"○","kazan":"×"}}
,{"type":"Feature","geometry":{"type":"Point","coordinates":[135.938,34.628]},"properties":{"Name":"天理市立やまだこども園","Jusho":"奈良県天理市山田町1560","kouzui":"○","gake":"○","takashio":"×","jishin":"○","tsunami":"×","kaji":"×","naisui":"○","kazan":"×"}}
,{"type":"Feature","geometry":{"type":"Point","coordinates":[135.817,34.603]},"properties":{"Name":"天理市立前栽こども園","Jusho":"奈良県天理市杉本町243-1","kouzui":"○","gake":"○","takashio":"×","jishin":"○","tsunami":"×","kaji":"×","naisui":"○","kazan":"×"}}
,{"type":"Feature","geometry":{"type":"Point","coordinates":[135.817,34.599]},"properties":{"Name":"天理市立前栽公民館","Jusho":"奈良県天理市杉本町351-3","kouzui":"○","gake":"○","takashio":"×","jishin":"○","tsunami":"×","kaji":"×","naisui":"○","kazan":"×"}}
,{"type":"Feature","geometry":{"type":"Point","coordinates":[135.843,34.571]},"properties":{"Name":"天理市立朝和幼稚園","Jusho":"奈良県天理市成願寺町386","kouzui":"○","gake":"○","takashio":"×","jishin":"○","tsunami":"×","kaji":"×","naisui":"○","kazan":"×"}}
,{"type":"Feature","geometry":{"type":"Point","coordinates":[135.842,34.572]},"properties":{"Name":"天理市立朝和小学校","Jusho":"奈良県天理市成願寺町420","kouzui":"○","gake":"○","takashio":"×","jishin":"○","tsunami":"×","kaji":"○","naisui":"○","kazan":"×"}}
,{"type":"Feature","geometry":{"type":"Point","coordinates":[135.817,34.582]},"properties":{"Name":"天理市立井戸堂公民館","Jusho":"奈良県天理市西井戸堂町122-4","kouzui":"○","gake":"○","takashio":"×","jishin":"○","tsunami":"×","kaji":"×","naisui":"○","kazan":"×"}}
,{"type":"Feature","geometry":{"type":"Point","coordinates":[135.815,34.587]},"properties":{"Name":"天理市立井戸堂小学校","Jusho":"奈良県天理市西井戸堂町301","kouzui":"○","gake":"○","takashio":"×","jishin":"○","tsunami":"×","kaji":"○","naisui":"○","kazan":"×"}}
,{"type":"Feature","geometry":{"type":"Point","coordinates":[135.814,34.588]},"properties":{"Name":"天理市立井戸堂幼稚園","Jusho":"奈良県天理市西井戸堂町406","kouzui":"×","gake":"○","takashio":"×","jishin":"○","tsunami":"×","kaji":"×","naisui":"×","kazan":"×"}}
,{"type":"Feature","geometry":{"type":"Point","coordinates":[135.82,34.576]},"properties":{"Name":"天理市立総合体育館","Jusho":"奈良県天理市西長柄町595","kouzui":"○","gake":"○","takashio":"×","jishin":"○","tsunami":"×","kaji":"×","naisui":"○","kazan":"×"}}
,{"type":"Feature","geometry":{"type":"Point","coordinates":[135.819,34.575]},"properties":{"Name":"天理市長柄運動公園","Jusho":"奈良県天理市西長柄町595","kouzui":"○","gake":"○","takashio":"×","jishin":"○","tsunami":"×","kaji":"○","naisui":"○","kazan":"×"}}
,{"type":"Feature","geometry":{"type":"Point","coordinates":[135.831,34.615]},"properties":{"Name":"天理市立北保育所","Jusho":"奈良県天理市石上町511-2","kouzui":"○","gake":"○","takashio":"×","jishin":"○","tsunami":"×","kaji":"×","naisui":"○","kazan":"×"}}
,{"type":"Feature","geometry":{"type":"Point","coordinates":[135.836,34.613]},"properties":{"Name":"天理市立北中学校","Jusho":"奈良県天理市石上町777","kouzui":"○","gake":"○","takashio":"×","jishin":"○","tsunami":"×","kaji":"○","naisui":"○","kazan":"×"}}
,{"type":"Feature","geometry":{"type":"Point","coordinates":[135.833,34.598]},"properties":{"Name":"天理市民会館","Jusho":"奈良県天理市川原城町739","kouzui":"○","gake":"○","takashio":"×","jishin":"○","tsunami":"×","kaji":"×","naisui":"○","kazan":"×"}}
,{"type":"Feature","geometry":{"type":"Point","coordinates":[135.831,34.6]},"properties":{"Name":"天理駅前広場","Jusho":"奈良県天理市川原城町803","kouzui":"○","gake":"○","takashio":"×","jishin":"○","tsunami":"×","kaji":"○","naisui":"○","kazan":"×"}}
,{"type":"Feature","geometry":{"type":"Point","coordinates":[135.819,34.599]},"properties":{"Name":"天理市立前栽小学校","Jusho":"奈良県天理市前栽町329","kouzui":"○","gake":"○","takashio":"×","jishin":"○","tsunami":"×","kaji":"○","naisui":"○","kazan":"×"}}
,{"type":"Feature","geometry":{"type":"Point","coordinates":[135.83,34.595]},"properties":{"Name":"天理市立丹波市小学校","Jusho":"奈良県天理市丹波市町180","kouzui":"×","gake":"○","takashio":"×","jishin":"○","tsunami":"×","kaji":"○","naisui":"×","kazan":"×"}}
,{"type":"Feature","geometry":{"type":"Point","coordinates":[135.834,34.596]},"properties":{"Name":"天理市立丹波市公民館","Jusho":"奈良県天理市丹波市町285-2","kouzui":"○","gake":"○","takashio":"×","jishin":"○","tsunami":"×","kaji":"×","naisui":"○","kazan":"×"}}
,{"type":"Feature","geometry":{"type":"Point","coordinates":[135.829,34.603]},"properties":{"Name":"天理市立中央保育所","Jusho":"奈良県天理市田部町553","kouzui":"○","gake":"○","takashio":"×","jishin":"○","tsunami":"×","kaji":"×","naisui":"○","kazan":"×"}}
,{"type":"Feature","geometry":{"type":"Point","coordinates":[135.803,34.6]},"properties":{"Name":"天理市立西中学校","Jusho":"奈良県天理市二階堂上ノ庄町210-1","kouzui":"○","gake":"○","takashio":"×","jishin":"○","tsunami":"×","kaji":"○","naisui":"○","kazan":"×"}}
,{"type":"Feature","geometry":{"type":"Point","coordinates":[135.795,34.593]},"properties":{"Name":"天理市立二階堂幼稚園","Jusho":"奈良県天理市二階堂南菅田町38-1","kouzui":"×","gake":"○","takashio":"×","jishin":"○","tsunami":"×","kaji":"×","naisui":"×","kazan":"×"}}
,{"type":"Feature","geometry":{"type":"Point","coordinates":[135.796,34.595]},"properties":{"Name":"天理市立二階堂小学校","Jusho":"奈良県天理市二階堂南菅田町640-1","kouzui":"×","gake":"○","takashio":"×","jishin":"○","tsunami":"×","kaji":"○","naisui":"×","kazan":"×"}}
,{"type":"Feature","geometry":{"type":"Point","coordinates":[135.918,34.613]},"properties":{"Name":"天理市立福住小学校","Jusho":"奈良県天理市福住町1954-1","kouzui":"×","gake":"×","takashio":"×","jishin":"○","tsunami":"×","kaji":"○","naisui":"×","kazan":"×"}}
,{"type":"Feature","geometry":{"type":"Point","coordinates":[135.916,34.611]},"properties":{"Name":"天理市立福住公民館","Jusho":"奈良県天理市福住町2025-1","kouzui":"○","gake":"○","takashio":"×","jishin":"○","tsunami":"×","kaji":"×","naisui":"○","kazan":"×"}}
,{"type":"Feature","geometry":{"type":"Point","coordinates":[135.914,34.613]},"properties":{"Name":"（旧）天理市立福住中学校","Jusho":"奈良県天理市福住町2105","kouzui":"○","gake":"○","takashio":"×","jishin":"○","tsunami":"×","kaji":"○","naisui":"○","kazan":"×"}}
,{"type":"Feature","geometry":{"type":"Point","coordinates":[135.911,34.609]},"properties":{"Name":"高原地域振興館","Jusho":"奈良県天理市福住町3902","kouzui":"○","gake":"○","takashio":"×","jishin":"○","tsunami":"×","kaji":"×","naisui":"○","kazan":"×"}}
,{"type":"Feature","geometry":{"type":"Point","coordinates":[135.903,34.606]},"properties":{"Name":"旧天理市福祉センター","Jusho":"奈良県天理市福住町4890","kouzui":"○","gake":"○","takashio":"×","jishin":"×","tsunami":"×","kaji":"×","naisui":"○","kazan":"×"}}
,{"type":"Feature","geometry":{"type":"Point","coordinates":[135.835,34.571]},"properties":{"Name":"天理市立南中学校","Jusho":"奈良県天理市兵庫町336-2","kouzui":"○","gake":"○","takashio":"×","jishin":"○","tsunami":"×","kaji":"○","naisui":"○","kazan":"×"}}
,{"type":"Feature","geometry":{"type":"Point","coordinates":[135.837,34.609]},"properties":{"Name":"天理市立山の辺小学校","Jusho":"奈良県天理市別所町380","kouzui":"○","gake":"○","takashio":"×","jishin":"○","tsunami":"×","kaji":"○","naisui":"○","kazan":"×"}}
,{"type":"Feature","geometry":{"type":"Point","coordinates":[135.851,34.602]},"properties":{"Name":"天理市立東部公民館","Jusho":"奈良県天理市豊井町87","kouzui":"○","gake":"○","takashio":"×","jishin":"○","tsunami":"×","kaji":"×","naisui":"○","kazan":"×"}}
,{"type":"Feature","geometry":{"type":"Point","coordinates":[135.844,34.559]},"properties":{"Name":"天理市立柳本公民館","Jusho":"奈良県天理市柳本町1127","kouzui":"○","gake":"○","takashio":"×","jishin":"○","tsunami":"×","kaji":"×","naisui":"○","kazan":"×"}}
,{"type":"Feature","geometry":{"type":"Point","coordinates":[135.844,34.559]},"properties":{"Name":"天理市立柳本小学校","Jusho":"奈良県天理市柳本町1213","kouzui":"○","gake":"○","takashio":"×","jishin":"○","tsunami":"×","kaji":"○","naisui":"○","kazan":"×"}}
,{"type":"Feature","geometry":{"type":"Point","coordinates":[135.849,34.56]},"properties":{"Name":"天理市トレイルセンター","Jusho":"奈良県天理市柳本町577-1","kouzui":"○","gake":"○","takashio":"×","jishin":"○","tsunami":"×","kaji":"×","naisui":"○","kazan":"×"}}
,{"type":"Feature","geometry":{"type":"Point","coordinates":[135.844,34.561]},"properties":{"Name":"天理市障害者ふれあいセンター","Jusho":"奈良県天理市柳本町719","kouzui":"○","gake":"○","takashio":"×","jishin":"○","tsunami":"×","kaji":"×","naisui":"○","kazan":"×"}}
,{"type":"Feature","geometry":{"type":"Point","coordinates":[135.836,34.561]},"properties":{"Name":"天理市立柳本幼稚園","Jusho":"奈良県天理市柳本町891-2","kouzui":"○","gake":"○","takashio":"×","jishin":"○","tsunami":"×","kaji":"×","naisui":"○","kazan":"×"}}
,{"type":"Feature","geometry":{"type":"Point","coordinates":[135.823,34.621]},"properties":{"Name":"奈良県立添上高等学校","Jusho":"奈良県天理市櫟本町1532-2","kouzui":"×","gake":"○","takashio":"×","jishin":"○","tsunami":"×","kaji":"○","naisui":"×","kazan":"×"}}
,{"type":"Feature","geometry":{"type":"Point","coordinates":[135.829,34.623]},"properties":{"Name":"天理市立櫟本幼稚園","Jusho":"奈良県天理市櫟本町2066","kouzui":"○","gake":"○","takashio":"×","jishin":"○","tsunami":"×","kaji":"×","naisui":"○","kazan":"×"}}
,{"type":"Feature","geometry":{"type":"Point","coordinates":[135.831,34.62]},"properties":{"Name":"天理市立櫟本小学校","Jusho":"奈良県天理市櫟本町2426-1","kouzui":"○","gake":"○","takashio":"×","jishin":"○","tsunami":"×","kaji":"○","naisui":"○","kazan":"×"}}
,{"type":"Feature","geometry":{"type":"Point","coordinates":[135.833,34.62]},"properties":{"Name":"天理市立櫟本公民館","Jusho":"奈良県天理市櫟本町2460-1","kouzui":"○","gake":"○","takashio":"×","jishin":"○","tsunami":"×","kaji":"×","naisui":"○","kazan":"×"}}
,{"type":"Feature","geometry":{"type":"Point","coordinates":[135.838,34.623]},"properties":{"Name":"櫟本高塚公園","Jusho":"奈良県天理市櫟本町2533-4","kouzui":"○","gake":"○","takashio":"×","jishin":"○","tsunami":"×","kaji":"○","naisui":"○","kazan":"×"}}
,{"type":"Feature","geometry":{"type":"Point","coordinates":[135.771,34.476]},"properties":{"Name":"新沢小学校体育館","Jusho":"奈良県橿原市一町1296","kouzui":"○","gake":"○","takashio":"×","jishin":"○","tsunami":"×","kaji":"○","naisui":"○","kazan":"×"}}
,{"type":"Feature","geometry":{"type":"Point","coordinates":[135.767,34.5]},"properties":{"Name":"金橋小学校体育館","Jusho":"奈良県橿原市雲悌町216-1","kouzui":"○","gake":"○","takashio":"×","jishin":"○","tsunami":"×","kaji":"○","naisui":"○","kazan":"×"}}
,{"type":"Feature","geometry":{"type":"Point","coordinates":[135.772,34.5]},"properties":{"Name":"金橋地区公民館","Jusho":"奈良県橿原市雲梯町927","kouzui":"○","gake":"○","takashio":"×","jishin":"○","tsunami":"×","kaji":"○","naisui":"○","kazan":"×"}}
,{"type":"Feature","geometry":{"type":"Point","coordinates":[135.771,34.498]},"properties":{"Name":"橿原運動公園貴賓室","Jusho":"奈良県橿原市雲梯町３２３－２外","kouzui":"○","gake":"○","takashio":"×","jishin":"○","tsunami":"×","kaji":"○","naisui":"○","kazan":"×"}}
,{"type":"Feature","geometry":{"type":"Point","coordinates":[135.772,34.498]},"properties":{"Name":"橿原運動公園","Jusho":"奈良県橿原市雲梯町３２３－２外","kouzui":"○","gake":"○","takashio":"×","jishin":"○","tsunami":"×","kaji":"○","naisui":"○","kazan":"×"}}
,{"type":"Feature","geometry":{"type":"Point","coordinates":[135.806,34.523]},"properties":{"Name":"耳成地区公民館","Jusho":"奈良県橿原市葛本町593","kouzui":"○","gake":"○","takashio":"×","jishin":"○","tsunami":"×","kaji":"○","naisui":"○","kazan":"×"}}
,{"type":"Feature","geometry":{"type":"Point","coordinates":[135.806,34.522]},"properties":{"Name":"耳成小学校体育館","Jusho":"奈良県橿原市葛本町625","kouzui":"○","gake":"○","takashio":"×","jishin":"○","tsunami":"×","kaji":"○","naisui":"○","kazan":"×"}}
,{"type":"Feature","geometry":{"type":"Point","coordinates":[135.793,34.48]},"properties":{"Name":"畝傍南小学校体育館","Jusho":"奈良県橿原市見瀬町164","kouzui":"○","gake":"○","takashio":"×","jishin":"○","tsunami":"×","kaji":"○","naisui":"○","kazan":"×"}}
,{"type":"Feature","geometry":{"type":"Point","coordinates":[135.793,34.481]},"properties":{"Name":"畝傍地区公民館","Jusho":"奈良県橿原市見瀬町202-1","kouzui":"○","gake":"○","takashio":"×","jishin":"○","tsunami":"×","kaji":"○","naisui":"○","kazan":"×"}}
,{"type":"Feature","geometry":{"type":"Point","coordinates":[135.772,34.488]},"properties":{"Name":"光陽中学校体育館","Jusho":"奈良県橿原市古川町20","kouzui":"○","gake":"○","takashio":"×","jishin":"○","tsunami":"×","kaji":"○","naisui":"○","kazan":"×"}}
,{"type":"Feature","geometry":{"type":"Point","coordinates":[135.789,34.505]},"properties":{"Name":"今井地区公民館","Jusho":"奈良県橿原市今井町2-3-23","kouzui":"○","gake":"○","takashio":"×","jishin":"○","tsunami":"×","kaji":"○","naisui":"○","kazan":"×"}}
,{"type":"Feature","geometry":{"type":"Point","coordinates":[135.786,34.505]},"properties":{"Name":"今井小学校体育館","Jusho":"奈良県橿原市今井町3-4-46","kouzui":"○","gake":"○","takashio":"×","jishin":"○","tsunami":"×","kaji":"○","naisui":"○","kazan":"×"}}
,{"type":"Feature","geometry":{"type":"Point","coordinates":[135.81,34.531]},"properties":{"Name":"福祉センター「やわらぎの郷」","Jusho":"奈良県橿原市十市町63-1","kouzui":"○","gake":"○","takashio":"×","jishin":"○","tsunami":"×","kaji":"○","naisui":"○","kazan":"×"}}
,{"type":"Feature","geometry":{"type":"Point","coordinates":[135.783,34.509]},"properties":{"Name":"大成中学校体育館","Jusho":"奈良県橿原市小綱町77-2","kouzui":"○","gake":"○","takashio":"×","jishin":"○","tsunami":"×","kaji":"○","naisui":"○","kazan":"×"}}
,{"type":"Feature","geometry":{"type":"Point","coordinates":[135.797,34.506]},"properties":{"Name":"晩成小学校体育館","Jusho":"奈良県橿原市小房町1-54","kouzui":"○","gake":"○","takashio":"×","jishin":"○","tsunami":"×","kaji":"○","naisui":"○","kazan":"×"}}
,{"type":"Feature","geometry":{"type":"Point","coordinates":[135.797,34.5]},"properties":{"Name":"市立中央体育館","Jusho":"奈良県橿原市小房町11-1","kouzui":"○","gake":"○","takashio":"×","jishin":"○","tsunami":"×","kaji":"○","naisui":"○","kazan":"×"}}
,{"type":"Feature","geometry":{"type":"Point","coordinates":[135.797,34.502]},"properties":{"Name":"中央公民館","Jusho":"奈良県橿原市小房町9-23","kouzui":"○","gake":"○","takashio":"×","jishin":"○","tsunami":"×","kaji":"○","naisui":"○","kazan":"×"}}
,{"type":"Feature","geometry":{"type":"Point","coordinates":[135.79,34.522]},"properties":{"Name":"耳成西小学校体育館","Jusho":"奈良県橿原市上品寺町455-1","kouzui":"○","gake":"○","takashio":"×","jishin":"○","tsunami":"×","kaji":"○","naisui":"○","kazan":"×"}}
,{"type":"Feature","geometry":{"type":"Point","coordinates":[135.809,34.519]},"properties":{"Name":"耳成南小学校体育館","Jusho":"奈良県橿原市常盤町3","kouzui":"○","gake":"○","takashio":"×","jishin":"○","tsunami":"×","kaji":"○","naisui":"○","kazan":"×"}}
,{"type":"Feature","geometry":{"type":"Point","coordinates":[135.804,34.519]},"properties":{"Name":"八木中学校体育館","Jusho":"奈良県橿原市新賀町33","kouzui":"○","gake":"○","takashio":"×","jishin":"○","tsunami":"×","kaji":"○","naisui":"○","kazan":"×"}}
,{"type":"Feature","geometry":{"type":"Point","coordinates":[135.789,34.526]},"properties":{"Name":"多地区公民館","Jusho":"奈良県橿原市新口町244-2","kouzui":"○","gake":"○","takashio":"×","jishin":"○","tsunami":"×","kaji":"○","naisui":"○","kazan":"×"}}
,{"type":"Feature","geometry":{"type":"Point","coordinates":[135.786,34.53]},"properties":{"Name":"橿原中学校体育館","Jusho":"奈良県橿原市西新堂町26-1","kouzui":"○","gake":"○","takashio":"×","jishin":"○","tsunami":"×","kaji":"○","naisui":"○","kazan":"×"}}
,{"type":"Feature","geometry":{"type":"Point","coordinates":[135.802,34.485]},"properties":{"Name":"畝傍中学校体育館","Jusho":"奈良県橿原市石川町204","kouzui":"○","gake":"○","takashio":"×","jishin":"○","tsunami":"×","kaji":"○","naisui":"○","kazan":"×"}}
,{"type":"Feature","geometry":{"type":"Point","coordinates":[135.771,34.477]},"properties":{"Name":"新沢地区公民館","Jusho":"奈良県橿原市川西町611","kouzui":"○","gake":"○","takashio":"×","jishin":"○","tsunami":"×","kaji":"○","naisui":"○","kazan":"×"}}
,{"type":"Feature","geometry":{"type":"Point","coordinates":[135.773,34.48]},"properties":{"Name":"橿原市新沢千塚公園拠点施設","Jusho":"奈良県橿原市川西町855-1","kouzui":"○","gake":"○","takashio":"×","jishin":"○","tsunami":"×","kaji":"○","naisui":"○","kazan":"×"}}
,{"type":"Feature","geometry":{"type":"Point","coordinates":[135.773,34.478]},"properties":{"Name":"新沢千塚古墳群公園","Jusho":"奈良県橿原市川西町７５５－３外","kouzui":"○","gake":"○","takashio":"×","jishin":"○","tsunami":"×","kaji":"○","naisui":"○","kazan":"×"}}
,{"type":"Feature","geometry":{"type":"Point","coordinates":[135.823,34.508]},"properties":{"Name":"香久山地区公民館","Jusho":"奈良県橿原市膳夫町477","kouzui":"○","gake":"○","takashio":"×","jishin":"○","tsunami":"×","kaji":"○","naisui":"○","kazan":"×"}}
,{"type":"Feature","geometry":{"type":"Point","coordinates":[135.821,34.505]},"properties":{"Name":"香久山小学校体育館","Jusho":"奈良県橿原市膳夫町98-1","kouzui":"○","gake":"○","takashio":"×","jishin":"○","tsunami":"×","kaji":"○","naisui":"○","kazan":"×"}}
,{"type":"Feature","geometry":{"type":"Point","coordinates":[135.769,34.518]},"properties":{"Name":"曽我川緑地体育館","Jusho":"奈良県橿原市曽我町1212","kouzui":"○","gake":"○","takashio":"×","jishin":"○","tsunami":"×","kaji":"○","naisui":"○","kazan":"×"}}
,{"type":"Feature","geometry":{"type":"Point","coordinates":[135.779,34.512]},"properties":{"Name":"真菅地区公民館","Jusho":"奈良県橿原市曽我町1281-18","kouzui":"○","gake":"○","takashio":"×","jishin":"○","tsunami":"×","kaji":"○","naisui":"○","kazan":"×"}}
,{"type":"Feature","geometry":{"type":"Point","coordinates":[135.779,34.515]},"properties":{"Name":"真菅小学校体育館","Jusho":"奈良県橿原市曽我町710","kouzui":"○","gake":"○","takashio":"×","jishin":"○","tsunami":"×","kaji":"○","naisui":"○","kazan":"×"}}
,{"type":"Feature","geometry":{"type":"Point","coordinates":[135.78,34.528]},"properties":{"Name":"真菅北小学校体育館","Jusho":"奈良県橿原市大垣町220-1","kouzui":"○","gake":"○","takashio":"×","jishin":"○","tsunami":"×","kaji":"○","naisui":"○","kazan":"×"}}
,{"type":"Feature","geometry":{"type":"Point","coordinates":[135.794,34.499]},"properties":{"Name":"大久保コミュニティーセンター","Jusho":"奈良県橿原市大久保町15-1","kouzui":"○","gake":"○","takashio":"×","jishin":"○","tsunami":"×","kaji":"○","naisui":"○","kazan":"×"}}
,{"type":"Feature","geometry":{"type":"Point","coordinates":[135.795,34.496]},"properties":{"Name":"畝傍北小学校体育館","Jusho":"奈良県橿原市大久保町156","kouzui":"○","gake":"○","takashio":"×","jishin":"○","tsunami":"×","kaji":"○","naisui":"○","kazan":"×"}}
,{"type":"Feature","geometry":{"type":"Point","coordinates":[135.802,34.48]},"properties":{"Name":"畝傍東小学校体育館","Jusho":"奈良県橿原市大軽町283","kouzui":"○","gake":"○","takashio":"×","jishin":"○","tsunami":"×","kaji":"○","naisui":"○","kazan":"×"}}
,{"type":"Feature","geometry":{"type":"Point","coordinates":[135.804,34.505]},"properties":{"Name":"鴨公地区公民館","Jusho":"奈良県橿原市醍醐町42-2","kouzui":"○","gake":"○","takashio":"×","jishin":"○","tsunami":"×","kaji":"○","naisui":"○","kazan":"×"}}
,{"type":"Feature","geometry":{"type":"Point","coordinates":[135.82,34.527]},"properties":{"Name":"ひがしたけだドーム","Jusho":"奈良県橿原市東竹田町124-1","kouzui":"○","gake":"○","takashio":"×","jishin":"○","tsunami":"×","kaji":"○","naisui":"○","kazan":"×"}}
,{"type":"Feature","geometry":{"type":"Point","coordinates":[135.803,34.501]},"properties":{"Name":"鴨公小学校体育館","Jusho":"奈良県橿原市縄手町324","kouzui":"○","gake":"○","takashio":"×","jishin":"○","tsunami":"×","kaji":"○","naisui":"○","kazan":"×"}}
,{"type":"Feature","geometry":{"type":"Point","coordinates":[135.824,34.492]},"properties":{"Name":"香久山体育館","Jusho":"奈良県橿原市南山町624","kouzui":"○","gake":"○","takashio":"×","jishin":"○","tsunami":"×","kaji":"○","naisui":"○","kazan":"×"}}
,{"type":"Feature","geometry":{"type":"Point","coordinates":[135.791,34.475]},"properties":{"Name":"白橿地区公民館","Jusho":"奈良県橿原市白橿町2-32-11","kouzui":"○","gake":"○","takashio":"×","jishin":"○","tsunami":"×","kaji":"○","naisui":"○","kazan":"×"}}
,{"type":"Feature","geometry":{"type":"Point","coordinates":[135.792,34.468]},"properties":{"Name":"白橿中学校体育館","Jusho":"奈良県橿原市白橿町8-12-1","kouzui":"○","gake":"○","takashio":"×","jishin":"○","tsunami":"×","kaji":"○","naisui":"○","kazan":"×"}}
,{"type":"Feature","geometry":{"type":"Point","coordinates":[135.79,34.47]},"properties":{"Name":"白橿小学校体育館","Jusho":"奈良県橿原市白橿町8-19-1","kouzui":"○","gake":"○","takashio":"×","jishin":"○","tsunami":"×","kaji":"○","naisui":"○","kazan":"×"}}
,{"type":"Feature","geometry":{"type":"Point","coordinates":[135.8,34.509]},"properties":{"Name":"奈良県立畝傍高等学校","Jusho":"奈良県橿原市八木町3-13-2","kouzui":"○","gake":"○","takashio":"×","jishin":"○","tsunami":"×","kaji":"○","naisui":"○","kazan":"×"}}
,{"type":"Feature","geometry":{"type":"Point","coordinates":[135.803,34.497]},"properties":{"Name":"飛騨コミュニティーセンター","Jusho":"奈良県橿原市飛騨町94-2","kouzui":"○","gake":"○","takashio":"×","jishin":"×","tsunami":"×","kaji":"○","naisui":"○","kazan":"×"}}
,{"type":"Feature","geometry":{"type":"Point","coordinates":[135.777,34.476]},"properties":{"Name":"奈良県立橿原高等学校","Jusho":"奈良県橿原市北越智町282","kouzui":"○","gake":"○","takashio":"×","jishin":"○","tsunami":"×","kaji":"○","naisui":"○","kazan":"×"}}
,{"type":"Feature","geometry":{"type":"Point","coordinates":[135.796,34.511]},"properties":{"Name":"八木地区公民館","Jusho":"奈良県橿原市北八木町2-1-6","kouzui":"○","gake":"○","takashio":"×","jishin":"○","tsunami":"×","kaji":"○","naisui":"○","kazan":"×"}}
,{"type":"Feature","geometry":{"type":"Point","coordinates":[135.845,34.519]},"properties":{"Name":"桜井中央児童公園","Jusho":"奈良県桜井市粟殿1001","kouzui":"×","gake":"×","takashio":"×","jishin":"○","tsunami":"×","kaji":"○","naisui":"×","kazan":"×"}}
,{"type":"Feature","geometry":{"type":"Point","coordinates":[135.843,34.517]},"properties":{"Name":"中央公民館","Jusho":"奈良県桜井市粟殿202","kouzui":"○","gake":"○","takashio":"×","jishin":"×","tsunami":"×","kaji":"○","naisui":"×","kazan":"×"}}
,{"type":"Feature","geometry":{"type":"Point","coordinates":[135.852,34.518]},"properties":{"Name":"桜井木材協同組合（駐車場）","Jusho":"奈良県桜井市粟殿350","kouzui":"×","gake":"×","takashio":"×","jishin":"○","tsunami":"×","kaji":"○","naisui":"×","kazan":"×"}}
,{"type":"Feature","geometry":{"type":"Point","coordinates":[135.84,34.502]},"properties":{"Name":"安倍史跡公園","Jusho":"奈良県桜井市安倍木材団地1-8-6","kouzui":"×","gake":"×","takashio":"×","jishin":"○","tsunami":"×","kaji":"○","naisui":"×","kazan":"×"}}
,{"type":"Feature","geometry":{"type":"Point","coordinates":[135.852,34.506]},"properties":{"Name":"図書館　（図書館）","Jusho":"奈良県桜井市河西31","kouzui":"○","gake":"○","takashio":"×","jishin":"○","tsunami":"×","kaji":"○","naisui":"×","kazan":"×"}}
,{"type":"Feature","geometry":{"type":"Point","coordinates":[135.851,34.507]},"properties":{"Name":"図書館　（駐車場）","Jusho":"奈良県桜井市河西31","kouzui":"×","gake":"×","takashio":"×","jishin":"○","tsunami":"×","kaji":"○","naisui":"×","kazan":"×"}}
,{"type":"Feature","geometry":{"type":"Point","coordinates":[135.858,34.515]},"properties":{"Name":"城島小学校　（グラウンド）","Jusho":"奈良県桜井市外山330","kouzui":"×","gake":"×","takashio":"×","jishin":"○","tsunami":"×","kaji":"○","naisui":"×","kazan":"×"}}
,{"type":"Feature","geometry":{"type":"Point","coordinates":[135.858,34.516]},"properties":{"Name":"城島小学校　（体育館）","Jusho":"奈良県桜井市外山330","kouzui":"○","gake":"○","takashio":"×","jishin":"○","tsunami":"×","kaji":"○","naisui":"×","kazan":"×"}}
,{"type":"Feature","geometry":{"type":"Point","coordinates":[135.909,34.568]},"properties":{"Name":"上之郷体育館　（グラウンド）","Jusho":"奈良県桜井市笠82","kouzui":"×","gake":"×","takashio":"×","jishin":"○","tsunami":"×","kaji":"○","naisui":"×","kazan":"×"}}
,{"type":"Feature","geometry":{"type":"Point","coordinates":[135.909,34.568]},"properties":{"Name":"上之郷体育館　（体育館）","Jusho":"奈良県桜井市笠82","kouzui":"○","gake":"○","takashio":"×","jishin":"○","tsunami":"×","kaji":"○","naisui":"×","kazan":"×"}}
,{"type":"Feature","geometry":{"type":"Point","coordinates":[135.934,34.532]},"properties":{"Name":"吉隠公民館　（グラウンド）","Jusho":"奈良県桜井市吉隠726","kouzui":"×","gake":"×","takashio":"×","jishin":"○","tsunami":"×","kaji":"○","naisui":"×","kazan":"×"}}
,{"type":"Feature","geometry":{"type":"Point","coordinates":[135.934,34.532]},"properties":{"Name":"吉隠公民館　（公民館）","Jusho":"奈良県桜井市吉隠726","kouzui":"○","gake":"○","takashio":"×","jishin":"×","tsunami":"×","kaji":"○","naisui":"×","kazan":"×"}}
,{"type":"Feature","geometry":{"type":"Point","coordinates":[135.829,34.509]},"properties":{"Name":"桜井西ふれあいセンター","Jusho":"奈良県桜井市吉備646-16","kouzui":"○","gake":"○","takashio":"×","jishin":"×","tsunami":"×","kaji":"○","naisui":"×","kazan":"×"}}
,{"type":"Feature","geometry":{"type":"Point","coordinates":[135.829,34.509]},"properties":{"Name":"第１保育所","Jusho":"奈良県桜井市吉備648-1","kouzui":"○","gake":"○","takashio":"×","jishin":"○","tsunami":"×","kaji":"○","naisui":"×","kazan":"×"}}
,{"type":"Feature","geometry":{"type":"Point","coordinates":[135.876,34.522]},"properties":{"Name":"朝倉小学校　（体育館）","Jusho":"奈良県桜井市黒崎626","kouzui":"○","gake":"○","takashio":"×","jishin":"○","tsunami":"×","kaji":"○","naisui":"×","kazan":"×"}}
,{"type":"Feature","geometry":{"type":"Point","coordinates":[135.877,34.522]},"properties":{"Name":"朝倉小学校　（グラウンド）","Jusho":"奈良県桜井市黒崎626","kouzui":"×","gake":"×","takashio":"×","jishin":"○","tsunami":"×","kaji":"○","naisui":"×","kazan":"×"}}
,{"type":"Feature","geometry":{"type":"Point","coordinates":[135.846,34.513]},"properties":{"Name":"まほろばセンター","Jusho":"奈良県桜井市桜井1259","kouzui":"○","gake":"○","takashio":"×","jishin":"○","tsunami":"×","kaji":"○","naisui":"×","kazan":"×"}}
,{"type":"Feature","geometry":{"type":"Point","coordinates":[135.846,34.51]},"properties":{"Name":"昭和児童公園","Jusho":"奈良県桜井市桜井243-1","kouzui":"×","gake":"×","takashio":"×","jishin":"○","tsunami":"×","kaji":"○","naisui":"×","kazan":"×"}}
,{"type":"Feature","geometry":{"type":"Point","coordinates":[135.851,34.526]},"properties":{"Name":"三輪小学校　（グラウンド）","Jusho":"奈良県桜井市三輪324","kouzui":"×","gake":"×","takashio":"×","jishin":"○","tsunami":"×","kaji":"○","naisui":"×","kazan":"×"}}
,{"type":"Feature","geometry":{"type":"Point","coordinates":[135.85,34.525]},"properties":{"Name":"三輪小学校　（体育館）","Jusho":"奈良県桜井市三輪324","kouzui":"○","gake":"○","takashio":"×","jishin":"○","tsunami":"×","kaji":"○","naisui":"×","kazan":"×"}}
,{"type":"Feature","geometry":{"type":"Point","coordinates":[135.84,34.53]},"properties":{"Name":"芝運動公園","Jusho":"奈良県桜井市三輪686","kouzui":"×","gake":"×","takashio":"×","jishin":"○","tsunami":"×","kaji":"○","naisui":"×","kazan":"×"}}
,{"type":"Feature","geometry":{"type":"Point","coordinates":[135.841,34.529]},"properties":{"Name":"総合体育館","Jusho":"奈良県桜井市三輪686","kouzui":"○","gake":"○","takashio":"×","jishin":"○","tsunami":"×","kaji":"○","naisui":"×","kazan":"×"}}
,{"type":"Feature","geometry":{"type":"Point","coordinates":[135.869,34.515]},"properties":{"Name":"朝倉台２号公園","Jusho":"奈良県桜井市慈恩寺１０００－１３５外","kouzui":"×","gake":"×","takashio":"×","jishin":"○","tsunami":"×","kaji":"○","naisui":"×","kazan":"×"}}
,{"type":"Feature","geometry":{"type":"Point","coordinates":[135.843,34.536]},"properties":{"Name":"織田小学校　（体育館）","Jusho":"奈良県桜井市芝1177","kouzui":"○","gake":"○","takashio":"×","jishin":"○","tsunami":"×","kaji":"○","naisui":"×","kazan":"×"}}
,{"type":"Feature","geometry":{"type":"Point","coordinates":[135.843,34.536]},"properties":{"Name":"織田小学校　（グラウンド）","Jusho":"奈良県桜井市芝1177","kouzui":"×","gake":"×","takashio":"×","jishin":"○","tsunami":"×","kaji":"○","naisui":"×","kazan":"×"}}
,{"type":"Feature","geometry":{"type":"Point","coordinates":[135.842,34.532]},"properties":{"Name":"大三輪中学校　（体育館）","Jusho":"奈良県桜井市芝1401","kouzui":"○","gake":"○","takashio":"×","jishin":"○","tsunami":"×","kaji":"○","naisui":"×","kazan":"×"}}
,{"type":"Feature","geometry":{"type":"Point","coordinates":[135.843,34.532]},"properties":{"Name":"大三輪中学校　（グラウンド）","Jusho":"奈良県桜井市芝1401","kouzui":"×","gake":"×","takashio":"×","jishin":"○","tsunami":"×","kaji":"○","naisui":"×","kazan":"×"}}
,{"type":"Feature","geometry":{"type":"Point","coordinates":[135.834,34.536]},"properties":{"Name":"高齢者ふれあい広場","Jusho":"奈良県桜井市芝24-1","kouzui":"×","gake":"×","takashio":"×","jishin":"○","tsunami":"×","kaji":"○","naisui":"×","kazan":"×"}}
,{"type":"Feature","geometry":{"type":"Point","coordinates":[135.841,34.53]},"properties":{"Name":"桜井市民体育館","Jusho":"奈良県桜井市芝54-1","kouzui":"×","gake":"○","takashio":"×","jishin":"×","tsunami":"×","kaji":"○","naisui":"×","kazan":"×"}}
,{"type":"Feature","geometry":{"type":"Point","coordinates":[135.899,34.527]},"properties":{"Name":"初瀬小学校　（体育館）","Jusho":"奈良県桜井市初瀬1556","kouzui":"○","gake":"○","takashio":"×","jishin":"○","tsunami":"×","kaji":"○","naisui":"×","kazan":"×"}}
,{"type":"Feature","geometry":{"type":"Point","coordinates":[135.899,34.527]},"properties":{"Name":"初瀬小学校　（グラウンド）","Jusho":"奈良県桜井市初瀬1556","kouzui":"×","gake":"×","takashio":"×","jishin":"○","tsunami":"×","kaji":"○","naisui":"×","kazan":"×"}}
,{"type":"Feature","geometry":{"type":"Point","coordinates":[135.901,34.527]},"properties":{"Name":"初瀬観光センター（センター）","Jusho":"奈良県桜井市初瀬1593-2","kouzui":"○","gake":"○","takashio":"×","jishin":"○","tsunami":"×","kaji":"○","naisui":"×","kazan":"×"}}
,{"type":"Feature","geometry":{"type":"Point","coordinates":[135.901,34.527]},"properties":{"Name":"初瀬観光センター（駐車場）","Jusho":"奈良県桜井市初瀬1593-2","kouzui":"×","gake":"×","takashio":"×","jishin":"○","tsunami":"×","kaji":"○","naisui":"×","kazan":"×"}}
,{"type":"Feature","geometry":{"type":"Point","coordinates":[135.899,34.526]},"properties":{"Name":"桜井東ふれあいセンター分館","Jusho":"奈良県桜井市初瀬1626-1","kouzui":"○","gake":"○","takashio":"×","jishin":"○","tsunami":"×","kaji":"○","naisui":"×","kazan":"×"}}
,{"type":"Feature","geometry":{"type":"Point","coordinates":[135.896,34.525]},"properties":{"Name":"桜井東中学校　（グラウンド）","Jusho":"奈良県桜井市初瀬1655","kouzui":"×","gake":"×","takashio":"×","jishin":"○","tsunami":"×","kaji":"○","naisui":"×","kazan":"×"}}
,{"type":"Feature","geometry":{"type":"Point","coordinates":[135.896,34.526]},"properties":{"Name":"桜井東中学校　（体育館）","Jusho":"奈良県桜井市初瀬1655","kouzui":"×","gake":"○","takashio":"×","jishin":"○","tsunami":"×","kaji":"○","naisui":"×","kazan":"×"}}
,{"type":"Feature","geometry":{"type":"Point","coordinates":[135.905,34.527]},"properties":{"Name":"桜井東ふれあいセンター","Jusho":"奈良県桜井市初瀬2337","kouzui":"○","gake":"○","takashio":"×","jishin":"×","tsunami":"×","kaji":"○","naisui":"×","kazan":"×"}}
,{"type":"Feature","geometry":{"type":"Point","coordinates":[135.916,34.572]},"properties":{"Name":"上之郷公民館　（駐車場）","Jusho":"奈良県桜井市小夫3266","kouzui":"×","gake":"×","takashio":"×","jishin":"○","tsunami":"×","kaji":"○","naisui":"×","kazan":"×"}}
,{"type":"Feature","geometry":{"type":"Point","coordinates":[135.916,34.573]},"properties":{"Name":"上之郷公民館　（公民館）","Jusho":"奈良県桜井市小夫3266","kouzui":"○","gake":"○","takashio":"×","jishin":"×","tsunami":"×","kaji":"○","naisui":"×","kazan":"×"}}
,{"type":"Feature","geometry":{"type":"Point","coordinates":[135.837,34.521]},"properties":{"Name":"イオン桜井店　（駐車場）","Jusho":"奈良県桜井市上之庄278-1","kouzui":"×","gake":"×","takashio":"×","jishin":"○","tsunami":"×","kaji":"○","naisui":"×","kazan":"×"}}
,{"type":"Feature","geometry":{"type":"Point","coordinates":[135.838,34.519]},"properties":{"Name":"桜井西小学校　（グラウンド）","Jusho":"奈良県桜井市上之庄594-1","kouzui":"×","gake":"×","takashio":"×","jishin":"○","tsunami":"×","kaji":"○","naisui":"×","kazan":"×"}}
,{"type":"Feature","geometry":{"type":"Point","coordinates":[135.839,34.518]},"properties":{"Name":"桜井西小学校　（体育館）","Jusho":"奈良県桜井市上之庄594-1","kouzui":"○","gake":"○","takashio":"×","jishin":"○","tsunami":"×","kaji":"○","naisui":"×","kazan":"×"}}
,{"type":"Feature","geometry":{"type":"Point","coordinates":[135.839,34.496]},"properties":{"Name":"安倍小学校　（体育館）","Jusho":"奈良県桜井市生田578","kouzui":"○","gake":"○","takashio":"×","jishin":"○","tsunami":"×","kaji":"○","naisui":"×","kazan":"×"}}
,{"type":"Feature","geometry":{"type":"Point","coordinates":[135.839,34.496]},"properties":{"Name":"安倍小学校　（グラウンド）","Jusho":"奈良県桜井市生田578","kouzui":"×","gake":"×","takashio":"×","jishin":"○","tsunami":"×","kaji":"○","naisui":"×","kazan":"×"}}
,{"type":"Feature","geometry":{"type":"Point","coordinates":[135.826,34.513]},"properties":{"Name":"桜井西ふれあいセンター分館","Jusho":"奈良県桜井市西之宮211-1","kouzui":"○","gake":"○","takashio":"×","jishin":"○","tsunami":"×","kaji":"○","naisui":"×","kazan":"×"}}
,{"type":"Feature","geometry":{"type":"Point","coordinates":[135.845,34.514]},"properties":{"Name":"天理教明和大教会","Jusho":"奈良県桜井市川合254-1","kouzui":"○","gake":"○","takashio":"×","jishin":"○","tsunami":"×","kaji":"○","naisui":"×","kazan":"×"}}
,{"type":"Feature","geometry":{"type":"Point","coordinates":[135.852,34.503]},"properties":{"Name":"桜井南小学校（グラウンド）","Jusho":"奈良県桜井市浅古21","kouzui":"×","gake":"×","takashio":"×","jishin":"○","tsunami":"×","kaji":"○","naisui":"×","kazan":"×"}}
,{"type":"Feature","geometry":{"type":"Point","coordinates":[135.853,34.503]},"properties":{"Name":"桜井南小学校（体育館）","Jusho":"奈良県桜井市浅古21","kouzui":"○","gake":"○","takashio":"×","jishin":"○","tsunami":"×","kaji":"○","naisui":"×","kazan":"×"}}
,{"type":"Feature","geometry":{"type":"Point","coordinates":[135.87,34.503]},"properties":{"Name":"桜井市グリーンパーク","Jusho":"奈良県桜井市浅古485-1","kouzui":"○","gake":"○","takashio":"×","jishin":"○","tsunami":"×","kaji":"○","naisui":"×","kazan":"×"}}
,{"type":"Feature","geometry":{"type":"Point","coordinates":[135.862,34.498]},"properties":{"Name":"桜井中学校　（グラウンド）","Jusho":"奈良県桜井市浅古593","kouzui":"×","gake":"×","takashio":"×","jishin":"○","tsunami":"×","kaji":"○","naisui":"×","kazan":"×"}}
,{"type":"Feature","geometry":{"type":"Point","coordinates":[135.862,34.499]},"properties":{"Name":"桜井中学校　（体育館）","Jusho":"奈良県桜井市浅古593","kouzui":"○","gake":"○","takashio":"×","jishin":"○","tsunami":"×","kaji":"○","naisui":"×","kazan":"×"}}
,{"type":"Feature","geometry":{"type":"Point","coordinates":[135.863,34.492]},"properties":{"Name":"総合福祉センター（旧高齢者総合福祉センター）（センター）","Jusho":"奈良県桜井市倉橋1166","kouzui":"○","gake":"○","takashio":"×","jishin":"○","tsunami":"×","kaji":"○","naisui":"×","kazan":"×"}}
,{"type":"Feature","geometry":{"type":"Point","coordinates":[135.862,34.491]},"properties":{"Name":"総合福祉センター（旧高齢者総合福祉センター）（駐車場）","Jusho":"奈良県桜井市倉橋1166","kouzui":"×","gake":"×","takashio":"×","jishin":"○","tsunami":"×","kaji":"○","naisui":"×","kazan":"×"}}
,{"type":"Feature","geometry":{"type":"Point","coordinates":[135.862,34.464]},"properties":{"Name":"多武峰第１駐車場","Jusho":"奈良県桜井市多武峰４７３外","kouzui":"×","gake":"×","takashio":"×","jishin":"○","tsunami":"×","kaji":"○","naisui":"×","kazan":"×"}}
,{"type":"Feature","geometry":{"type":"Point","coordinates":[135.828,34.511]},"properties":{"Name":"大福吉備中央公園","Jusho":"奈良県桜井市大福107","kouzui":"×","gake":"×","takashio":"×","jishin":"○","tsunami":"×","kaji":"○","naisui":"×","kazan":"×"}}
,{"type":"Feature","geometry":{"type":"Point","coordinates":[135.821,34.517]},"properties":{"Name":"なかつみち児童公園","Jusho":"奈良県桜井市大福370","kouzui":"×","gake":"×","takashio":"×","jishin":"○","tsunami":"×","kaji":"○","naisui":"×","kazan":"×"}}
,{"type":"Feature","geometry":{"type":"Point","coordinates":[135.831,34.518]},"properties":{"Name":"桜井西中学校　（体育館）","Jusho":"奈良県桜井市大福747","kouzui":"○","gake":"○","takashio":"×","jishin":"○","tsunami":"×","kaji":"○","naisui":"×","kazan":"×"}}
,{"type":"Feature","geometry":{"type":"Point","coordinates":[135.83,34.519]},"properties":{"Name":"桜井西中学校　（グラウンド）","Jusho":"奈良県桜井市大福747","kouzui":"×","gake":"×","takashio":"×","jishin":"○","tsunami":"×","kaji":"○","naisui":"×","kazan":"×"}}
,{"type":"Feature","geometry":{"type":"Point","coordinates":[135.829,34.51]},"properties":{"Name":"桜井市西老人憩いの家","Jusho":"奈良県桜井市大福77-1","kouzui":"○","gake":"○","takashio":"×","jishin":"×","tsunami":"×","kaji":"○","naisui":"×","kazan":"×"}}
,{"type":"Feature","geometry":{"type":"Point","coordinates":[135.825,34.518]},"properties":{"Name":"大福小学校　（グラウンド）","Jusho":"奈良県桜井市大福820","kouzui":"×","gake":"×","takashio":"×","jishin":"○","tsunami":"×","kaji":"○","naisui":"×","kazan":"×"}}
,{"type":"Feature","geometry":{"type":"Point","coordinates":[135.826,34.518]},"properties":{"Name":"大福小学校　（体育館）","Jusho":"奈良県桜井市大福820","kouzui":"○","gake":"○","takashio":"×","jishin":"○","tsunami":"×","kaji":"○","naisui":"×","kazan":"×"}}
,{"type":"Feature","geometry":{"type":"Point","coordinates":[135.846,34.505]},"properties":{"Name":"桜井小学校（体育館）","Jusho":"奈良県桜井市谷957","kouzui":"○","gake":"○","takashio":"×","jishin":"○","tsunami":"×","kaji":"○","naisui":"×","kazan":"×"}}
,{"type":"Feature","geometry":{"type":"Point","coordinates":[135.846,34.505]},"properties":{"Name":"桜井小学校（グラウンド）","Jusho":"奈良県桜井市谷957","kouzui":"×","gake":"×","takashio":"×","jishin":"○","tsunami":"×","kaji":"○","naisui":"×","kazan":"×"}}
,{"type":"Feature","geometry":{"type":"Point","coordinates":[135.845,34.506]},"properties":{"Name":"桜井公園","Jusho":"奈良県桜井市谷５６５外","kouzui":"×","gake":"×","takashio":"×","jishin":"○","tsunami":"×","kaji":"○","naisui":"×","kazan":"×"}}
,{"type":"Feature","geometry":{"type":"Point","coordinates":[135.875,34.515]},"properties":{"Name":"朝倉台４号公園","Jusho":"奈良県桜井市朝倉台西6-1370","kouzui":"×","gake":"×","takashio":"×","jishin":"○","tsunami":"×","kaji":"○","naisui":"×","kazan":"×"}}
,{"type":"Feature","geometry":{"type":"Point","coordinates":[135.84,34.544]},"properties":{"Name":"旧纒向小学校跡地","Jusho":"奈良県桜井市辻24-1","kouzui":"×","gake":"×","takashio":"×","jishin":"○","tsunami":"×","kaji":"○","naisui":"×","kazan":"×"}}
,{"type":"Feature","geometry":{"type":"Point","coordinates":[135.831,34.523]},"properties":{"Name":"ＬＡＭＵ（ラ・ムー）桜井店（駐車場）","Jusho":"奈良県桜井市東新堂500","kouzui":"×","gake":"×","takashio":"×","jishin":"○","tsunami":"×","kaji":"○","naisui":"×","kazan":"×"}}
,{"type":"Feature","geometry":{"type":"Point","coordinates":[135.835,34.546]},"properties":{"Name":"纒向小学校　（グラウンド）","Jusho":"奈良県桜井市東田339","kouzui":"×","gake":"×","takashio":"×","jishin":"○","tsunami":"×","kaji":"○","naisui":"×","kazan":"×"}}
,{"type":"Feature","geometry":{"type":"Point","coordinates":[135.834,34.547]},"properties":{"Name":"纒向小学校　（体育館）","Jusho":"奈良県桜井市東田339","kouzui":"○","gake":"○","takashio":"×","jishin":"○","tsunami":"×","kaji":"○","naisui":"×","kazan":"×"}}
,{"type":"Feature","geometry":{"type":"Point","coordinates":[135.832,34.539]},"properties":{"Name":"第５保育所","Jusho":"奈良県桜井市豊前267","kouzui":"○","gake":"○","takashio":"×","jishin":"×","tsunami":"×","kaji":"○","naisui":"×","kazan":"×"}}
,{"type":"Feature","geometry":{"type":"Point","coordinates":[135.833,34.538]},"properties":{"Name":"桜井北ふれあいセンター分館","Jusho":"奈良県桜井市豊田311-2","kouzui":"○","gake":"○","takashio":"×","jishin":"×","tsunami":"×","kaji":"○","naisui":"×","kazan":"×"}}
,{"type":"Feature","geometry":{"type":"Point","coordinates":[135.833,34.537]},"properties":{"Name":"豊田児童公園","Jusho":"奈良県桜井市豊田311-7","kouzui":"×","gake":"×","takashio":"×","jishin":"○","tsunami":"×","kaji":"○","naisui":"×","kazan":"×"}}
,{"type":"Feature","geometry":{"type":"Point","coordinates":[135.832,34.537]},"properties":{"Name":"桜井北ふれあいセンター","Jusho":"奈良県桜井市豊田314-2","kouzui":"○","gake":"○","takashio":"×","jishin":"○","tsunami":"×","kaji":"○","naisui":"×","kazan":"×"}}
,{"type":"Feature","geometry":{"type":"Point","coordinates":[135.668,34.347]},"properties":{"Name":"なつみ台近隣公園","Jusho":"奈良県五條市なつみ台1-140","kouzui":"○","gake":"○","takashio":"×","jishin":"○","tsunami":"×","kaji":"○","naisui":"○","kazan":"×"}}
,{"type":"Feature","geometry":{"type":"Point","coordinates":[135.696,34.356]},"properties":{"Name":"五條市役所","Jusho":"奈良県五條市岡口1-3-1","kouzui":"○","gake":"○","takashio":"×","jishin":"○","tsunami":"×","kaji":"○","naisui":"○","kazan":"×"}}
,{"type":"Feature","geometry":{"type":"Point","coordinates":[135.694,34.37]},"properties":{"Name":"五條高等学校","Jusho":"奈良県五條市岡町1428","kouzui":"○","gake":"○","takashio":"×","jishin":"○","tsunami":"×","kaji":"○","naisui":"○","kazan":"×"}}
,{"type":"Feature","geometry":{"type":"Point","coordinates":[135.699,34.362]},"properties":{"Name":"宇智体育館","Jusho":"奈良県五條市岡町989","kouzui":"○","gake":"○","takashio":"×","jishin":"○","tsunami":"×","kaji":"○","naisui":"○","kazan":"×"}}
,{"type":"Feature","geometry":{"type":"Point","coordinates":[135.689,34.353]},"properties":{"Name":"五條中学校","Jusho":"奈良県五條市下之町50","kouzui":"○","gake":"○","takashio":"×","jishin":"○","tsunami":"×","kaji":"○","naisui":"○","kazan":"×"}}
,{"type":"Feature","geometry":{"type":"Point","coordinates":[135.705,34.389]},"properties":{"Name":"旧北宇智小学校","Jusho":"奈良県五條市近内町1158","kouzui":"○","gake":"○","takashio":"×","jishin":"○","tsunami":"×","kaji":"○","naisui":"○","kazan":"×"}}
,{"type":"Feature","geometry":{"type":"Point","coordinates":[135.706,34.383]},"properties":{"Name":"北宇智公民館","Jusho":"奈良県五條市近内町735","kouzui":"○","gake":"○","takashio":"×","jishin":"○","tsunami":"×","kaji":"○","naisui":"○","kazan":"×"}}
,{"type":"Feature","geometry":{"type":"Point","coordinates":[135.708,34.382]},"properties":{"Name":"北宇智体育館","Jusho":"奈良県五條市近内町779","kouzui":"○","gake":"○","takashio":"×","jishin":"○","tsunami":"×","kaji":"○","naisui":"○","kazan":"×"}}
,{"type":"Feature","geometry":{"type":"Point","coordinates":[135.747,34.363]},"properties":{"Name":"旧阿太小学校","Jusho":"奈良県五條市原町225","kouzui":"×","gake":"○","takashio":"×","jishin":"○","tsunami":"×","kaji":"○","naisui":"○","kazan":"×"}}
,{"type":"Feature","geometry":{"type":"Point","coordinates":[135.749,34.368]},"properties":{"Name":"阿太運動場","Jusho":"奈良県五條市原町637","kouzui":"×","gake":"○","takashio":"×","jishin":"○","tsunami":"×","kaji":"○","naisui":"○","kazan":"×"}}
,{"type":"Feature","geometry":{"type":"Point","coordinates":[135.702,34.351]},"properties":{"Name":"人権総合センター","Jusho":"奈良県五條市五條4-1-3","kouzui":"×","gake":"○","takashio":"×","jishin":"○","tsunami":"×","kaji":"○","naisui":"○","kazan":"×"}}
,{"type":"Feature","geometry":{"type":"Point","coordinates":[135.707,34.351]},"properties":{"Name":"五條中央公園","Jusho":"奈良県五條市五條4-10","kouzui":"×","gake":"○","takashio":"×","jishin":"○","tsunami":"×","kaji":"○","naisui":"○","kazan":"×"}}
,{"type":"Feature","geometry":{"type":"Point","coordinates":[135.703,34.352]},"properties":{"Name":"五條東体育館","Jusho":"奈良県五條市五條4-2-6","kouzui":"×","gake":"○","takashio":"×","jishin":"○","tsunami":"×","kaji":"○","naisui":"○","kazan":"×"}}
,{"type":"Feature","geometry":{"type":"Point","coordinates":[135.706,34.357]},"properties":{"Name":"今井コミュニティセンター","Jusho":"奈良県五條市今井3-3-20","kouzui":"○","gake":"○","takashio":"×","jishin":"○","tsunami":"×","kaji":"○","naisui":"○","kazan":"×"}}
,{"type":"Feature","geometry":{"type":"Point","coordinates":[135.705,34.358]},"properties":{"Name":"宇智公民館","Jusho":"奈良県五條市今井3-3-48","kouzui":"○","gake":"○","takashio":"×","jishin":"○","tsunami":"×","kaji":"○","naisui":"○","kazan":"×"}}
,{"type":"Feature","geometry":{"type":"Point","coordinates":[135.711,34.358]},"properties":{"Name":"五條東中学校","Jusho":"奈良県五條市今井5-7-12","kouzui":"○","gake":"○","takashio":"×","jishin":"○","tsunami":"×","kaji":"○","naisui":"○","kazan":"×"}}
,{"type":"Feature","geometry":{"type":"Point","coordinates":[135.702,34.372]},"properties":{"Name":"奈良カントリークラブ","Jusho":"奈良県五條市今井町1141","kouzui":"○","gake":"○","takashio":"×","jishin":"○","tsunami":"×","kaji":"○","naisui":"○","kazan":"×"}}
,{"type":"Feature","geometry":{"type":"Point","coordinates":[135.71,34.362]},"properties":{"Name":"五條東小学校","Jusho":"奈良県五條市今井町1153","kouzui":"○","gake":"×","takashio":"×","jishin":"○","tsunami":"×","kaji":"○","naisui":"○","kazan":"×"}}
,{"type":"Feature","geometry":{"type":"Point","coordinates":[135.729,34.382]},"properties":{"Name":"阿田峯公園","Jusho":"奈良県五條市三在町1680","kouzui":"○","gake":"○","takashio":"×","jishin":"○","tsunami":"×","kaji":"○","naisui":"○","kazan":"×"}}
,{"type":"Feature","geometry":{"type":"Point","coordinates":[135.749,34.368]},"properties":{"Name":"阿太ミニ体育館","Jusho":"奈良県五條市山田町2","kouzui":"×","gake":"○","takashio":"×","jishin":"○","tsunami":"×","kaji":"○","naisui":"○","kazan":"×"}}
,{"type":"Feature","geometry":{"type":"Point","coordinates":[135.672,34.336]},"properties":{"Name":"上野公園","Jusho":"奈良県五條市上野町246","kouzui":"×","gake":"○","takashio":"×","jishin":"○","tsunami":"×","kaji":"○","naisui":"○","kazan":"×"}}
,{"type":"Feature","geometry":{"type":"Point","coordinates":[135.7,34.356]},"properties":{"Name":"五条駅前臨時駐車場","Jusho":"奈良県五條市須恵3-240-1","kouzui":"○","gake":"○","takashio":"×","jishin":"○","tsunami":"×","kaji":"○","naisui":"○","kazan":"×"}}
,{"type":"Feature","geometry":{"type":"Point","coordinates":[135.699,34.354]},"properties":{"Name":"須恵公民館","Jusho":"奈良県五條市須恵3-4-44","kouzui":"×","gake":"○","takashio":"×","jishin":"○","tsunami":"×","kaji":"○","naisui":"○","kazan":"×"}}
,{"type":"Feature","geometry":{"type":"Point","coordinates":[135.724,34.305]},"properties":{"Name":"西吉野農業高等学校","Jusho":"奈良県五條市西吉野町江出174-1","kouzui":"○","gake":"○","takashio":"×","jishin":"○","tsunami":"×","kaji":"○","naisui":"○","kazan":"×"}}
,{"type":"Feature","geometry":{"type":"Point","coordinates":[135.749,34.264]},"properties":{"Name":"旧西吉野小学校","Jusho":"奈良県五條市西吉野町宗川野77-1","kouzui":"○","gake":"×","takashio":"×","jishin":"○","tsunami":"×","kaji":"○","naisui":"○","kazan":"×"}}
,{"type":"Feature","geometry":{"type":"Point","coordinates":[135.749,34.281]},