var saga={"type":"FeatureCollection","name":"saga","features":[
{"type":"Feature","geometry":{"type":"Point","coordinates":[130.298,33.256]},"properties":{"Name":"勧興公民館","Jusho":"佐賀県佐賀市成章町3-18","kouzui":"○","gake":"×","takashio":"×","jishin":"○","tsunami":"×","kaji":"×","naisui":"○","kazan":"×"}}
,{"type":"Feature","geometry":{"type":"Point","coordinates":[130.297,33.257]},"properties":{"Name":"勧興小学校","Jusho":"佐賀県佐賀市成章町3-16","kouzui":"○","gake":"×","takashio":"×","jishin":"○","tsunami":"×","kaji":"×","naisui":"○","kazan":"×"}}
,{"type":"Feature","geometry":{"type":"Point","coordinates":[130.295,33.257]},"properties":{"Name":"成章中学校","Jusho":"佐賀県佐賀市成章町7-1","kouzui":"○","gake":"×","takashio":"○","jishin":"○","tsunami":"×","kaji":"×","naisui":"○","kazan":"×"}}
,{"type":"Feature","geometry":{"type":"Point","coordinates":[130.311,33.255]},"properties":{"Name":"循誘公民館","Jusho":"佐賀県佐賀市東佐賀町12-2","kouzui":"○","gake":"×","takashio":"×","jishin":"○","tsunami":"○","kaji":"×","naisui":"○","kazan":"×"}}
,{"type":"Feature","geometry":{"type":"Point","coordinates":[130.308,33.257]},"properties":{"Name":"循誘小学校","Jusho":"佐賀県佐賀市高木町15-30","kouzui":"○","gake":"×","takashio":"×","jishin":"○","tsunami":"○","kaji":"×","naisui":"○","kazan":"×"}}
,{"type":"Feature","geometry":{"type":"Point","coordinates":[130.285,33.249]},"properties":{"Name":"日新公民館","Jusho":"佐賀県佐賀市長瀬町1-20","kouzui":"○","gake":"×","takashio":"○","jishin":"○","tsunami":"×","kaji":"×","naisui":"○","kazan":"×"}}
,{"type":"Feature","geometry":{"type":"Point","coordinates":[130.283,33.252]},"properties":{"Name":"日新小学校","Jusho":"佐賀県佐賀市長瀬9-15","kouzui":"○","gake":"×","takashio":"○","jishin":"○","tsunami":"×","kaji":"×","naisui":"○","kazan":"×"}}
,{"type":"Feature","geometry":{"type":"Point","coordinates":[130.28,33.249]},"properties":{"Name":"昭栄中学校","Jusho":"佐賀県佐賀市昭栄町1-7","kouzui":"○","gake":"×","takashio":"○","jishin":"○","tsunami":"○","kaji":"×","naisui":"○","kazan":"×"}}
,{"type":"Feature","geometry":{"type":"Point","coordinates":[130.304,33.242]},"properties":{"Name":"赤松公民館","Jusho":"佐賀県佐賀市中の館町4-10","kouzui":"○","gake":"×","takashio":"○","jishin":"○","tsunami":"×","kaji":"×","naisui":"○","kazan":"×"}}
,{"type":"Feature","geometry":{"type":"Point","coordinates":[130.303,33.243]},"properties":{"Name":"赤松小学校","Jusho":"佐賀県佐賀市中の館町1-39","kouzui":"○","gake":"×","takashio":"○","jishin":"○","tsunami":"×","kaji":"×","naisui":"○","kazan":"×"}}
,{"type":"Feature","geometry":{"type":"Point","coordinates":[130.298,33.247]},"properties":{"Name":"佐賀西高等学校","Jusho":"佐賀県佐賀市城内1-4-25","kouzui":"○","gake":"×","takashio":"○","jishin":"○","tsunami":"×","kaji":"×","naisui":"○","kazan":"×"}}
,{"type":"Feature","geometry":{"type":"Point","coordinates":[130.29,33.263]},"properties":{"Name":"神野公民館","Jusho":"佐賀県佐賀市神野西1-4-10","kouzui":"○","gake":"×","takashio":"×","jishin":"○","tsunami":"×","kaji":"×","naisui":"○","kazan":"×"}}
,{"type":"Feature","geometry":{"type":"Point","coordinates":[130.292,33.265]},"properties":{"Name":"神野小学校","Jusho":"佐賀県佐賀市神野西2-4-8","kouzui":"○","gake":"×","takashio":"×","jishin":"○","tsunami":"×","kaji":"×","naisui":"○","kazan":"×"}}
,{"type":"Feature","geometry":{"type":"Point","coordinates":[130.297,33.271]},"properties":{"Name":"佐賀商業高等学校","Jusho":"佐賀県佐賀市神野東4-12-40","kouzui":"○","gake":"×","takashio":"×","jishin":"○","tsunami":"×","kaji":"×","naisui":"○","kazan":"×"}}
,{"type":"Feature","geometry":{"type":"Point","coordinates":[130.274,33.23]},"properties":{"Name":"西与賀公民館","Jusho":"佐賀県佐賀市西与賀町厘外1405","kouzui":"○","gake":"×","takashio":"○","jishin":"○","tsunami":"○","kaji":"×","naisui":"○","kazan":"×"}}
,{"type":"Feature","geometry":{"type":"Point","coordinates":[130.274,33.229]},"properties":{"Name":"西与賀小学校","Jusho":"佐賀県佐賀市西与賀町厘外1437","kouzui":"○","gake":"×","takashio":"○","jishin":"○","tsunami":"○","kaji":"×","naisui":"○","kazan":"×"}}
,{"type":"Feature","geometry":{"type":"Point","coordinates":[130.259,33.241]},"properties":{"Name":"嘉瀬公民館","Jusho":"佐賀県佐賀市嘉瀬町中原1690","kouzui":"○","gake":"×","takashio":"○","jishin":"○","tsunami":"×","kaji":"×","naisui":"○","kazan":"×"}}
,{"type":"Feature","geometry":{"type":"Point","coordinates":[130.258,33.241]},"properties":{"Name":"嘉瀬小学校","Jusho":"佐賀県佐賀市嘉瀬町十五12-1","kouzui":"○","gake":"×","takashio":"○","jishin":"○","tsunami":"×","kaji":"×","naisui":"○","kazan":"×"}}
,{"type":"Feature","geometry":{"type":"Point","coordinates":[130.329,33.255]},"properties":{"Name":"巨勢公民館","Jusho":"佐賀県佐賀市巨勢町高尾104-17","kouzui":"○","gake":"×","takashio":"○","jishin":"○","tsunami":"○","kaji":"×","naisui":"○","kazan":"×"}}
,{"type":"Feature","geometry":{"type":"Point","coordinates":[130.328,33.257]},"properties":{"Name":"巨勢小学校","Jusho":"佐賀県佐賀市巨勢町高尾108","kouzui":"○","gake":"×","takashio":"○","jishin":"○","tsunami":"○","kaji":"×","naisui":"○","kazan":"×"}}
,{"type":"Feature","geometry":{"type":"Point","coordinates":[130.317,33.258]},"properties":{"Name":"城東中学校","Jusho":"佐賀県佐賀市巨勢町牛島242","kouzui":"○","gake":"×","takashio":"○","jishin":"○","tsunami":"○","kaji":"×","naisui":"○","kazan":"×"}}
,{"type":"Feature","geometry":{"type":"Point","coordinates":[130.324,33.273]},"properties":{"Name":"兵庫公民館","Jusho":"佐賀県佐賀市兵庫町渕1295","kouzui":"○","gake":"×","takashio":"×","jishin":"○","tsunami":"×","kaji":"×","naisui":"○","kazan":"×"}}
,{"type":"Feature","geometry":{"type":"Point","coordinates":[130.322,33.273]},"properties":{"Name":"兵庫小学校","Jusho":"佐賀県佐賀市兵庫町渕1295","kouzui":"○","gake":"×","takashio":"×","jishin":"○","tsunami":"×","kaji":"×","naisui":"○","kazan":"×"}}
,{"type":"Feature","geometry":{"type":"Point","coordinates":[130.302,33.273]},"properties":{"Name":"致遠館高等学校","Jusho":"佐賀県佐賀市兵庫町藤木1092-1","kouzui":"○","gake":"×","takashio":"×","jishin":"○","tsunami":"×","kaji":"×","naisui":"○","kazan":"×"}}
,{"type":"Feature","geometry":{"type":"Point","coordinates":[130.29,33.287]},"properties":{"Name":"高木瀬公民館","Jusho":"佐賀県佐賀市高木瀬東5-1-12","kouzui":"○","gake":"×","takashio":"×","jishin":"○","tsunami":"×","kaji":"×","naisui":"○","kazan":"×"}}
,{"type":"Feature","geometry":{"type":"Point","coordinates":[130.292,33.286]},"properties":{"Name":"高木瀬小学校","Jusho":"佐賀県佐賀市高木瀬東5-6-12","kouzui":"○","gake":"×","takashio":"×","jishin":"○","tsunami":"×","kaji":"×","naisui":"○","kazan":"×"}}
,{"type":"Feature","geometry":{"type":"Point","coordinates":[130.295,33.277]},"properties":{"Name":"佐賀市文化会館","Jusho":"佐賀県佐賀市日の出1-21-10","kouzui":"○","gake":"×","takashio":"×","jishin":"○","tsunami":"×","kaji":"×","naisui":"○","kazan":"×"}}
,{"type":"Feature","geometry":{"type":"Point","coordinates":[130.323,33.239]},"properties":{"Name":"北川副公民館","Jusho":"佐賀県佐賀市木原3-12-8","kouzui":"○","gake":"×","takashio":"○","jishin":"○","tsunami":"○","kaji":"×","naisui":"○","kazan":"×"}}
,{"type":"Feature","geometry":{"type":"Point","coordinates":[130.323,33.241]},"properties":{"Name":"北川副小学校","Jusho":"佐賀県佐賀市木原3-12-1","kouzui":"○","gake":"×","takashio":"○","jishin":"○","tsunami":"○","kaji":"×","naisui":"○","kazan":"×"}}
,{"type":"Feature","geometry":{"type":"Point","coordinates":[130.316,33.239]},"properties":{"Name":"城南中学校","Jusho":"佐賀県佐賀市南佐賀1-20-1","kouzui":"○","gake":"×","takashio":"○","jishin":"○","tsunami":"○","kaji":"×","naisui":"○","kazan":"×"}}
,{"type":"Feature","geometry":{"type":"Point","coordinates":[130.321,33.236]},"properties":{"Name":"佐賀東高等学校","Jusho":"佐賀県佐賀市南佐賀3-11-15","kouzui":"○","gake":"×","takashio":"○","jishin":"○","tsunami":"○","kaji":"×","naisui":"○","kazan":"×"}}
,{"type":"Feature","geometry":{"type":"Point","coordinates":[130.293,33.233]},"properties":{"Name":"本庄公民館","Jusho":"佐賀県佐賀市本庄町本庄279-8","kouzui":"○","gake":"×","takashio":"○","jishin":"○","tsunami":"○","kaji":"×","naisui":"○","kazan":"×"}}
,{"type":"Feature","geometry":{"type":"Point","coordinates":[130.294,33.235]},"properties":{"Name":"本庄小学校","Jusho":"佐賀県佐賀市本庄町本庄131-1","kouzui":"○","gake":"×","takashio":"○","jishin":"○","tsunami":"○","kaji":"×","naisui":"○","kazan":"×"}}
,{"type":"Feature","geometry":{"type":"Point","coordinates":[130.285,33.236]},"properties":{"Name":"城西中学校","Jusho":"佐賀県佐賀市本庄町本庄1021-1","kouzui":"○","gake":"×","takashio":"○","jishin":"○","tsunami":"○","kaji":"×","naisui":"○","kazan":"×"}}
,{"type":"Feature","geometry":{"type":"Point","coordinates":[130.27,33.275]},"properties":{"Name":"鍋島公民館","Jusho":"佐賀県佐賀市鍋島1-1-1","kouzui":"○","gake":"×","takashio":"×","jishin":"○","tsunami":"×","kaji":"×","naisui":"○","kazan":"×"}}
,{"type":"Feature","geometry":{"type":"Point","coordinates":[130.27,33.274]},"properties":{"Name":"鍋島小学校","Jusho":"佐賀県佐賀市鍋島1-1-2","kouzui":"○","gake":"×","takashio":"×","jishin":"○","tsunami":"×","kaji":"×","naisui":"○","kazan":"×"}}
,{"type":"Feature","geometry":{"type":"Point","coordinates":[130.264,33.276]},"properties":{"Name":"鍋島中学校","Jusho":"佐賀県佐賀市鍋島1-19-1","kouzui":"○","gake":"×","takashio":"×","jishin":"○","tsunami":"×","kaji":"×","naisui":"○","kazan":"×"}}
,{"type":"Feature","geometry":{"type":"Point","coordinates":[130.303,33.307]},"properties":{"Name":"金立公民館","Jusho":"佐賀県佐賀市金立町千布2333-2","kouzui":"○","gake":"○","takashio":"×","jishin":"○","tsunami":"×","kaji":"×","naisui":"○","kazan":"×"}}
,{"type":"Feature","geometry":{"type":"Point","coordinates":[130.303,33.309]},"properties":{"Name":"金立小学校","Jusho":"佐賀県佐賀市金立町千布2144-1","kouzui":"○","gake":"○","takashio":"×","jishin":"○","tsunami":"×","kaji":"×","naisui":"○","kazan":"×"}}
,{"type":"Feature","geometry":{"type":"Point","coordinates":[130.306,33.294]},"properties":{"Name":"佐賀導水操作室","Jusho":"佐賀県佐賀市金立町千布　地先","kouzui":"○","gake":"○","takashio":"×","jishin":"○","tsunami":"×","kaji":"×","naisui":"○","kazan":"×"}}
,{"type":"Feature","geometry":{"type":"Point","coordinates":[130.325,33.319]},"properties":{"Name":"久保泉公民館","Jusho":"佐賀県佐賀市久保泉町川久保1363-1","kouzui":"○","gake":"○","takashio":"×","jishin":"×","tsunami":"×","kaji":"×","naisui":"○","kazan":"×"}}
,{"type":"Feature","geometry":{"type":"Point","coordinates":[130.325,33.32]},"properties":{"Name":"久保泉小学校","Jusho":"佐賀県佐賀市久保泉町川久保1357-1","kouzui":"○","gake":"○","takashio":"×","jishin":"○","tsunami":"×","kaji":"×","naisui":"○","kazan":"×"}}
,{"type":"Feature","geometry":{"type":"Point","coordinates":[130.315,33.308]},"properties":{"Name":"金泉中学校","Jusho":"佐賀県佐賀市久保泉町上和泉2361-1","kouzui":"○","gake":"○","takashio":"×","jishin":"○","tsunami":"×","kaji":"×","naisui":"○","kazan":"×"}}
,{"type":"Feature","geometry":{"type":"Point","coordinates":[130.36,33.246]},"properties":{"Name":"蓮池公民館","Jusho":"佐賀県佐賀市蓮池町蓮池6-49","kouzui":"×","gake":"×","takashio":"○","jishin":"○","tsunami":"○","kaji":"×","naisui":"×","kazan":"×"}}
,{"type":"Feature","geometry":{"type":"Point","coordinates":[130.365,33.25]},"properties":{"Name":"小中一貫校芙蓉校","Jusho":"佐賀県佐賀市蓮池町小松1000","kouzui":"○","gake":"×","takashio":"○","jishin":"○","tsunami":"○","kaji":"×","naisui":"○","kazan":"×"}}
,{"type":"Feature","geometry":{"type":"Point","coordinates":[130.277,33.253]},"properties":{"Name":"新栄公民館","Jusho":"佐賀県佐賀市八戸1285-3","kouzui":"○","gake":"×","takashio":"○","jishin":"○","tsunami":"○","kaji":"×","naisui":"○","kazan":"×"}}
,{"type":"Feature","geometry":{"type":"Point","coordinates":[130.275,33.256]},"properties":{"Name":"新栄小学校","Jusho":"佐賀県佐賀市新栄東2-6-34","kouzui":"○","gake":"×","takashio":"○","jishin":"○","tsunami":"○","kaji":"×","naisui":"○","kazan":"×"}}
,{"type":"Feature","geometry":{"type":"Point","coordinates":[130.279,33.258]},"properties":{"Name":"佐賀北高等学校","Jusho":"佐賀県佐賀市天祐2-6-1","kouzui":"○","gake":"×","takashio":"○","jishin":"○","tsunami":"○","kaji":"×","naisui":"○","kazan":"×"}}
,{"type":"Feature","geometry":{"type":"Point","coordinates":[130.285,33.258]},"properties":{"Name":"佐賀工業高等学校","Jusho":"佐賀県佐賀市緑小路1-1","kouzui":"○","gake":"×","takashio":"○","jishin":"○","tsunami":"×","kaji":"×","naisui":"○","kazan":"×"}}
,{"type":"Feature","geometry":{"type":"Point","coordinates":[130.287,33.277]},"properties":{"Name":"若楠公民館","Jusho":"佐賀県佐賀市若楠2-13-1","kouzui":"○","gake":"×","takashio":"×","jishin":"○","tsunami":"×","kaji":"×","naisui":"○","kazan":"×"}}
,{"type":"Feature","geometry":{"type":"Point","coordinates":[130.287,33.276]},"properties":{"Name":"若楠小学校","Jusho":"佐賀県佐賀市若宮3-2-1","kouzui":"○","gake":"×","takashio":"×","jishin":"○","tsunami":"×","kaji":"×","naisui":"○","kazan":"×"}}
,{"type":"Feature","geometry":{"type":"Point","coordinates":[130.285,33.282]},"properties":{"Name":"城北中学校","Jusho":"佐賀県佐賀市高木瀬西3-1-50","kouzui":"○","gake":"×","takashio":"×","jishin":"○","tsunami":"×","kaji":"×","naisui":"○","kazan":"×"}}
,{"type":"Feature","geometry":{"type":"Point","coordinates":[130.271,33.268]},"properties":{"Name":"開成公民館","Jusho":"佐賀県佐賀市鍋島町森田27-4","kouzui":"○","gake":"×","takashio":"×","jishin":"○","tsunami":"○","kaji":"×","naisui":"○","kazan":"×"}}
,{"type":"Feature","geometry":{"type":"Point","coordinates":[130.27,33.27]},"properties":{"Name":"開成小学校","Jusho":"佐賀県佐賀市鍋島町森田35-1","kouzui":"○","gake":"×","takashio":"×","jishin":"○","tsunami":"○","kaji":"×","naisui":"○","kazan":"×"}}
,{"type":"Feature","geometry":{"type":"Point","coordinates":[130.356,33.235]},"properties":{"Name":"諸富北小学校","Jusho":"佐賀県佐賀市諸富町大堂990","kouzui":"○","gake":"×","takashio":"○","jishin":"○","tsunami":"○","kaji":"×","naisui":"○","kazan":"×"}}
,{"type":"Feature","geometry":{"type":"Point","coordinates":[130.355,33.224]},"properties":{"Name":"諸富中学校","Jusho":"佐賀県佐賀市諸富町徳富2058-3","kouzui":"○","gake":"×","takashio":"○","jishin":"○","tsunami":"○","kaji":"×","naisui":"○","kazan":"×"}}
,{"type":"Feature","geometry":{"type":"Point","coordinates":[130.355,33.222]},"properties":{"Name":"諸富文化体育館","Jusho":"佐賀県佐賀市諸富町諸富津52","kouzui":"○","gake":"×","takashio":"○","jishin":"○","tsunami":"○","kaji":"×","naisui":"○","kazan":"×"}}
,{"type":"Feature","geometry":{"type":"Point","coordinates":[130.353,33.224]},"properties":{"Name":"諸富町公民館","Jusho":"佐賀県佐賀市諸富町諸富津7","kouzui":"○","gake":"×","takashio":"○","jishin":"○","tsunami":"○","kaji":"×","naisui":"○","kazan":"×"}}
,{"type":"Feature","geometry":{"type":"Point","coordinates":[130.345,33.219]},"properties":{"Name":"諸富南小学校","Jusho":"佐賀県佐賀市諸富町為重920-1","kouzui":"○","gake":"×","takashio":"○","jishin":"○","tsunami":"○","kaji":"×","naisui":"○","kazan":"×"}}
,{"type":"Feature","geometry":{"type":"Point","coordinates":[130.354,33.222]},"properties":{"Name":"佐賀市産業振興会館","Jusho":"佐賀県佐賀市諸富町為重529-5","kouzui":"○","gake":"×","takashio":"○","jishin":"○","tsunami":"○","kaji":"×","naisui":"○","kazan":"×"}}
,{"type":"Feature","geometry":{"type":"Point","coordinates":[130.277,33.311]},"properties":{"Name":"春日公民館","Jusho":"佐賀県佐賀市大和町尼寺1875","kouzui":"×","gake":"○","takashio":"×","jishin":"○","tsunami":"×","kaji":"×","naisui":"×","kazan":"×"}}
,{"type":"Feature","geometry":{"type":"Point","coordinates":[130.283,33.312]},"properties":{"Name":"春日小学校","Jusho":"佐賀県佐賀市大和町尼寺1439","kouzui":"○","gake":"○","takashio":"×","jishin":"○","tsunami":"×","kaji":"×","naisui":"○","kazan":"×"}}
,{"type":"Feature","geometry":{"type":"Point","coordinates":[130.278,33.314]},"properties":{"Name":"高志館高等学校","Jusho":"佐賀県佐賀市大和町尼寺1698","kouzui":"○","gake":"○","takashio":"×","jishin":"○","tsunami":"×","kaji":"×","naisui":"○","kazan":"×"}}
,{"type":"Feature","geometry":{"type":"Point","coordinates":[130.274,33.303]},"properties":{"Name":"さが水ものがたり館","Jusho":"佐賀県佐賀市大和町尼寺　石井樋公園内","kouzui":"○","gake":"○","takashio":"×","jishin":"○","tsunami":"×","kaji":"×","naisui":"○","kazan":"×"}}
,{"type":"Feature","geometry":{"type":"Point","coordinates":[130.287,33.321]},"properties":{"Name":"春日北公民館","Jusho":"佐賀県佐賀市大和町久池井1756-1","kouzui":"○","gake":"○","takashio":"×","jishin":"○","tsunami":"×","kaji":"×","naisui":"○","kazan":"×"}}
,{"type":"Feature","geometry":{"type":"Point","coordinates":[130.286,33.32]},"properties":{"Name":"春日北小学校","Jusho":"佐賀県佐賀市大和町久池井1777-1","kouzui":"○","gake":"○","takashio":"×","jishin":"○","tsunami":"×","kaji":"×","naisui":"○","kazan":"×"}}
,{"type":"Feature","geometry":{"type":"Point","coordinates":[130.258,33.31]},"properties":{"Name":"川上公民館","Jusho":"佐賀県佐賀市大和町川上2480-2","kouzui":"○","gake":"○","takashio":"×","jishin":"○","tsunami":"×","kaji":"×","naisui":"○","kazan":"×"}}
,{"type":"Feature","geometry":{"type":"Point","coordinates":[130.254,33.305]},"properties":{"Name":"川上小学校","Jusho":"佐賀県佐賀市大和町東山田1807-1","kouzui":"○","gake":"○","takashio":"×","jishin":"○","tsunami":"×","kaji":"×","naisui":"○","kazan":"×"}}
,{"type":"Feature","geometry":{"type":"Point","coordinates":[130.268,33.31]},"properties":{"Name":"大和中学校","Jusho":"佐賀県佐賀市大和町東山田3554-1","kouzui":"×","gake":"○","takashio":"×","jishin":"○","tsunami":"×","kaji":"×","naisui":"×","kazan":"×"}}
,{"type":"Feature","geometry":{"type":"Point","coordinates":[130.258,33.31]},"properties":{"Name":"大和勤労者体育センター","Jusho":"佐賀県佐賀市大和町川上3294","kouzui":"○","gake":"○","takashio":"×","jishin":"○","tsunami":"×","kaji":"×","naisui":"○","kazan":"×"}}
,{"type":"Feature","geometry":{"type":"Point","coordinates":[130.256,33.365]},"properties":{"Name":"松梅公民館","Jusho":"佐賀県佐賀市大和町松瀬2530-1","kouzui":"○","gake":"○","takashio":"×","jishin":"○","tsunami":"×","kaji":"×","naisui":"○","kazan":"×"}}
,{"type":"Feature","geometry":{"type":"Point","coordinates":[130.261,33.366]},"properties":{"Name":"小中一貫校松梅校","Jusho":"佐賀県佐賀市大和町松瀬2090-1","kouzui":"○","gake":"○","takashio":"×","jishin":"○","tsunami":"×","kaji":"×","naisui":"○","kazan":"×"}}
,{"type":"Feature","geometry":{"type":"Point","coordinates":[130.203,33.432]},"properties":{"Name":"富士北部コミュニティセンター","Jusho":"佐賀県佐賀市富士町中原488-1","kouzui":"○","gake":"○","takashio":"×","jishin":"○","tsunami":"×","kaji":"×","naisui":"○","kazan":"×"}}
,{"type":"Feature","geometry":{"type":"Point","coordinates":[130.201,33.431]},"properties":{"Name":"小中一貫校北山校","Jusho":"佐賀県佐賀市富士町中原342-2","kouzui":"○","gake":"○","takashio":"×","jishin":"○","tsunami":"×","kaji":"×","naisui":"○","kazan":"×"}}
,{"type":"Feature","geometry":{"type":"Point","coordinates":[130.25,33.441]},"properties":{"Name":"北山東部小学校","Jusho":"佐賀県佐賀市富士町古場1514-2","kouzui":"○","gake":"○","takashio":"×","jishin":"○","tsunami":"×","kaji":"×","naisui":"○","kazan":"×"}}
,{"type":"Feature","geometry":{"type":"Point","coordinates":[130.206,33.374]},"properties":{"Name":"富士公民館","Jusho":"佐賀県佐賀市富士町古湯2624","kouzui":"○","gake":"○","takashio":"×","jishin":"○","tsunami":"×","kaji":"×","naisui":"○","kazan":"×"}}
,{"type":"Feature","geometry":{"type":"Point","coordinates":[130.251,33.36]},"properties":{"Name":"富士南部コミュニティセンター","Jusho":"佐賀県佐賀市富士町内野40-2","kouzui":"○","gake":"○","takashio":"×","jishin":"○","tsunami":"×","kaji":"×","naisui":"○","kazan":"×"}}
,{"type":"Feature","geometry":{"type":"Point","coordinates":[130.236,33.365]},"properties":{"Name":"小中一貫校富士校小学部","Jusho":"佐賀県佐賀市富士町小副川1339-3","kouzui":"○","gake":"○","takashio":"×","jishin":"○","tsunami":"×","kaji":"×","naisui":"○","kazan":"×"}}
,{"type":"Feature","geometry":{"type":"Point","coordinates":[130.208,33.375]},"properties":{"Name":"小中一貫校富士校中学部","Jusho":"佐賀県佐賀市富士町古湯898","kouzui":"○","gake":"○","takashio":"×","jishin":"○","tsunami":"×","kaji":"×","naisui":"○","kazan":"×"}}
,{"type":"Feature","geometry":{"type":"Point","coordinates":[130.279,33.432]},"properties":{"Name":"三瀬公民館","Jusho":"佐賀県佐賀市三瀬村三瀬2615","kouzui":"○","gake":"×","takashio":"×","jishin":"○","tsunami":"×","kaji":"×","naisui":"○","kazan":"×"}}
,{"type":"Feature","geometry":{"type":"Point","coordinates":[130.276,33.421]},"properties":{"Name":"三瀬保健センター","Jusho":"佐賀県佐賀市三瀬村藤原3882-6","kouzui":"○","gake":"○","takashio":"×","jishin":"○","tsunami":"×","kaji":"×","naisui":"○","kazan":"×"}}
,{"type":"Feature","geometry":{"type":"Point","coordinates":[130.276,33.433]},"properties":{"Name":"小中一貫校三瀬校","Jusho":"佐賀県佐賀市三瀬村三瀬2789","kouzui":"○","gake":"×","takashio":"×","jishin":"○","tsunami":"×","kaji":"×","naisui":"○","kazan":"×"}}
,{"type":"Feature","geometry":{"type":"Point","coordinates":[130.28,33.432]},"properties":{"Name":"三瀬勤労福祉センター","Jusho":"佐賀県佐賀市三瀬村三瀬2700-1","kouzui":"○","gake":"○","takashio":"×","jishin":"○","tsunami":"×","kaji":"×","naisui":"○","kazan":"×"}}
,{"type":"Feature","geometry":{"type":"Point","coordinates":[130.321,33.192]},"properties":{"Name":"南川副公民館","Jusho":"佐賀県佐賀市川副町鹿江422-1","kouzui":"○","gake":"×","takashio":"○","jishin":"○","tsunami":"×","kaji":"×","naisui":"○","kazan":"×"}}
,{"type":"Feature","geometry":{"type":"Point","coordinates":[130.321,33.193]},"properties":{"Name":"川副保健センター","Jusho":"佐賀県佐賀市川副町鹿江442","kouzui":"○","gake":"×","takashio":"○","jishin":"○","tsunami":"×","kaji":"×","naisui":"○","kazan":"×"}}
,{"type":"Feature","geometry":{"type":"Point","coordinates":[130.319,33.19]},"properties":{"Name":"南川副小学校","Jusho":"佐賀県佐賀市川副町鹿江674","kouzui":"○","gake":"×","takashio":"○","jishin":"○","tsunami":"×","kaji":"×","naisui":"○","kazan":"×"}}
,{"type":"Feature","geometry":{"type":"Point","coordinates":[130.319,33.195]},"properties":{"Name":"川副中学校","Jusho":"佐賀県佐賀市川副町鹿江710","kouzui":"○","gake":"×","takashio":"○","jishin":"○","tsunami":"×","kaji":"×","naisui":"○","kazan":"×"}}
,{"type":"Feature","geometry":{"type":"Point","coordinates":[130.318,33.192]},"properties":{"Name":"スポーツパーク川副武道館","Jusho":"佐賀県佐賀市川副町鹿江700","kouzui":"○","gake":"×","takashio":"○","jishin":"○","tsunami":"×","kaji":"×","naisui":"○","kazan":"×"}}
,{"type":"Feature","geometry":{"type":"Point","coordinates":[130.318,33.193]},"properties":{"Name":"スポーツパーク川副体育センター","Jusho":"佐賀県佐賀市川副町鹿江700","kouzui":"○","gake":"×","takashio":"○","jishin":"×","tsunami":"×","kaji":"×","naisui":"○","kazan":"×"}}
,{"type":"Feature","geometry":{"type":"Point","coordinates":[130.321,33.193]},"properties":{"Name":"川副児童館","Jusho":"佐賀県佐賀市川副町鹿江442","kouzui":"○","gake":"×","takashio":"○","jishin":"○","tsunami":"×","kaji":"×","naisui":"○","kazan":"×"}}
,{"type":"Feature","geometry":{"type":"Point","coordinates":[130.312,33.211]},"properties":{"Name":"西川副公民館","Jusho":"佐賀県佐賀市川副町西古賀260-1","kouzui":"○","gake":"×","takashio":"○","jishin":"×","tsunami":"×","kaji":"×","naisui":"○","kazan":"×"}}
,{"type":"Feature","geometry":{"type":"Point","coordinates":[130.312,33.207]},"properties":{"Name":"西川副小学校","Jusho":"佐賀県佐賀市川副町西古賀979","kouzui":"○","gake":"×","takashio":"○","jishin":"○","tsunami":"×","kaji":"×","naisui":"○","kazan":"×"}}
,{"type":"Feature","geometry":{"type":"Point","coordinates":[130.338,33.208]},"properties":{"Name":"中川副公民館","Jusho":"佐賀県佐賀市川副町早津江津398-2","kouzui":"○","gake":"×","takashio":"○","jishin":"×","tsunami":"×","kaji":"×","naisui":"○","kazan":"×"}}
,{"type":"Feature","geometry":{"type":"Point","coordinates":[130.333,33.21]},"properties":{"Name":"中川副小学校","Jusho":"佐賀県佐賀市川副町福富1316","kouzui":"○","gake":"×","takashio":"○","jishin":"○","tsunami":"×","kaji":"×","naisui":"○","kazan":"×"}}
,{"type":"Feature","geometry":{"type":"Point","coordinates":[130.343,33.179]},"properties":{"Name":"大詫間公民館","Jusho":"佐賀県佐賀市川副町大詫間560-1","kouzui":"○","gake":"×","takashio":"○","jishin":"×","tsunami":"×","kaji":"×","naisui":"○","kazan":"×"}}
,{"type":"Feature","geometry":{"type":"Point","coordinates":[130.343,33.179]},"properties":{"Name":"大詫間小学校","Jusho":"佐賀県佐賀市川副町大詫間496","kouzui":"○","gake":"×","takashio":"×","jishin":"○","tsunami":"×","kaji":"×","naisui":"○","kazan":"×"}}
,{"type":"Feature","geometry":{"type":"Point","coordinates":[130.289,33.208]},"properties":{"Name":"東与賀保健福祉センター","Jusho":"佐賀県佐賀市東与賀町下古賀1193","kouzui":"○","gake":"×","takashio":"○","jishin":"○","tsunami":"○","kaji":"×","naisui":"○","kazan":"×"}}
,{"type":"Feature","geometry":{"type":"Point","coordinates":[130.286,33.209]},"properties":{"Name":"東与賀小学校","Jusho":"佐賀県佐賀市東与賀町田中453","kouzui":"○","gake":"×","takashio":"○","jishin":"○","tsunami":"○","kaji":"×","naisui":"○","kazan":"×"}}
,{"type":"Feature","geometry":{"type":"Point","coordinates":[130.289,33.21]},"properties":{"Name":"東与賀中学校","Jusho":"佐賀県佐賀市東与賀町下古賀1127-1","kouzui":"○","gake":"×","takashio":"○","jishin":"○","tsunami":"○","kaji":"×","naisui":"○","kazan":"×"}}
,{"type":"Feature","geometry":{"type":"Point","coordinates":[130.286,33.21]},"properties":{"Name":"東与賀農村環境改善センター","Jusho":"佐賀県佐賀市東与賀町田中425","kouzui":"○","gake":"×","takashio":"○","jishin":"○","tsunami":"○","kaji":"×","naisui":"○","kazan":"×"}}
,{"type":"Feature","geometry":{"type":"Point","coordinates":[130.288,33.208]},"properties":{"Name":"東与賀文化ホール","Jusho":"佐賀県佐賀市東与賀町下古賀1228-3","kouzui":"○","gake":"×","takashio":"○","jishin":"○","tsunami":"○","kaji":"×","naisui":"○","kazan":"×"}}
,{"type":"Feature","geometry":{"type":"Point","coordinates":[130.237,33.233]},"properties":{"Name":"久保田保健センター","Jusho":"佐賀県佐賀市久保田町新田3323","kouzui":"○","gake":"×","takashio":"○","jishin":"○","tsunami":"○","kaji":"×","naisui":"○","kazan":"×"}}
,{"type":"Feature","geometry":{"type":"Point","coordinates":[130.238,33.234]},"properties":{"Name":"小中一貫校思斉館(小学校)","Jusho":"佐賀県佐賀市久保田町新田1207","kouzui":"○","gake":"×","takashio":"○","jishin":"○","tsunami":"○","kaji":"×","naisui":"○","kazan":"×"}}
,{"type":"Feature","geometry":{"type":"Point","coordinates":[130.237,33.234]},"properties":{"Name":"小中一貫校思斉館(中学校)","Jusho":"佐賀県佐賀市久保田町新田1217","kouzui":"○","gake":"×","takashio":"○","jishin":"○","tsunami":"○","kaji":"×","naisui":"○","kazan":"×"}}
,{"type":"Feature","geometry":{"type":"Point","coordinates":[130.237,33.233]},"properties":{"Name":"久保田農村環境改善センター","Jusho":"佐賀県佐賀市久保田町新田3323-3","kouzui":"○","gake":"×","takashio":"○","jishin":"○","tsunami":"○","kaji":"×","naisui":"○","kazan":"×"}}
,{"type":"Feature","geometry":{"type":"Point","coordinates":[130.237,33.232]},"properties":{"Name":"久保田老人福祉センター","Jusho":"佐賀県佐賀市久保田町新田3323","kouzui":"○","gake":"×","takashio":"○","jishin":"○","tsunami":"○","kaji":"×","naisui":"○","kazan":"×"}}
,{"type":"Feature","geometry":{"type":"Point","coordinates":[130.237,33.233]},"properties":{"Name":"久保田農村高齢者交流施設","Jusho":"佐賀県佐賀市久保田町新田3323","kouzui":"○","gake":"×","takashio":"○","jishin":"×","tsunami":"○","kaji":"×","naisui":"○","kazan":"×"}}
,{"type":"Feature","geometry":{"type":"Point","coordinates":[130.228,33.254]},"properties":{"Name":"王子マテリア体育館","Jusho":"佐賀県佐賀市久保田町久保田1","kouzui":"○","gake":"×","takashio":"○","jishin":"○","tsunami":"○","kaji":"×","naisui":"○","kazan":"×"}}
,{"type":"Feature","geometry":{"type":"Point","coordinates":[130.295,33.296]},"properties":{"Name":"佐賀市健康運動センター サッカー・ラグビー場","Jusho":"佐賀県佐賀市高木瀬町長瀬2553","kouzui":"○","gake":"○","takashio":"×","jishin":"○","tsunami":"○","kaji":"×","naisui":"○","kazan":"×"}}
,{"type":"Feature","geometry":{"type":"Point","coordinates":[130.51,33.368]},"properties":{"Name":"鳥栖小学校","Jusho":"佐賀県鳥栖市元町1162","kouzui":"○","gake":"×","takashio":"×","jishin":"○","tsunami":"×","kaji":"○","naisui":"×","kazan":"×"}}
,{"type":"Feature","geometry":{"type":"Point","coordinates":[130.51,33.379]},"properties":{"Name":"鳥栖北小学校","Jusho":"佐賀県鳥栖市本町3-1468-1","kouzui":"○","gake":"×","takashio":"×","jishin":"○","tsunami":"×","kaji":"○","naisui":"×","kazan":"×"}}
,{"type":"Feature","geometry":{"type":"Point","coordinates":[130.511,33.375]},"properties":{"Name":"鳥栖中学校","Jusho":"佐賀県鳥栖市本町2-104-1","kouzui":"○","gake":"×","takashio":"×","jishin":"○","tsunami":"×","kaji":"○","naisui":"×","kazan":"×"}}
,{"type":"Feature","geometry":{"type":"Point","coordinates":[130.521,33.391]},"properties":{"Name":"田代小学校","Jusho":"佐賀県鳥栖市田代上町301-1","kouzui":"○","gake":"○","takashio":"×","jishin":"○","tsunami":"×","kaji":"○","naisui":"×","kazan":"×"}}
,{"type":"Feature","geometry":{"type":"Point","coordinates":[130.517,33.386]},"properties":{"Name":"田代中学校","Jusho":"佐賀県鳥栖市田代外町651-1","kouzui":"○","gake":"○","takashio":"×","jishin":"○","tsunami":"×","kaji":"○","naisui":"×","kazan":"×"}}
,{"type":"Feature","geometry":{"type":"Point","coordinates":[130.517,33.407]},"properties":{"Name":"弥生が丘小学校","Jusho":"佐賀県鳥栖市弥生が丘4-329","kouzui":"○","gake":"○","takashio":"×","jishin":"○","tsunami":"×","kaji":"○","naisui":"×","kazan":"×"}}
,{"type":"Feature","geometry":{"type":"Point","coordinates":[130.502,33.384]},"properties":{"Name":"若葉小学校","Jusho":"佐賀県鳥栖市古賀町480-2","kouzui":"○","gake":"○","takashio":"×","jishin":"○","tsunami":"×","kaji":"○","naisui":"×","kazan":"×"}}
,{"type":"Feature","geometry":{"type":"Point","coordinates":[130.528,33.378]},"properties":{"Name":"基里小学校","Jusho":"佐賀県鳥栖市曽根崎町1521-1","kouzui":"○","gake":"○","takashio":"×","jishin":"○","tsunami":"×","kaji":"○","naisui":"×","kazan":"×"}}
,{"type":"Feature","geometry":{"type":"Point","coordinates":[130.534,33.378]},"properties":{"Name":"基里中学校","Jusho":"佐賀県鳥栖市原町672-1","kouzui":"○","gake":"○","takashio":"×","jishin":"○","tsunami":"×","kaji":"○","naisui":"×","kazan":"×"}}
,{"type":"Feature","geometry":{"type":"Point","coordinates":[130.482,33.376]},"properties":{"Name":"麓小学校","Jusho":"佐賀県鳥栖市山浦町2253-1","kouzui":"○","gake":"○","takashio":"×","jishin":"○","tsunami":"×","kaji":"○","naisui":"×","kazan":"×"}}
,{"type":"Feature","geometry":{"type":"Point","coordinates":[130.495,33.368]},"properties":{"Name":"鳥栖西中学校","Jusho":"佐賀県鳥栖市蔵上町77-1","kouzui":"○","gake":"○","takashio":"×","jishin":"○","tsunami":"×","kaji":"○","naisui":"×","kazan":"×"}}
,{"type":"Feature","geometry":{"type":"Point","coordinates":[130.489,33.351]},"properties":{"Name":"旭小学校","Jusho":"佐賀県鳥栖市村田町109-1","kouzui":"○","gake":"○","takashio":"×","jishin":"○","tsunami":"×","kaji":"○","naisui":"×","kazan":"×"}}
,{"type":"Feature","geometry":{"type":"Point","coordinates":[130.1,33.293]},"properties":{"Name":"中央公園","Jusho":"佐賀県多久市北多久町大字小侍286-24","kouzui":"○","gake":"○","takashio":"×","jishin":"○","tsunami":"×","kaji":"○","naisui":"○","kazan":"×"}}
,{"type":"Feature","geometry":{"type":"Point","coordinates":[130.11,33.286]},"properties":{"Name":"北部公園","Jusho":"佐賀県多久市北多久町大字小侍48","kouzui":"○","gake":"○","takashio":"×","jishin":"○","tsunami":"×","kaji":"○","naisui":"○","kazan":"×"}}
,{"type":"Feature","geometry":{"type":"Point","coordinates":[130.09,33.283]},"properties":{"Name":"みどりが丘公園","Jusho":"佐賀県多久市多久町7071-341","kouzui":"○","gake":"○","takashio":"×","jishin":"○","tsunami":"×","kaji":"○","naisui":"○","kazan":"×"}}
,{"type":"Feature","geometry":{"type":"Point","coordinates":[130.151,33.284]},"properties":{"Name":"東部校運動場","Jusho":"佐賀県多久市東多久町大字別府3182","kouzui":"○","gake":"○","takashio":"×","jishin":"○","tsunami":"×","kaji":"○","naisui":"○","kazan":"×"}}
,{"type":"Feature","geometry":{"type":"Point","coordinates":[130.116,33.282]},"properties":{"Name":"中央校運動場","Jusho":"佐賀県多久市南多久町大字下多久2286-13","kouzui":"○","gake":"○","takashio":"×","jishin":"○","tsunami":"×","kaji":"○","naisui":"○","kazan":"×"}}
,{"type":"Feature","geometry":{"type":"Point","coordinates":[130.108,33.287]},"properties":{"Name":"多久北部運動広場","Jusho":"佐賀県多久市北多久町大字小侍45-3","kouzui":"○","gake":"○","takashio":"×","jishin":"○","tsunami":"×","kaji":"○","naisui":"○","kazan":"×"}}
,{"type":"Feature","geometry":{"type":"Point","coordinates":[130.142,33.286]},"properties":{"Name":"東部ふれあい運動広場","Jusho":"佐賀県多久市東多久町大字別府5232-1","kouzui":"○","gake":"○","takashio":"×","jishin":"○","tsunami":"×","kaji":"○","naisui":"○","kazan":"×"}}
,{"type":"Feature","geometry":{"type":"Point","coordinates":[130.096,33.291]},"properties":{"Name":"緑が丘運動広場","Jusho":"佐賀県多久市北多久町大字小侍1100-1","kouzui":"○","gake":"○","takashio":"×","jishin":"○","tsunami":"×","kaji":"○","naisui":"○","kazan":"×"}}
,{"type":"Feature","geometry":{"type":"Point","coordinates":[130.09,33.26]},"properties":{"Name":"西渓校西運動場","Jusho":"佐賀県多久市多久町1789-4","kouzui":"○","gake":"○","takashio":"×","jishin":"○","tsunami":"×","kaji":"○","naisui":"○","kazan":"×"}}
,{"type":"Feature","geometry":{"type":"Point","coordinates":[130.058,33.263]},"properties":{"Name":"西多久多目的運動広場","Jusho":"佐賀県多久市西多久町大字板屋7775-3","kouzui":"○","gake":"○","takashio":"×","jishin":"○","tsunami":"×","kaji":"○","naisui":"○","kazan":"×"}}
,{"type":"Feature","geometry":{"type":"Point","coordinates":[130.096,33.292]},"properties":{"Name":"緑が丘社会体育館","Jusho":"佐賀県多久市北多久町大字小侍1100-1","kouzui":"○","gake":"○","takashio":"×","jishin":"○","tsunami":"×","kaji":"○","naisui":"○","kazan":"×"}}
,{"type":"Feature","geometry":{"type":"Point","coordinates":[130.108,33.287]},"properties":{"Name":"多久市児童センター","Jusho":"佐賀県多久市北多久町 大字小侍40-2","kouzui":"○","gake":"○","takashio":"×","jishin":"○","tsunami":"×","kaji":"○","naisui":"○","kazan":"×"}}
,{"type":"Feature","geometry":{"type":"Point","coordinates":[130.107,33.287]},"properties":{"Name":"北多久社会体育館","Jusho":"佐賀県多久市北多久町大字多久原7025-2","kouzui":"○","gake":"○","takashio":"×","jishin":"○","tsunami":"×","kaji":"○","naisui":"○","kazan":"×"}}
,{"type":"Feature","geometry":{"type":"Point","coordinates":[130.118,33.282]},"properties":{"Name":"中央校前期体育館","Jusho":"佐賀県多久市南多久町大字下多久2286-13","kouzui":"○","gake":"○","takashio":"×","jishin":"○","tsunami":"×","kaji":"○","naisui":"○","kazan":"×"}}
,{"type":"Feature","geometry":{"type":"Point","coordinates":[129.876,33.278]},"properties":{"Name":"伊万里公民館","Jusho":"佐賀県伊万里市松島町350-4","kouzui":"○","gake":"○","takashio":"○","jishin":"○","tsunami":"○","kaji":"○","naisui":"○","kazan":"○"}}
,{"type":"Feature","geometry":{"type":"Point","coordinates":[129.879,33.282]},"properties":{"Name":"伊万里小学校グラウンド","Jusho":"佐賀県伊万里市脇田町1419-1","kouzui":"○","gake":"○","takashio":"○","jishin":"○","tsunami":"○","kaji":"○","naisui":"○","kazan":"○"}}
,{"type":"Feature","geometry":{"type":"Point","coordinates":[129.875,33.285]},"properties":{"Name":"啓成中学校グラウンド","Jusho":"佐賀県伊万里市木須町131","kouzui":"○","gake":"○","takashio":"○","jishin":"○","tsunami":"○","kaji":"○","naisui":"○","kazan":"○"}}
,{"type":"Feature","geometry":{"type":"Point","coordinates":[129.877,33.279]},"properties":{"Name":"市民センターお祭り広場","Jusho":"佐賀県伊万里市松島町391-1","kouzui":"○","gake":"○","takashio":"○","jishin":"○","tsunami":"○","kaji":"○","naisui":"○","kazan":"○"}}
,{"type":"Feature","geometry":{"type":"Point","coordinates":[129.856,33.296]},"properties":{"Name":"牧島公民館","Jusho":"佐賀県伊万里市木須町5832-2","kouzui":"○","gake":"○","takashio":"○","jishin":"○","tsunami":"○","kaji":"○","naisui":"○","kazan":"○"}}
,{"type":"Feature","geometry":{"type":"Point","coordinates":[129.858,33.3]},"properties":{"Name":"牧島小学校グラウンド","Jusho":"佐賀県伊万里市瀬戸町216-1","kouzui":"○","gake":"○","takashio":"○","jishin":"○","tsunami":"○","kaji":"○","naisui":"○","kazan":"○"}}
,{"type":"Feature","geometry":{"type":"Point","coordinates":[129.887,33.275]},"properties":{"Name":"大坪公民館","Jusho":"佐賀県伊万里市大坪町甲2863-1","kouzui":"○","gake":"○","takashio":"○","jishin":"○","tsunami":"○","kaji":"○","naisui":"○","kazan":"○"}}
,{"type":"Feature","geometry":{"type":"Point","coordinates":[129.888,33.277]},"properties":{"Name":"大坪小学校グラウンド","Jusho":"佐賀県伊万里市大坪町甲2501-3","kouzui":"○","gake":"○","takashio":"○","jishin":"○","tsunami":"○","kaji":"○","naisui":"○","kazan":"○"}}
,{"type":"Feature","geometry":{"type":"Point","coordinates":[129.885,33.276]},"properties":{"Name":"伊万里中学校グラウンド","Jusho":"佐賀県伊万里市立花町4063-1","kouzui":"○","gake":"○","takashio":"○","jishin":"○","tsunami":"○","kaji":"○","naisui":"○","kazan":"○"}}
,{"type":"Feature","geometry":{"type":"Point","coordinates":[129.87,33.267]},"properties":{"Name":"国見台公園","Jusho":"佐賀県伊万里市二里町大里甲2153-1","kouzui":"○","gake":"○","takashio":"○","jishin":"○","tsunami":"○","kaji":"○","naisui":"○","kazan":"○"}}
,{"type":"Feature","geometry":{"type":"Point","coordinates":[129.883,33.258]},"properties":{"Name":"立花公民館","Jusho":"佐賀県伊万里市立花町1891-79","kouzui":"○","gake":"○","takashio":"○","jishin":"○","tsunami":"○","kaji":"○","naisui":"○","kazan":"○"}}
,{"type":"Feature","geometry":{"type":"Point","coordinates":[129.884,33.259]},"properties":{"Name":"立花小学校グラウンド","Jusho":"佐賀県伊万里市立花町1901-1","kouzui":"○","gake":"○","takashio":"○","jishin":"○","tsunami":"○","kaji":"○","naisui":"○","kazan":"○"}}
,{"type":"Feature","geometry":{"type":"Point","coordinates":[129.895,33.26]},"properties":{"Name":"大川内公民館","Jusho":"佐賀県伊万里市大川内町丙2410-1","kouzui":"○","gake":"○","takashio":"○","jishin":"○","tsunami":"○","kaji":"○","naisui":"○","kazan":"○"}}
,{"type":"Feature","geometry":{"type":"Point","coordinates":[129.902,33.258]},"properties":{"Name":"大川内小学校グラウンド","Jusho":"佐賀県伊万里市大川内町甲3280-1","kouzui":"○","gake":"○","takashio":"○","jishin":"○","tsunami":"○","kaji":"○","naisui":"○","kazan":"○"}}
,{"type":"Feature","geometry":{"type":"Point","coordinates":[129.853,33.331]},"properties":{"Name":"黒川公民館","Jusho":"佐賀県伊万里市黒川町塩屋504-1","kouzui":"○","gake":"○","takashio":"○","jishin":"○","tsunami":"○","kaji":"○","naisui":"○","kazan":"○"}}
,{"type":"Feature","geometry":{"type":"Point","coordinates":[129.901,33.339]},"properties":{"Name":"東黒川運動広場","Jusho":"佐賀県伊万里市黒川町畑川内2053-4","kouzui":"○","gake":"○","takashio":"○","jishin":"○","tsunami":"○","kaji":"○","naisui":"○","kazan":"○"}}
,{"type":"Feature","geometry":{"type":"Point","coordinates":[129.855,33.353]},"properties":{"Name":"青嶺中学校グラウンド","Jusho":"佐賀県伊万里市黒川町福田66","kouzui":"○","gake":"○","takashio":"○","jishin":"○","tsunami":"○","kaji":"○","naisui":"○","kazan":"○"}}
,{"type":"Feature","geometry":{"type":"Point","coordinates":[129.872,33.372]},"properties":{"Name":"波多津町コミュニティセンター","Jusho":"佐賀県伊万里市波多津町辻2989-5","kouzui":"○","gake":"○","takashio":"○","jishin":"○","tsunami":"○","kaji":"○","naisui":"○","kazan":"○"}}
,{"type":"Feature","geometry":{"type":"Point","coordinates":[129.892,33.38]},"properties":{"Name":"波多津小学校駐車場","Jusho":"佐賀県伊万里市波多津町筒井11","kouzui":"○","gake":"○","takashio":"○","jishin":"○","tsunami":"○","kaji":"○","naisui":"○","kazan":"○"}}
,{"type":"Feature","geometry":{"type":"Point","coordinates":[129.931,33.313]},"properties":{"Name":"南波多公民館","Jusho":"佐賀県伊万里市南波多町井手野2685-1","kouzui":"○","gake":"○","takashio":"○","jishin":"○","tsunami":"○","kaji":"○","naisui":"○","kazan":"○"}}
,{"type":"Feature","geometry":{"type":"Point","coordinates":[129.926,33.318]},"properties":{"Name":"南波多郷学館グラウンド","Jusho":"佐賀県伊万里市南波多町井手野3100","kouzui":"○","gake":"○","takashio":"○","jishin":"○","tsunami":"○","kaji":"○","naisui":"○","kazan":"○"}}
,{"type":"Feature","geometry":{"type":"Point","coordinates":[129.928,33.318]},"properties":{"Name":"旧南波多中学校グラウンド","Jusho":"佐賀県伊万里市南波多町井手野2900","kouzui":"○","gake":"○","takashio":"○","jishin":"○","tsunami":"○","kaji":"○","naisui":"○","kazan":"○"}}
,{"type":"Feature","geometry":{"type":"Point","coordinates":[129.973,33.305]},"properties":{"Name":"大川町コミュニティセンター","Jusho":"佐賀県伊万里市大川町大川野3340-1","kouzui":"○","gake":"○","takashio":"○","jishin":"○","tsunami":"○","kaji":"○","naisui":"○","kazan":"○"}}
,{"type":"Feature","geometry":{"type":"Point","coordinates":[129.971,33.303]},"properties":{"Name":"大川小学校グラウンド","Jusho":"佐賀県伊万里市大川町大川野2050-1","kouzui":"○","gake":"○","takashio":"○","jishin":"○","tsunami":"○","kaji":"○","naisui":"○","kazan":"○"}}
,{"type":"Feature","geometry":{"type":"Point","coordinates":[129.965,33.285]},"properties":{"Name":"東陵中学校グラウンド","Jusho":"佐賀県伊万里市松浦町提川200","kouzui":"○","gake":"○","takashio":"○","jishin":"○","tsunami":"○","kaji":"○","naisui":"○","kazan":"○"}}
,{"type":"Feature","geometry":{"type":"Point","coordinates":[129.973,33.304]},"properties":{"Name":"大川運動広場","Jusho":"佐賀県伊万里市大川町大川野3340-1","kouzui":"○","gake":"○","takashio":"○","jishin":"○","tsunami":"○","kaji":"○","naisui":"○","kazan":"○"}}
,{"type":"Feature","geometry":{"type":"Point","coordinates":[129.943,33.268]},"properties":{"Name":"松浦公民館","Jusho":"佐賀県伊万里市松浦町山形5490-2","kouzui":"○","gake":"○","takashio":"○","jishin":"○","tsunami":"○","kaji":"○","naisui":"○","kazan":"○"}}
,{"type":"Feature","geometry":{"type":"Point","coordinates":[129.948,33.268]},"properties":{"Name":"松浦小学校グラウンド","Jusho":"佐賀県伊万里市松浦町桃川4430-2","kouzui":"○","gake":"○","takashio":"○","jishin":"○","tsunami":"○","kaji":"○","naisui":"○","kazan":"○"}}
,{"type":"Feature","geometry":{"type":"Point","coordinates":[129.943,33.267]},"properties":{"Name":"松浦運動広場","Jusho":"佐賀県伊万里市松浦町山形5490","kouzui":"○","gake":"○","takashio":"○","jishin":"○","tsunami":"○","kaji":"○","naisui":"○","kazan":"○"}}
,{"type":"Feature","geometry":{"type":"Point","coordinates":[129.855,33.257]},"properties":{"Name":"二里公民館","Jusho":"佐賀県伊万里市二里町大里乙321-3","kouzui":"○","gake":"○","takashio":"○","jishin":"○","tsunami":"○","kaji":"○","naisui":"○","kazan":"○"}}
,{"type":"Feature","geometry":{"type":"Point","coordinates":[129.855,33.258]},"properties":{"Name":"二里小学校グラウンド","Jusho":"佐賀県伊万里市二里町大里乙284-1","kouzui":"○","gake":"○","takashio":"○","jishin":"○","tsunami":"○","kaji":"○","naisui":"○","kazan":"○"}}
,{"type":"Feature","geometry":{"type":"Point","coordinates":[129.851,33.267]},"properties":{"Name":"国見中学校グラウンド","Jusho":"佐賀県伊万里市東山代町長浜1750","kouzui":"○","gake":"○","takashio":"○","jishin":"○","tsunami":"○","kaji":"○","naisui":"○","kazan":"○"}}
,{"type":"Feature","geometry":{"type":"Point","coordinates":[129.836,33.285]},"properties":{"Name":"東山代公民館","Jusho":"佐賀県伊万里市東山代町里105","kouzui":"○","gake":"○","takashio":"○","jishin":"○","tsunami":"○","kaji":"○","naisui":"○","kazan":"○"}}
,{"type":"Feature","geometry":{"type":"Point","coordinates":[129.837,33.285]},"properties":{"Name":"東山代小学校グラウンド","Jusho":"佐賀県伊万里市東山代町里70-1","kouzui":"○","gake":"○","takashio":"○","jishin":"○","tsunami":"○","kaji":"○","naisui":"○","kazan":"○"}}
,{"type":"Feature","geometry":{"type":"Point","coordinates":[129.782,33.28]},"properties":{"Name":"滝野小中学校グラウンド","Jusho":"佐賀県伊万里市東山代町滝川内3149","kouzui":"○","gake":"○","takashio":"○","jishin":"○","tsunami":"○","kaji":"○","naisui":"○","kazan":"○"}}
,{"type":"Feature","geometry":{"type":"Point","coordinates":[129.81,33.311]},"properties":{"Name":"山代公民館","Jusho":"佐賀県伊万里市山代町久原2697-2","kouzui":"○","gake":"○","takashio":"○","jishin":"○","tsunami":"○","kaji":"○","naisui":"○","kazan":"○"}}
,{"type":"Feature","geometry":{"type":"Point","coordinates":[129.813,33.305]},"properties":{"Name":"山代東小学校グラウンド","Jusho":"佐賀県伊万里市山代町久原65","kouzui":"○","gake":"○","takashio":"○","jishin":"○","tsunami":"○","kaji":"○","naisui":"○","kazan":"○"}}
,{"type":"Feature","geometry":{"type":"Point","coordinates":[129.785,33.324]},"properties":{"Name":"山代西小学校グラウンド","Jusho":"佐賀県伊万里市山代町西分4475-1","kouzui":"○","gake":"○","takashio":"○","jishin":"○","tsunami":"○","kaji":"○","naisui":"○","kazan":"○"}}
,{"type":"Feature","geometry":{"type":"Point","coordinates":[129.808,33.315]},"properties":{"Name":"山代中学校グラウンド","Jusho":"佐賀県伊万里市山代町久原3080-1","kouzui":"○","gake":"○","takashio":"○","jishin":"○","tsunami":"○","kaji":"○","naisui":"○","kazan":"○"}}
,{"type":"Feature","geometry":{"type":"Point","coordinates":[129.793,33.334]},"properties":{"Name":"浦ノ崎運動広場","Jusho":"佐賀県伊万里市山代町立岩390-1","kouzui":"○","gake":"○","takashio":"○","jishin":"○","tsunami":"○","kaji":"○","naisui":"○","kazan":"○"}}
,{"type":"Feature","geometry":{"type":"Point","coordinates":[129.825,33.299]},"properties":{"Name":"伊万里湾大橋球技場グラウンド","Jusho":"佐賀県伊万里市山代町楠久津145-25","kouzui":"○","gake":"○","takashio":"○","jishin":"○","tsunami":"○","kaji":"○","naisui":"○","kazan":"○"}}
,{"type":"Feature","geometry":{"type":"Point","coordinates":[130.022,33.195]},"properties":{"Name":"武雄市役所","Jusho":"佐賀県武雄市武雄町大字昭和12-10","kouzui":"○","gake":"○","takashio":"×","jishin":"○","tsunami":"×","kaji":"○","naisui":"○","kazan":"×"}}
,{"type":"Feature","geometry":{"type":"Point","coordinates":[130.022,33.191]},"properties":{"Name":"武雄市文化会館","Jusho":"佐賀県武雄市武雄町大字武雄5538‐1","kouzui":"○","gake":"○","takashio":"×","jishin":"×","tsunami":"×","kaji":"○","naisui":"○","kazan":"×"}}
,{"type":"Feature","geometry":{"type":"Point","coordinates":[130.019,33.199]},"properties":{"Name":"武雄小学校","Jusho":"佐賀県武雄市武雄町大字富岡9159","kouzui":"○","gake":"○","takashio":"×","jishin":"○","tsunami":"×","kaji":"○","naisui":"○","kazan":"×"}}
,{"type":"Feature","geometry":{"type":"Point","coordinates":[130.027,33.187]},"properties":{"Name":"御船が丘小学校","Jusho":"佐賀県武雄市武雄町大字武雄4595","kouzui":"○","gake":"○","takashio":"×","jishin":"○","tsunami":"×","kaji":"○","naisui":"○","kazan":"×"}}
,{"type":"Feature","geometry":{"type":"Point","coordinates":[130.027,33.201]},"properties":{"Name":"武雄中学校","Jusho":"佐賀県武雄市武雄町大字富岡11606","kouzui":"○","gake":"○","takashio":"×","jishin":"○","tsunami":"×","kaji":"○","naisui":"○","kazan":"×"}}
,{"type":"Feature","geometry":{"type":"Point","coordinates":[130.025,33.2]},"properties":{"Name":"武雄市勤労者福祉会館","Jusho":"佐賀県武雄市武雄町大字富岡11690‐1","kouzui":"○","gake":"○","takashio":"×","jishin":"×","tsunami":"×","kaji":"○","naisui":"○","kazan":"×"}}
,{"type":"Feature","geometry":{"type":"Point","coordinates":[130.031,33.196]},"properties":{"Name":"国土交通省武雄河川事務所","Jusho":"佐賀県武雄市武雄町大字昭和745","kouzui":"○","gake":"○","takashio":"×","jishin":"○","tsunami":"×","kaji":"○","naisui":"○","kazan":"×"}}
,{"type":"Feature","geometry":{"type":"Point","coordinates":[130.054,33.18]},"properties":{"Name":"橘公民館","Jusho":"佐賀県武雄市橘町大字大日8507-7","kouzui":"○","gake":"○","takashio":"×","jishin":"○","tsunami":"×","kaji":"○","naisui":"○","kazan":"×"}}
,{"type":"Feature","geometry":{"type":"Point","coordinates":[130.055,33.182]},"properties":{"Name":"橘小学校","Jusho":"佐賀県武雄市橘町大字片白8718‐1","kouzui":"○","gake":"○","takashio":"×","jishin":"○","tsunami":"×","kaji":"○","naisui":"○","kazan":"×"}}
,{"type":"Feature","geometry":{"type":"Point","coordinates":[130.039,33.214]},"properties":{"Name":"朝日小学校","Jusho":"佐賀県武雄市朝日町大字甘久4354‐1","kouzui":"○","gake":"○","takashio":"×","jishin":"○","tsunami":"×","kaji":"○","naisui":"○","kazan":"×"}}
,{"type":"Feature","geometry":{"type":"Point","coordinates":[130.044,33.208]},"properties":{"Name":"国土交通省武雄河川事務所 朝日出張所","Jusho":"佐賀県武雄市朝日町大字甘久1521‐6","kouzui":"○","gake":"○","takashio":"×","jishin":"○","tsunami":"×","kaji":"○","naisui":"○","kazan":"×"}}
,{"type":"Feature","geometry":{"type":"Point","coordinates":[129.991,33.255]},"properties":{"Name":"若木公民館","Jusho":"佐賀県武雄市若木町大字川古7474","kouzui":"○","gake":"○","takashio":"×","jishin":"○","tsunami":"×","kaji":"○","naisui":"○","kazan":"×"}}
,{"type":"Feature","geometry":{"type":"Point","coordinates":[129.995,33.254]},"properties":{"Name":"若木小学校","Jusho":"佐賀県武雄市若木町大字川古8038","kouzui":"○","gake":"○","takashio":"×","jishin":"○","tsunami":"×","kaji":"○","naisui":"○","kazan":"×"}}
,{"type":"Feature","geometry":{"type":"Point","coordinates":[129.964,33.23]},"properties":{"Name":"武内公民館","Jusho":"佐賀県武雄市武内町大字真手野28044","kouzui":"○","gake":"○","takashio":"×","jishin":"○","tsunami":"×","kaji":"○","naisui":"○","kazan":"×"}}
,{"type":"Feature","geometry":{"type":"Point","coordinates":[129.962,33.226]},"properties":{"Name":"武内小学校","Jusho":"佐賀県武雄市武内町大字梅野乙15041‐2","kouzui":"○","gake":"○","takashio":"×","jishin":"○","tsunami":"×","kaji":"○","naisui":"○","kazan":"×"}}
,{"type":"Feature","geometry":{"type":"Point","coordinates":[129.976,33.242]},"properties":{"Name":"武雄北中学校","Jusho":"佐賀県武雄市武内町大字真手野25956‐3","kouzui":"○","gake":"○","takashio":"×","jishin":"○","tsunami":"×","kaji":"○","naisui":"○","kazan":"×"}}
,{"type":"Feature","geometry":{"type":"Point","coordinates":[130.002,33.162]},"properties":{"Name":"東川登公民館","Jusho":"佐賀県武雄市東川登町大字永野6240‐8","kouzui":"○","gake":"○","takashio":"×","jishin":"○","tsunami":"×","kaji":"○","naisui":"○","kazan":"×"}}
,{"type":"Feature","geometry":{"type":"Point","coordinates":[129.998,33.161]},"properties":{"Name":"東川登小学校","Jusho":"佐賀県武雄市東川登町大字永野5893","kouzui":"○","gake":"○","takashio":"×","jishin":"○","tsunami":"×","kaji":"○","naisui":"○","kazan":"×"}}
,{"type":"Feature","geometry":{"type":"Point","coordinates":[129.991,33.141]},"properties":{"Name":"川登中学校","Jusho":"佐賀県武雄市東川登町大字袴野16082","kouzui":"○","gake":"○","takashio":"×","jishin":"○","tsunami":"×","kaji":"○","naisui":"○","kazan":"×"}}
,{"type":"Feature","geometry":{"type":"Point","coordinates":[129.971,33.137]},"properties":{"Name":"西川登小学校","Jusho":"佐賀県武雄市西川登町大字神六20584","kouzui":"○","gake":"○","takashio":"×","jishin":"○","tsunami":"×","kaji":"○","naisui":"○","kazan":"×"}}
,{"type":"Feature","geometry":{"type":"Point","coordinates":[129.964,33.193]},"properties":{"Name":"山内東小学校","Jusho":"佐賀県武雄市山内町大字鳥海9602‐1","kouzui":"○","gake":"○","takashio":"×","jishin":"○","tsunami":"×","kaji":"○","naisui":"○","kazan":"×"}}
,{"type":"Feature","geometry":{"type":"Point","coordinates":[129.934,33.207]},"properties":{"Name":"山内西小学校","Jusho":"佐賀県武雄市山内町大字大野6900","kouzui":"○","gake":"○","takashio":"×","jishin":"○","tsunami":"×","kaji":"○","naisui":"○","kazan":"×"}}
,{"type":"Feature","geometry":{"type":"Point","coordinates":[129.941,33.195]},"properties":{"Name":"山内中学校","Jusho":"佐賀県武雄市山内町大字三間坂甲14209","kouzui":"○","gake":"○","takashio":"×","jishin":"○","tsunami":"×","kaji":"○","naisui":"○","kazan":"×"}}
,{"type":"Feature","geometry":{"type":"Point","coordinates":[129.947,33.197]},"properties":{"Name":"山内公民館（旧山内庁舎）","Jusho":"佐賀県武雄市山内町大字三間坂甲13800","kouzui":"○","gake":"○","takashio":"×","jishin":"○","tsunami":"×","kaji":"○","naisui":"○","kazan":"×"}}
,{"type":"Feature","geometry":{"type":"Point","coordinates":[129.947,33.196]},"properties":{"Name":"山内保健センター","Jusho":"佐賀県武雄市山内町大字三間坂甲13887","kouzui":"○","gake":"○","takashio":"×","jishin":"○","tsunami":"×","kaji":"○","naisui":"○","kazan":"×"}}
,{"type":"Feature","geometry":{"type":"Point","coordinates":[130.06,33.221]},"properties":{"Name":"北方公民館","Jusho":"佐賀県武雄市北方町大字大﨑2217","kouzui":"○","gake":"○","takashio":"×","jishin":"○","tsunami":"×","kaji":"○","naisui":"○","kazan":"×"}}
,{"type":"Feature","geometry":{"type":"Point","coordinates":[130.07,33.218]},"properties":{"Name":"北方小学校","Jusho":"佐賀県武雄市北方町大字志久1389","kouzui":"○","gake":"○","takashio":"×","jishin":"○","tsunami":"×","kaji":"○","naisui":"○","kazan":"×"}}
,{"type":"Feature","geometry":{"type":"Point","coordinates":[130.063,33.224]},"properties":{"Name":"北方中学校","Jusho":"佐賀県武雄市北方町大字志久2384‐2","kouzui":"○","gake":"○","takashio":"×","jishin":"○","tsunami":"×","kaji":"○","naisui":"○","kazan":"×"}}
,{"type":"Feature","geometry":{"type":"Point","coordinates":[130.069,33.22]},"properties":{"Name":"北方保健センター","Jusho":"佐賀県武雄市北方町大字志久1674‐2","kouzui":"○","gake":"○","takashio":"×","jishin":"○","tsunami":"×","kaji":"○","naisui":"○","kazan":"×"}}
,{"type":"Feature","geometry":{"type":"Point","coordinates":[130.088,33.205]},"properties":{"Name":"北方東体育館","Jusho":"佐賀県武雄市北方町大字大渡3656","kouzui":"○","gake":"○","takashio":"×","jishin":"○","tsunami":"×","kaji":"○","naisui":"○","kazan":"×"}}
,{"type":"Feature","geometry":{"type":"Point","coordinates":[130.095,33.107]},"properties":{"Name":"市民武道館","Jusho":"佐賀県鹿島市大字高津原561-1","kouzui":"○","gake":"○","takashio":"○","jishin":"○","tsunami":"○","kaji":"×","naisui":"×","kazan":"×"}}
,{"type":"Feature","geometry":{"type":"Point","coordinates":[130.092,33.102]},"properties":{"Name":"田澤記念館","Jusho":"佐賀県鹿島市大字高津原434","kouzui":"○","gake":"○","takashio":"○","jishin":"×","tsunami":"×","kaji":"×","naisui":"×","kazan":"×"}}
,{"type":"Feature","geometry":{"type":"Point","coordinates":[130.091,33.105]},"properties":{"Name":"六州荘","Jusho":"佐賀県鹿島市大字高津原1278","kouzui":"○","gake":"○","takashio":"○","jishin":"×","tsunami":"×","kaji":"×","naisui":"×","kazan":"×"}}
,{"type":"Feature","geometry":{"type":"Point","coordinates":[130.093,33.105]},"properties":{"Name":"鹿島高等学校 （赤門学舎）","Jusho":"佐賀県鹿島市大字高津原462","kouzui":"○","gake":"○","takashio":"○","jishin":"○","tsunami":"○","kaji":"×","naisui":"×","kazan":"×"}}
,{"type":"Feature","geometry":{"type":"Point","coordinates":[130.094,33.105]},"properties":{"Name":"鹿島高等学校 （大手門学舎）","Jusho":"佐賀県鹿島市大字高津原539","kouzui":"○","gake":"○","takashio":"○","jishin":"○","tsunami":"○","kaji":"×","naisui":"×","kazan":"×"}}
,{"type":"Feature","geometry":{"type":"Point","coordinates":[130.096,33.11]},"properties":{"Name":"市民交流プラザ","Jusho":"佐賀県鹿島市大字高津原4326-1","kouzui":"○","gake":"○","takashio":"○","jishin":"○","tsunami":"○","kaji":"○","naisui":"×","kazan":"×"}}
,{"type":"Feature","geometry":{"type":"Point","coordinates":[130.084,33.095]},"properties":{"Name":"市民球場","Jusho":"佐賀県鹿島市大字高津原 ","kouzui":"○","gake":"○","takashio":"○","jishin":"○","tsunami":"○","kaji":"×","naisui":"×","kazan":"×"}}
,{"type":"Feature","geometry":{"type":"Point","coordinates":[130.096,33.112]},"properties":{"Name":"鹿島商工会議所","Jusho":"佐賀県鹿島市大字高津原4296-41","kouzui":"○","gake":"○","takashio":"○","jishin":"×","tsunami":"×","kaji":"×","naisui":"×","kazan":"×"}}
,{"type":"Feature","geometry":{"type":"Point","coordinates":[130.096,33.102]},"properties":{"Name":"鹿島小学校","Jusho":"佐賀県鹿島市大字高津原231-イ","kouzui":"○","gake":"○","takashio":"○","jishin":"×","tsunami":"×","kaji":"×","naisui":"×","kazan":"×"}}
,{"type":"Feature","geometry":{"type":"Point","coordinates":[130.096,33.102]},"properties":{"Name":"市民体育館","Jusho":"佐賀県鹿島市大字高津原253","kouzui":"○","gake":"○","takashio":"○","jishin":"○","tsunami":"○","kaji":"×","naisui":"×","kazan":"×"}}
,{"type":"Feature","geometry":{"type":"Point","coordinates":[130.096,33.099]},"properties":{"Name":"西部中学校","Jusho":"佐賀県鹿島市大字納富分1435","kouzui":"○","gake":"○","takashio":"○","jishin":"○","tsunami":"○","kaji":"×","naisui":"×","kazan":"×"}}
,{"type":"Feature","geometry":{"type":"Point","coordinates":[130.099,33.104]},"properties":{"Name":"市民会館","Jusho":"佐賀県鹿島市大字納富分2643-1","kouzui":"○","gake":"○","takashio":"○","jishin":"○","tsunami":"○","kaji":"×","naisui":"×","kazan":"×"}}
,{"type":"Feature","geometry":{"type":"Point","coordinates":[130.099,33.105]},"properties":{"Name":"生涯学習センター","Jusho":"佐賀県鹿島市大字納富分2700-1","kouzui":"○","gake":"○","takashio":"○","jishin":"○","tsunami":"○","kaji":"○","naisui":"×","kazan":"×"}}
,{"type":"Feature","geometry":{"type":"Point","coordinates":[130.104,33.102]},"properties":{"Name":"ＪＡさが鹿島支所","Jusho":"佐賀県鹿島市大字納富分3192","kouzui":"○","gake":"○","takashio":"○","jishin":"×","tsunami":"×","kaji":"×","naisui":"×","kazan":"×"}}
,{"type":"Feature","geometry":{"type":"Point","coordinates":[130.104,33.098]},"properties":{"Name":"明倫小学校","Jusho":"佐賀県鹿島市大字納富分甲59","kouzui":"○","gake":"○","takashio":"○","jishin":"○","tsunami":"○","kaji":"×","naisui":"×","kazan":"×"}}
,{"type":"Feature","geometry":{"type":"Point","coordinates":[130.084,33.088]},"properties":{"Name":"のごみふれあい楽習館","Jusho":"佐賀県鹿島市大字山浦甲2151","kouzui":"○","gake":"○","takashio":"○","jishin":"○","tsunami":"○","kaji":"○","naisui":"×","kazan":"×"}}
,{"type":"Feature","geometry":{"type":"Point","coordinates":[130.082,33.088]},"properties":{"Name":"能古見小学校","Jusho":"佐賀県鹿島市大字山浦甲2246","kouzui":"○","gake":"○","takashio":"○","jishin":"○","tsunami":"○","kaji":"×","naisui":"×","kazan":"×"}}
,{"type":"Feature","geometry":{"type":"Point","coordinates":[130.092,33.093]},"properties":{"Name":"ＪＡさが能古見支所","Jusho":"佐賀県鹿島市大字山浦甲1568-2","kouzui":"○","gake":"○","takashio":"○","jishin":"×","tsunami":"×","kaji":"×","naisui":"×","kazan":"×"}}
,{"type":"Feature","geometry":{"type":"Point","coordinates":[130.11,33.083]},"properties":{"Name":"古枝小学校","Jusho":"佐賀県鹿島市古枝甲1248-2","kouzui":"○","gake":"○","takashio":"○","jishin":"○","tsunami":"○","kaji":"×","naisui":"×","kazan":"×"}}
,{"type":"Feature","geometry":{"type":"Point","coordinates":[130.109,33.081]},"properties":{"Name":"林業センター","Jusho":"佐賀県鹿島市古枝甲1448-1","kouzui":"○","gake":"○","takashio":"○","jishin":"○","tsunami":"○","kaji":"○","naisui":"×","kazan":"×"}}
,{"type":"Feature","geometry":{"type":"Point","coordinates":[130.109,33.08]},"properties":{"Name":"林業体育館","Jusho":"佐賀県鹿島市古枝甲1465-2","kouzui":"○","gake":"○","takashio":"○","jishin":"○","tsunami":"○","kaji":"×","naisui":"×","kazan":"×"}}
,{"type":"Feature","geometry":{"type":"Point","coordinates":[130.108,33.074]},"properties":{"Name":"祐徳稲荷神社参集殿","Jusho":"佐賀県鹿島市古枝乙1855","kouzui":"○","gake":"○","takashio":"○","jishin":"×","tsunami":"×","kaji":"×","naisui":"×","kazan":"×"}}
,{"type":"Feature","geometry":{"type":"Point","coordinates":[130.119,33.089]},"properties":{"Name":"臥竜ヶ岡体育館","Jusho":"佐賀県鹿島市浜町甲4401-2","kouzui":"○","gake":"○","takashio":"○","jishin":"○","tsunami":"○","kaji":"○","naisui":"×","kazan":"×"}}
,{"type":"Feature","geometry":{"type":"Point","coordinates":[130.113,33.09]},"properties":{"Name":"東部中学校","Jusho":"佐賀県鹿島市浜町甲4020","kouzui":"○","gake":"○","takashio":"○","jishin":"×","tsunami":"×","kaji":"×","naisui":"×","kazan":"×"}}
,{"type":"Feature","geometry":{"type":"Point","coordinates":[130.116,33.094]},"properties":{"Name":"浜小学校","Jusho":"佐賀県鹿島市浜町1239","kouzui":"○","gake":"○","takashio":"○","jishin":"○","tsunami":"○","kaji":"×","naisui":"×","kazan":"×"}}
,{"type":"Feature","geometry":{"type":"Point","coordinates":[130.086,33.124]},"properties":{"Name":"五ノ宮神社","Jusho":"佐賀県鹿島市大字森1385","kouzui":"○","gake":"○","takashio":"○","jishin":"×","tsunami":"×","kaji":"×","naisui":"×","kazan":"×"}}
,{"type":"Feature","geometry":{"type":"Point","coordinates":[130.103,33.123]},"properties":{"Name":"北鹿島体育館","Jusho":"佐賀県鹿島市大字井手1758-1","kouzui":"○","gake":"○","takashio":"○","jishin":"○","tsunami":"×","kaji":"×","naisui":"×","kazan":"×"}}
,{"type":"Feature","geometry":{"type":"Point","coordinates":[130.099,33.121]},"properties":{"Name":"北鹿島公民館","Jusho":"佐賀県鹿島市大字常広101-1","kouzui":"○","gake":"○","takashio":"○","jishin":"○","tsunami":"×","kaji":"○","naisui":"×","kazan":"×"}}
,{"type":"Feature","geometry":{"type":"Point","coordinates":[130.102,33.12]},"properties":{"Name":"北鹿島小学校","Jusho":"佐賀県鹿島市大字常広420","kouzui":"○","gake":"○","takashio":"○","jishin":"○","tsunami":"×","kaji":"×","naisui":"×","kazan":"×"}}
,{"type":"Feature","geometry":{"type":"Point","coordinates":[130.157,33.054]},"properties":{"Name":"圓徳寺","Jusho":"佐賀県鹿島市大字飯田乙3259","kouzui":"○","gake":"○","takashio":"×","jishin":"×","tsunami":"×","kaji":"×","naisui":"×","kazan":"×"}}
,{"type":"Feature","geometry":{"type":"Point","coordinates":[130.15,33.069]},"properties":{"Name":"漁村センター","Jusho":"佐賀県鹿島市大字音成戊1922-19","kouzui":"○","gake":"○","takashio":"×","jishin":"○","tsunami":"×","kaji":"○","naisui":"×","kazan":"×"}}
,{"type":"Feature","geometry":{"type":"Point","coordinates":[130.153,33.065]},"properties":{"Name":"七浦小学校","Jusho":"佐賀県鹿島市大字音成戊1563","kouzui":"○","gake":"○","takashio":"○","jishin":"○","tsunami":"○","kaji":"×","naisui":"×","kazan":"×"}}
,{"type":"Feature","geometry":{"type":"Point","coordinates":[130.146,33.076]},"properties":{"Name":"七浦海浜スポーツ公園体育館","Jusho":"佐賀県鹿島市大字音成甲4427-5","kouzui":"○","gake":"○","takashio":"×","jishin":"○","tsunami":"×","kaji":"×","naisui":"×","kazan":"×"}}
,{"type":"Feature","geometry":{"type":"Point","coordinates":[130.137,33.083]},"properties":{"Name":"七浦小学校音成分校","Jusho":"佐賀県鹿島市大字音成乙4352","kouzui":"○","gake":"○","takashio":"○","jishin":"○","tsunami":"○","kaji":"×","naisui":"×","kazan":"×"}}
,{"type":"Feature","geometry":{"type":"Point","coordinates":[130.192,33.286]},"properties":{"Name":"小城保健福祉センター","Jusho":"佐賀県小城市小城町畑田750","kouzui":"×","gake":"○","takashio":"○","jishin":"○","tsunami":"○","kaji":"×","naisui":"×","kazan":"×"}}
,{"type":"Feature","geometry":{"type":"Point","coordinates":[130.187,33.291]},"properties":{"Name":"小城体育センター","Jusho":"佐賀県小城市小城町畑田98-1","kouzui":"○","gake":"○","takashio":"○","jishin":"○","tsunami":"○","kaji":"×","naisui":"○","kazan":"×"}}
,{"type":"Feature","geometry":{"type":"Point","coordinates":[130.199,33.292]},"properties":{"Name":"桜岡小学校","Jusho":"佐賀県小城市小城町166","kouzui":"○","gake":"○","takashio":"○","jishin":"○","tsunami":"○","kaji":"×","naisui":"○","kazan":"×"}}
,{"type":"Feature","geometry":{"type":"Point","coordinates":[130.2,33.306]},"properties":{"Name":"岩松小学校","Jusho":"佐賀県小城市小城町岩蔵1941","kouzui":"○","gake":"○","takashio":"○","jishin":"○","tsunami":"○","kaji":"×","naisui":"○","kazan":"×"}}
,{"type":"Feature","geometry":{"type":"Point","coordinates":[130.179,33.293]},"properties":{"Name":"晴田小学校","Jusho":"佐賀県小城市小城町畑田2099","kouzui":"×","gake":"○","takashio":"○","jishin":"○","tsunami":"○","kaji":"×","naisui":"×","kazan":"×"}}
,{"type":"Feature","geometry":{"type":"Point","coordinates":[130.183,33.273]},"properties":{"Name":"三里小学校","Jusho":"佐賀県小城市小城町栗原1256","kouzui":"×","gake":"○","takashio":"○","jishin":"○","tsunami":"○","kaji":"×","naisui":"×","kazan":"×"}}
,{"type":"Feature","geometry":{"type":"Point","coordinates":[130.195,33.296]},"properties":{"Name":"小城中学校","Jusho":"佐賀県小城市小城町松尾4104","kouzui":"○","gake":"○","takashio":"○","jishin":"○","tsunami":"○","kaji":"×","naisui":"○","kazan":"×"}}
,{"type":"Feature","geometry":{"type":"Point","coordinates":[130.199,33.294]},"properties":{"Name":"まちなか市民交流プラザ","Jusho":"佐賀県小城市小城町253-21","kouzui":"○","gake":"○","takashio":"○","jishin":"○","tsunami":"○","kaji":"×","naisui":"○","kazan":"×"}}
,{"type":"Feature","geometry":{"type":"Point","coordinates":[130.219,33.274]},"properties":{"Name":"三日月保健福祉センター","Jusho":"佐賀県小城市三日月町長神田2312-3","kouzui":"×","gake":"○","takashio":"○","jishin":"○","tsunami":"○","kaji":"×","naisui":"×","kazan":"×"}}
,{"type":"Feature","geometry":{"type":"Point","coordinates":[130.221,33.273]},"properties":{"Name":"三日月体育館","Jusho":"佐賀県小城市三日月町長神田1848-9","kouzui":"×","gake":"○","takashio":"○","jishin":"○","tsunami":"○","kaji":"×","naisui":"×","kazan":"×"}}
,{"type":"Feature","geometry":{"type":"Point","coordinates":[130.222,33.274]},"properties":{"Name":"生涯学習センター","Jusho":"佐賀県小城市三日月町長神田1845","kouzui":"×","gake":"○","takashio":"○","jishin":"○","tsunami":"○","kaji":"×","naisui":"×","kazan":"×"}}
,{"type":"Feature","geometry":{"type":"Point","coordinates":[130.225,33.281]},"properties":{"Name":"三日月小学校","Jusho":"佐賀県小城市三日月町長神田1680","kouzui":"×","gake":"○","takashio":"○","jishin":"○","tsunami":"○","kaji":"×","naisui":"×","kazan":"×"}}
,{"type":"Feature","geometry":{"type":"Point","coordinates":[130.224,33.281]},"properties":{"Name":"三日月中学校","Jusho":"佐賀県小城市三日月町長神田1650","kouzui":"×","gake":"○","takashio":"○","jishin":"○","tsunami":"○","kaji":"×","naisui":"×","kazan":"×"}}
,{"type":"Feature","geometry":{"type":"Point","coordinates":[130.202,33.25]},"properties":{"Name":"牛津公民館","Jusho":"佐賀県小城市牛津町柿樋瀬1100-1","kouzui":"×","gake":"○","takashio":"○","jishin":"○","tsunami":"×","kaji":"×","naisui":"×","kazan":"×"}}
,{"type":"Feature","geometry":{"type":"Point","coordinates":[130.201,33.25]},"properties":{"Name":"牛津体育センター","Jusho":"佐賀県小城市牛津町柿樋瀬1100-2","kouzui":"×","gake":"○","takashio":"○","jishin":"○","tsunami":"×","kaji":"×","naisui":"×","kazan":"×"}}
,{"type":"Feature","geometry":{"type":"Point","coordinates":[130.202,33.252]},"properties":{"Name":"牛津公民館別館","Jusho":"佐賀県小城市牛津町勝1324-1","kouzui":"×","gake":"○","takashio":"○","jishin":"○","tsunami":"×","kaji":"×","naisui":"×","kazan":"×"}}
,{"type":"Feature","geometry":{"type":"Point","coordinates":[130.191,33.251]},"properties":{"Name":"牛津保健福祉センター","Jusho":"佐賀県小城市牛津町勝1221-1","kouzui":"×","gake":"○","takashio":"○","jishin":"○","tsunami":"×","kaji":"×","naisui":"×","kazan":"×"}}
,{"type":"Feature","geometry":{"type":"Point","coordinates":[130.203,33.256]},"properties":{"Name":"牛津小学校","Jusho":"佐賀県小城市牛津町柿樋瀬922","kouzui":"×","gake":"○","takashio":"○","jishin":"○","tsunami":"○","kaji":"×","naisui":"×","kazan":"×"}}
,{"type":"Feature","geometry":{"type":"Point","coordinates":[130.181,33.235]},"properties":{"Name":"砥川小学校","Jusho":"佐賀県小城市牛津町上砥川1405","kouzui":"×","gake":"○","takashio":"○","jishin":"○","tsunami":"×","kaji":"×","naisui":"×","kazan":"×"}}
,{"type":"Feature","geometry":{"type":"Point","coordinates":[130.205,33.246]},"properties":{"Name":"牛津中学校","Jusho":"佐賀県小城市牛津町牛津549","kouzui":"×","gake":"○","takashio":"○","jishin":"○","tsunami":"×","kaji":"×","naisui":"×","kazan":"×"}}
,{"type":"Feature","geometry":{"type":"Point","coordinates":[130.208,33.225]},"properties":{"Name":"芦刈保健福祉センター","Jusho":"佐賀県小城市芦刈町三王崎1522","kouzui":"×","gake":"○","takashio":"×","jishin":"○","tsunami":"×","kaji":"×","naisui":"×","kazan":"×"}}
,{"type":"Feature","geometry":{"type":"Point","coordinates":[130.211,33.223]},"properties":{"Name":"芦刈文化体育館","Jusho":"佐賀県小城市芦刈町三王崎172-1","kouzui":"×","gake":"○","takashio":"×","jishin":"○","tsunami":"×","kaji":"×","naisui":"×","kazan":"×"}}
,{"type":"Feature","geometry":{"type":"Point","coordinates":[130.208,33.224]},"properties":{"Name":"芦刈地域交流センター","Jusho":"佐賀県小城市芦刈町三王崎349","kouzui":"×","gake":"○","takashio":"×","jishin":"○","tsunami":"×","kaji":"×","naisui":"×","kazan":"×"}}
,{"type":"Feature","geometry":{"type":"Point","coordinates":[130.213,33.224]},"properties":{"Name":"芦刈小学校","Jusho":"佐賀県小城市芦刈町三王崎14","kouzui":"×","gake":"○","takashio":"×","jishin":"○","tsunami":"×","kaji":"×","naisui":"×","kazan":"×"}}
,{"type":"Feature","geometry":{"type":"Point","coordinates":[130.213,33.223]},"properties":{"Name":"芦刈中学校","Jusho":"佐賀県小城市芦刈町三王崎14","kouzui":"×","gake":"○","takashio":"×","jishin":"○","tsunami":"×","kaji":"×","naisui":"×","kazan":"×"}}
,{"type":"Feature","geometry":{"type":"Point","coordinates":[130.059,33.128]},"properties":{"Name":"嬉野市塩田保健センター","Jusho":"佐賀県嬉野市塩田町大字馬場下甲1709-1","kouzui":"×","gake":"○","takashio":"×","jishin":"○","tsunami":"○","kaji":"×","naisui":"×","kazan":"×"}}
,{"type":"Feature","geometry":{"type":"Point","coordinates":[130.06,33.128]},"properties":{"Name":"嬉野市中央公民館","Jusho":"佐賀県嬉野市塩田町大字馬場下甲1967-1","kouzui":"○","gake":"○","takashio":"×","jishin":"×","tsunami":"○","kaji":"×","naisui":"○","kazan":"×"}}
,{"type":"Feature","geometry":{"type":"Point","coordinates":[130.047,33.127]},"properties":{"Name":"嬉野市ふれあいセンター","Jusho":"佐賀県嬉野市塩田町大字馬場下甲2543-9","kouzui":"○","gake":"×","takashio":"×","jishin":"○","tsunami":"×","kaji":"×","naisui":"○","kazan":"×"}}
,{"type":"Feature","geometry":{"type":"Point","coordinates":[130.063,33.123]},"properties":{"Name":"五町田研修センター","Jusho":"佐賀県嬉野市塩田町大字谷所甲3082-2","kouzui":"×","gake":"○","takashio":"×","jishin":"×","tsunami":"×","kaji":"×","naisui":"×","kazan":"×"}}
,{"type":"Feature","geometry":{"type":"Point","coordinates":[130.063,33.147]},"properties":{"Name":"久間研修センター","Jusho":"佐賀県嬉野市塩田町大字久間甲889-2","kouzui":"○","gake":"○","takashio":"×","jishin":"×","tsunami":"×","kaji":"×","naisui":"○","kazan":"×"}}
,{"type":"Feature","geometry":{"type":"Point","coordinates":[130.007,33.131]},"properties":{"Name":"大草野研修センター","Jusho":"佐賀県嬉野市塩田町大字大草野丙2011-1","kouzui":"×","gake":"○","takashio":"×","jishin":"○","tsunami":"×","kaji":"×","naisui":"×","kazan":"×"}}
,{"type":"Feature","geometry":{"type":"Point","coordinates":[130.064,33.125]},"properties":{"Name":"嬉野市コミュニティセンター(楠風館)","Jusho":"佐賀県嬉野市塩田町大字五町田甲3136-1","kouzui":"×","gake":"○","takashio":"×","jishin":"○","tsunami":"○","kaji":"×","naisui":"×","kazan":"×"}}
,{"type":"Feature","geometry":{"type":"Point","coordinates":[130.063,33.116]},"properties":{"Name":"五町田小学校","Jusho":"佐賀県嬉野市塩田町大字五町田甲3717","kouzui":"○","gake":"○","takashio":"×","jishin":"○","tsunami":"○","kaji":"×","naisui":"○","kazan":"×"}}
,{"type":"Feature","geometry":{"type":"Point","coordinates":[130.057,33.1]},"properties":{"Name":"五町田小学校谷所分校","Jusho":"佐賀県嬉野市塩田町大字谷所乙684-1","kouzui":"○","gake":"○","takashio":"×","jishin":"×","tsunami":"×","kaji":"×","naisui":"○","kazan":"×"}}
,{"type":"Feature","geometry":{"type":"Point","coordinates":[130.06,33.148]},"properties":{"Name":"久間小学校","Jusho":"佐賀県嬉野市塩田町大字久間甲1885","kouzui":"○","gake":"○","takashio":"×","jishin":"○","tsunami":"×","kaji":"×","naisui":"○","kazan":"×"}}
,{"type":"Feature","geometry":{"type":"Point","coordinates":[130.045,33.127]},"properties":{"Name":"塩田小学校","Jusho":"佐賀県嬉野市塩田町大字馬場下甲3817","kouzui":"×","gake":"×","takashio":"×","jishin":"○","tsunami":"×","kaji":"×","naisui":"×","kazan":"×"}}
,{"type":"Feature","geometry":{"type":"Point","coordinates":[130.061,33.129]},"properties":{"Name":"塩田中学校","Jusho":"佐賀県嬉野市塩田町大字馬場下甲1801","kouzui":"×","gake":"○","takashio":"×","jishin":"○","tsunami":"○","kaji":"×","naisui":"×","kazan":"×"}}
,{"type":"Feature","geometry":{"type":"Point","coordinates":[130.062,33.13]},"properties":{"Name":"嬉野市社会文化会館","Jusho":"佐賀県嬉野市塩田町大字五町田甲628","kouzui":"×","gake":"○","takashio":"×","jishin":"○","tsunami":"○","kaji":"×","naisui":"×","kazan":"×"}}
,{"type":"Feature","geometry":{"type":"Point","coordinates":[129.987,33.102]},"properties":{"Name":"嬉野市文化センター","Jusho":"佐賀県嬉野市嬉野町大字下宿乙1298","kouzui":"○","gake":"○","takashio":"×","jishin":"○","tsunami":"×","kaji":"×","naisui":"○","kazan":"×"}}
,{"type":"Feature","geometry":{"type":"Point","coordinates":[129.961,33.078]},"properties":{"Name":"不動ふれあい体育館","Jusho":"佐賀県嬉野市嬉野町大字不動山甲1326","kouzui":"○","gake":"○","takashio":"×","jishin":"○","tsunami":"×","kaji":"×","naisui":"○","kazan":"×"}}
,{"type":"Feature","geometry":{"type":"Point","coordinates":[129.981,33.098]},"properties":{"Name":"嬉野市嬉野老人福祉センター","Jusho":"佐賀県嬉野市嬉野町大字下宿丙2390-2","kouzui":"○","gake":"○","takashio":"×","jishin":"○","tsunami":"×","kaji":"×","naisui":"○","kazan":"×"}}
,{"type":"Feature","geometry":{"type":"Point","coordinates":[130.021,33.08]},"properties":{"Name":"嬉野市吉田公民館","Jusho":"佐賀県嬉野市嬉野町大字吉田丙2770-5","kouzui":"○","gake":"×","takashio":"×","jishin":"○","tsunami":"×","kaji":"×","naisui":"○","kazan":"×"}}
,{"type":"Feature","geometry":{"type":"Point","coordinates":[129.982,33.103]},"properties":{"Name":"嬉野小学校","Jusho":"佐賀県嬉野市嬉野町大字下宿乙1647","kouzui":"×","gake":"×","takashio":"×","jishin":"○","tsunami":"×","kaji":"×","naisui":"×","kazan":"×"}}
,{"type":"Feature","geometry":{"type":"Point","coordinates":[129.979,33.085]},"properties":{"Name":"轟小学校","Jusho":"佐賀県嬉野市嬉野町大字岩屋川内2597","kouzui":"×","gake":"○","takashio":"×","jishin":"○","tsunami":"×","kaji":"×","naisui":"×","kazan":"×"}}
,{"type":"Feature","geometry":{"type":"Point","coordinates":[130.02,33.081]},"properties":{"Name":"吉田小学校","Jusho":"佐賀県嬉野市嬉野町大字吉田乙2997-1","kouzui":"×","gake":"○","takashio":"×","jishin":"○","tsunami":"×","kaji":"×","naisui":"×","kazan":"×"}}
,{"type":"Feature","geometry":{"type":"Point","coordinates":[130.002,33.126]},"properties":{"Name":"大草野小学校","Jusho":"佐賀県嬉野市嬉野町大字下野丙80","kouzui":"○","gake":"○","takashio":"×","jishin":"○","tsunami":"×","kaji":"×","naisui":"○","kazan":"×"}}
,{"type":"Feature","geometry":{"type":"Point","coordinates":[130,33.038]},"properties":{"Name":"大野原小・中学校","Jusho":"佐賀県嬉野市嬉野町大字岩屋川内丙720-1","kouzui":"○","gake":"○","takashio":"×","jishin":"○","tsunami":"×","kaji":"×","naisui":"○","kazan":"×"}}
,{"type":"Feature","geometry":{"type":"Point","coordinates":[129.986,33.109]},"properties":{"Name":"嬉野中学校","Jusho":"佐賀県嬉野市嬉野町大字下宿甲2786-1","kouzui":"×","gake":"○","takashio":"×","jishin":"○","tsunami":"×","kaji":"×","naisui":"×","kazan":"×"}}
,{"type":"Feature","geometry":{"type":"Point","coordinates":[130.017,33.08]},"properties":{"Name":"吉田中学校","Jusho":"佐賀県嬉野市嬉野町大字吉田丙3016","kouzui":"×","gake":"○","takashio":"×","jishin":"○","tsunami":"×","kaji":"×","naisui":"×","kazan":"×"}}
,{"type":"Feature","geometry":{"type":"Point","coordinates":[130.057,33.13]},"properties":{"Name":"佐賀県立塩田工業高等学校","Jusho":"佐賀県嬉野市塩田町大字馬場下甲1418","kouzui":"○","gake":"○","takashio":"×","jishin":"×","tsunami":"○","kaji":"×","naisui":"○","kazan":"×"}}
,{"type":"Feature","geometry":{"type":"Point","coordinates":[129.997,33.108]},"properties":{"Name":"佐賀県立嬉野高等学校","Jusho":"佐賀県嬉野市嬉野町大字下宿甲700","kouzui":"×","gake":"○","takashio":"×","jishin":"×","tsunami":"×","kaji":"×","naisui":"×","kazan":"×"}}
,{"type":"Feature","geometry":{"type":"Point","coordinates":[129.984,33.11]},"properties":{"Name":"みゆき記念館","Jusho":"佐賀県嬉野市嬉野町大字下宿字一本松甲2834","kouzui":"×","gake":"○","takashio":"×","jishin":"○","tsunami":"×","kaji":"×","naisui":"×","kazan":"×"}}
,{"type":"Feature","geometry":{"type":"Point","coordinates":[129.978,33.11]},"properties":{"Name":"みゆきクラブハウス","Jusho":"佐賀県嬉野市嬉野町大字下宿字一本松甲2834","kouzui":"×","gake":"○","takashio":"×","jishin":"○","tsunami":"×","kaji":"×","naisui":"×","kazan":"×"}}
,{"type":"Feature","geometry":{"type":"Point","coordinates":[129.98,33.111]},"properties":{"Name":"みゆき球場室内","Jusho":"佐賀県嬉野市嬉野町大字下宿字一本松甲2834","kouzui":"×","gake":"○","takashio":"×","jishin":"×","tsunami":"×","kaji":"×","naisui":"×","kazan":"×"}}
,{"type":"Feature","geometry":{"type":"Point","coordinates":[129.98,33.111]},"properties":{"Name":"みゆき球場","Jusho":"佐賀県嬉野市嬉野町大字下宿字一本松甲2834","kouzui":"×","gake":"×","takashio":"×","jishin":"○","tsunami":"×","kaji":"×","naisui":"×","kazan":"×"}}
,{"type":"Feature","geometry":{"type":"Point","coordinates":[129.985,33.111]},"properties":{"Name":"みゆきドーム","Jusho":"佐賀県嬉野市嬉野町大字下宿字一本松甲2834","kouzui":"○","gake":"○","takashio":"×","jishin":"○","tsunami":"×","kaji":"×","naisui":"○","kazan":"×"}}
,{"type":"Feature","geometry":{"type":"Point","coordinates":[130.372,33.313]},"properties":{"Name":"神埼市中央公民館(大ホール）","Jusho":"佐賀県神埼市神埼町鶴3388-5","kouzui":"○","gake":"○","takashio":"×","jishin":"○","tsunami":"×","kaji":"×","naisui":"○","kazan":"×"}}
,{"type":"Feature","geometry":{"type":"Point","coordinates":[130.375,33.273]},"properties":{"Name":"千代田町保健センター（機能訓練室）","Jusho":"佐賀県神埼市千代田町直鳥57-1","kouzui":"○","gake":"×","takashio":"○","jishin":"○","tsunami":"×","kaji":"×","naisui":"○","kazan":"×"}}
,{"type":"Feature","geometry":{"type":"Point","coordinates":[130.327,33.377]},"properties":{"Name":"神埼市脊振公民館（会議室）","Jusho":"佐賀県神埼市脊振町広滝555-1","kouzui":"○","gake":"○","takashio":"×","jishin":"×","tsunami":"×","kaji":"×","naisui":"○","kazan":"×"}}
,{"type":"Feature","geometry":{"type":"Point","coordinates":[130.375,33.305]},"properties":{"Name":"神埼小学校（講堂）","Jusho":"佐賀県神埼市神埼町枝ヶ里349","kouzui":"○","gake":"×","takashio":"×","jishin":"○","tsunami":"×","kaji":"×","naisui":"○","kazan":"×"}}
,{"type":"Feature","geometry":{"type":"Point","coordinates":[130.352,33.304]},"properties":{"Name":"西郷小学校（講堂）","Jusho":"佐賀県神埼市神埼町横武868","kouzui":"○","gake":"×","takashio":"×","jishin":"○","tsunami":"×","kaji":"×","naisui":"○","kazan":"×"}}
,{"type":"Feature","geometry":{"type":"Point","coordinates":[130.371,33.337]},"properties":{"Name":"仁比山小学校（講堂）","Jusho":"佐賀県神埼市神埼町鶴1634","kouzui":"○","gake":"×","takashio":"×","jishin":"○","tsunami":"×","kaji":"×","naisui":"○","kazan":"×"}}
,{"type":"Feature","geometry":{"type":"Point","coordinates":[130.37,33.312]},"properties":{"Name":"神埼中学校（生活ラウンジ）","Jusho":"佐賀県神埼市神埼町鶴3565","kouzui":"○","gake":"×","takashio":"×","jishin":"○","tsunami":"×","kaji":"×","naisui":"○","kazan":"×"}}
,{"type":"Feature","geometry":{"type":"Point","coordinates":[130.37,33.313]},"properties":{"Name":"神埼中央公園体育館（アリーナ）","Jusho":"佐賀県神埼市神埼町鶴3886","kouzui":"○","gake":"×","takashio":"×","jishin":"○","tsunami":"×","kaji":"×","naisui":"○","kazan":"×"}}
,{"type":"Feature","geometry":{"type":"Point","coordinates":[130.393,33.263]},"properties":{"Name":"千代田東部小学校（講堂）","Jusho":"佐賀県神埼市千代田町渡瀬1964","kouzui":"○","gake":"×","takashio":"○","jishin":"○","tsunami":"×","kaji":"×","naisui":"○","kazan":"×"}}
,{"type":"Feature","geometry":{"type":"Point","coordinates":[130.375,33.276]},"properties":{"Name":"千代田中部小学校（講堂）","Jusho":"佐賀県神埼市千代田町直鳥15-1","kouzui":"○","gake":"×","takashio":"○","jishin":"○","tsunami":"×","kaji":"×","naisui":"○","kazan":"×"}}
,{"type":"Feature","geometry":{"type":"Point","coordinates":[130.35,33.263]},"properties":{"Name":"千代田西部小学校（講堂）","Jusho":"佐賀県神埼市千代田町餘江1496","kouzui":"○","gake":"×","takashio":"○","jishin":"○","tsunami":"×","kaji":"×","naisui":"○","kazan":"×"}}
,{"type":"Feature","geometry":{"type":"Point","coordinates":[130.374,33.269]},"properties":{"Name":"千代田中学校（体育館）","Jusho":"佐賀県神埼市千代田町直鳥929-1","kouzui":"○","gake":"×","takashio":"○","jishin":"○","tsunami":"×","kaji":"×","naisui":"○","kazan":"×"}}
,{"type":"Feature","geometry":{"type":"Point","coordinates":[130.328,33.378]},"properties":{"Name":"脊振小学校（体育室）","Jusho":"佐賀県神埼市脊振町広滝580","kouzui":"○","gake":"×","takashio":"×","jishin":"○","tsunami":"×","kaji":"×","naisui":"○","kazan":"×"}}
,{"type":"Feature","geometry":{"type":"Point","coordinates":[130.328,33.378]},"properties":{"Name":"脊振勤労者体育館（アリーナ）","Jusho":"佐賀県神埼市脊振町広滝595-2","kouzui":"○","gake":"×","takashio":"×","jishin":"○","tsunami":"×","kaji":"×","naisui":"○","kazan":"×"}}
,{"type":"Feature","geometry":{"type":"Point","coordinates":[130.398,33.352]},"properties":{"Name":"東脊振健康福祉センター　きらら館","Jusho":"佐賀県神埼郡吉野ヶ里町三津775","kouzui":"○","gake":"○","takashio":"×","jishin":"○","tsunami":"×","kaji":"×","naisui":"○","kazan":"×"}}
,{"type":"Feature","geometry":{"type":"Point","coordinates":[130.399,33.314]},"properties":{"Name":"三田川健康福祉センター ふれあい館","Jusho":"佐賀県神埼郡吉野ヶ里町豆田1790","kouzui":"×","gake":"○","takashio":"×","jishin":"○","tsunami":"×","kaji":"×","naisui":"×","kazan":"×"}}
,{"type":"Feature","geometry":{"type":"Point","coordinates":[130.398,33.321]},"properties":{"Name":"中央公民館","Jusho":"佐賀県神埼郡吉野ヶ里町吉田307","kouzui":"○","gake":"○","takashio":"×","jishin":"○","tsunami":"×","kaji":"×","naisui":"○","kazan":"×"}}
,{"type":"Feature","geometry":{"type":"Point","coordinates":[130.397,33.351]},"properties":{"Name":"東脊振農村環境改善センター","Jusho":"佐賀県神埼郡吉野ヶ里町三津777","kouzui":"○","gake":"○","takashio":"×","jishin":"×","tsunami":"×","kaji":"×","naisui":"○","kazan":"×"}}
,{"type":"Feature","geometry":{"type":"Point","coordinates":[130.398,33.321]},"properties":{"Name":"町民集会所","Jusho":"佐賀県神埼郡吉野ヶ里町吉田307-2","kouzui":"○","gake":"○","takashio":"×","jishin":"×","tsunami":"×","kaji":"×","naisui":"○","kazan":"×"}}
,{"type":"Feature","geometry":{"type":"Point","coordinates":[130.399,33.352]},"properties":{"Name":"さざんか武道館","Jusho":"佐賀県神埼郡吉野ヶ里町石動2768-6","kouzui":"○","gake":"○","takashio":"×","jishin":"○","tsunami":"×","kaji":"×","naisui":"○","kazan":"×"}}
,{"type":"Feature","geometry":{"type":"Point","coordinates":[130.398,33.322]},"properties":{"Name":"三田川武道館","Jusho":"佐賀県神埼郡吉野ヶ里町吉田283-2","kouzui":"○","gake":"○","takashio":"×","jishin":"○","tsunami":"×","kaji":"×","naisui":"○","kazan":"×"}}
,{"type":"Feature","geometry":{"type":"Point","coordinates":[130.399,33.325]},"properties":{"Name":"吉野ヶ里公園駅コミュニティーホール","Jusho":"佐賀県神埼郡吉野ヶ里町吉田252-1","kouzui":"×","gake":"○","takashio":"×","jishin":"○","tsunami":"×","kaji":"×","naisui":"×","kazan":"×"}}
,{"type":"Feature","geometry":{"type":"Point","coordinates":[130.399,33.35]},"properties":{"Name":"東脊振小学校体育館","Jusho":"佐賀県神埼郡吉野ヶ里町石動2760-1","kouzui":"○","gake":"○","takashio":"×","jishin":"○","tsunami":"×","kaji":"×","naisui":"○","kazan":"×"}}
,{"type":"Feature","geometry":{"type":"Point","coordinates":[130.401,33.35]},"properties":{"Name":"東脊振中学校体育館","Jusho":"佐賀県神埼郡吉野ヶ里町石動2709","kouzui":"○","gake":"○","takashio":"×","jishin":"○","tsunami":"×","kaji":"×","naisui":"○","kazan":"×"}}
,{"type":"Feature","geometry":{"type":"Point","coordinates":[130.396,33.322]},"properties":{"Name":"三田川小学校体育館","Jusho":"佐賀県神埼郡吉野ヶ里町吉田63-1","kouzui":"○","gake":"○","takashio":"×","jishin":"○","tsunami":"×","kaji":"×","naisui":"○","kazan":"×"}}
,{"type":"Feature","geometry":{"type":"Point","coordinates":[130.399,33.32]},"properties":{"Name":"児童体育館","Jusho":"佐賀県神埼郡吉野ヶ里町吉田310","kouzui":"○","gake":"○","takashio":"×","jishin":"○","tsunami":"×","kaji":"×","naisui":"○","kazan":"×"}}
,{"type":"Feature","geometry":{"type":"Point","coordinates":[130.4,33.35]},"properties":{"Name":"東脊振小学校","Jusho":"佐賀県神埼郡吉野ヶ里町石動2760-1","kouzui":"○","gake":"○","takashio":"×","jishin":"○","tsunami":"×","kaji":"×","naisui":"○","kazan":"×"}}
,{"type":"Feature","geometry":{"type":"Point","coordinates":[130.401,33.35]},"properties":{"Name":"東脊振中学校","Jusho":"佐賀県神埼郡吉野ヶ里町石動2709","kouzui":"○","gake":"○","takashio":"×","jishin":"○","tsunami":"×","kaji":"×","naisui":"○","kazan":"×"}}
,{"type":"Feature","geometry":{"type":"Point","coordinates":[130.396,33.322]},"properties":{"Name":"三田川小学校","Jusho":"佐賀県神埼郡吉野ヶ里町吉田63-1","kouzui":"○","gake":"○","takashio":"×","jishin":"○","tsunami":"×","kaji":"×","naisui":"○","kazan":"×"}}
,{"type":"Feature","geometry":{"type":"Point","coordinates":[130.398,33.32]},"properties":{"Name":"三田川中学校","Jusho":"佐賀県神埼郡吉野ヶ里町吉田303","kouzui":"○","gake":"○","takashio":"×","jishin":"○","tsunami":"×","kaji":"×","naisui":"○","kazan":"×"}}
,{"type":"Feature","geometry":{"type":"Point","coordinates":[130.4,33.327]},"properties":{"Name":"吉野ヶ里保育園","Jusho":"佐賀県神埼郡吉野ヶ里町吉田999","kouzui":"○","gake":"○","takashio":"×","jishin":"○","tsunami":"×","kaji":"×","naisui":"○","kazan":"×"}}
,{"type":"Feature","geometry":{"type":"Point","coordinates":[130.397,33.35]},"properties":{"Name":"東脊振幼稚園","Jusho":"佐賀県神埼郡吉野ヶ里町三津799","kouzui":"○","gake":"○","takashio":"×","jishin":"○","tsunami":"×","kaji":"×","naisui":"○","kazan":"×"}}
,{"type":"Feature","geometry":{"type":"Point","coordinates":[130.396,33.32]},"properties":{"Name":"三田川児童館","Jusho":"佐賀県神埼郡吉野ヶ里町吉田58-1","kouzui":"○","gake":"○","takashio":"×","jishin":"○","tsunami":"×","kaji":"×","naisui":"○","kazan":"×"}}
,{"type":"Feature","geometry":{"type":"Point","coordinates":[130.398,33.351]},"properties":{"Name":"東脊振運動公園","Jusho":"佐賀県神埼郡吉野ヶ里町三津777","kouzui":"×","gake":"×","takashio":"×","jishin":"○","tsunami":"×","kaji":"×","naisui":"×","kazan":"×"}}
,{"type":"Feature","geometry":{"type":"Point","coordinates":[130.415,33.34]},"properties":{"Name":"東部緩衝緑地","Jusho":"佐賀県神埼郡吉野ヶ里町吉田・大曲","kouzui":"×","gake":"×","takashio":"×","jishin":"○","tsunami":"×","kaji":"×","naisui":"×","kazan":"×"}}
,{"type":"Feature","geometry":{"type":"Point","coordinates":[130.402,33.314]},"properties":{"Name":"三田川中央公園","Jusho":"佐賀県神埼郡吉野ヶ里町豆田1792-1","kouzui":"×","gake":"×","takashio":"×","jishin":"○","tsunami":"×","kaji":"×","naisui":"×","kazan":"×"}}
,{"type":"Feature","geometry":{"type":"Point","coordinates":[130.409,33.224]},"properties":{"Name":"下藤公園","Jusho":"佐賀県神埼郡吉野ヶ里町箱川940","kouzui":"×","gake":"×","takashio":"×","jishin":"○","tsunami":"×","kaji":"×","naisui":"×","kazan":"×"}}
,{"type":"Feature","geometry":{"type":"Point","coordinates":[130.524,33.427]},"properties":{"Name":"基山町民会館","Jusho":"佐賀県三養基郡基山町大字宮浦666","kouzui":"○","gake":"○","takashio":"×","jishin":"○","tsunami":"×","kaji":"○","naisui":"○","kazan":"×"}}
,{"type":"Feature","geometry":{"type":"Point","coordinates":[130.524,33.428]},"properties":{"Name":"基山町総合体育館","Jusho":"佐賀県三養基郡基山町大字宮浦666","kouzui":"○","gake":"○","takashio":"×","jishin":"○","tsunami":"×","kaji":"○","naisui":"○","kazan":"×"}}
,{"type":"Feature","geometry":{"type":"Point","coordinates":[130.523,33.427]},"properties":{"Name":"基山町保健センター","Jusho":"佐賀県三養基郡基山町大字宮浦666","kouzui":"○","gake":"○","takashio":"×","jishin":"○","tsunami":"×","kaji":"○","naisui":"○","kazan":"×"}}
,{"type":"Feature","geometry":{"type":"Point","coordinates":[130.525,33.422]},"properties":{"Name":"基山中学校","Jusho":"佐賀県三養基郡基山町大字宮浦941","kouzui":"○","gake":"○","takashio":"×","jishin":"○","tsunami":"×","kaji":"○","naisui":"○","kazan":"×"}}
,{"type":"Feature","geometry":{"type":"Point","coordinates":[130.527,33.421]},"properties":{"Name":"基山小学校","Jusho":"佐賀県三養基郡基山町大字宮浦41","kouzui":"○","gake":"○","takashio":"×","jishin":"○","tsunami":"×","kaji":"○","naisui":"○","kazan":"×"}}
,{"type":"Feature","geometry":{"type":"Point","coordinates":[130.529,33.431]},"properties":{"Name":"若基小学校","Jusho":"佐賀県三養基郡基山町けやき台2-2","kouzui":"○","gake":"○","takashio":"×","jishin":"○","tsunami":"×","kaji":"○","naisui":"○","kazan":"×"}}
,{"type":"Feature","geometry":{"type":"Point","coordinates":[130.521,33.422]},"properties":{"Name":"基山町多世代交流センター憩の家","Jusho":"佐賀県三養基郡基山町大字宮浦1026-1","kouzui":"○","gake":"○","takashio":"×","jishin":"○","tsunami":"×","kaji":"○","naisui":"○","kazan":"×"}}
,{"type":"Feature","geometry":{"type":"Point","coordinates":[130.506,33.418]},"properties":{"Name":"第２区公民館","Jusho":"佐賀県三養基郡基山町大字園部2339-1","kouzui":"○","gake":"○","takashio":"×","jishin":"○","tsunami":"×","kaji":"○","naisui":"○","kazan":"×"}}
,{"type":"Feature","geometry":{"type":"Point","coordinates":[130.535,33.407]},"properties":{"Name":"第７区公民館","Jusho":"佐賀県三養基郡基山町大字長野570-8","kouzui":"○","gake":"○","takashio":"×","jishin":"○","tsunami":"×","kaji":"○","naisui":"○","kazan":"×"}}
,{"type":"Feature","geometry":{"type":"Point","coordinates":[130.418,33.35]},"properties":{"Name":"屋形原公民館","Jusho":"佐賀県三養基郡上峰町大字堤3163","kouzui":"○","gake":"○","takashio":"×","jishin":"○","tsunami":"×","kaji":"×","naisui":"○","kazan":"×"}}
,{"type":"Feature","geometry":{"type":"Point","coordinates":[130.426,33.319]},"properties":{"Name":"上峰町民センター","Jusho":"佐賀県三養基郡上峰町大字坊所319-4","kouzui":"○","gake":"○","takashio":"×","jishin":"○","tsunami":"×","kaji":"×","naisui":"○","kazan":"×"}}
,{"type":"Feature","geometry":{"type":"Point","coordinates":[130.424,33.31]},"properties":{"Name":"おたっしゃ館","Jusho":"佐賀県三養基郡上峰町大字前牟田107-2","kouzui":"×","gake":"○","takashio":"×","jishin":"○","tsunami":"×","kaji":"×","naisui":"×","kazan":"×"}}
,{"type":"Feature","geometry":{"type":"Point","coordinates":[130.116,33.214]},"properties":{"Name":"大町町総合福祉保健センター","Jusho":"佐賀県杵島郡大町町大字大町5000","kouzui":"○","gake":"○","takashio":"○","jishin":"○","tsunami":"○","kaji":"○","naisui":"○","kazan":"○"}}
,{"type":"Feature","geometry":{"type":"Point","coordinates":[130.119,33.214]},"properties":{"Name":"大町小学校体育館","Jusho":"佐賀県杵島郡大町町大字大町5765-1","kouzui":"○","gake":"×","takashio":"○","jishin":"○","tsunami":"○","kaji":"○","naisui":"○","kazan":"○"}}
,{"type":"Feature","geometry":{"type":"Point","coordinates":[130.12,33.214]},"properties":{"Name":"大町小学校運動場","Jusho":"佐賀県杵島郡大町町大字大町5763","kouzui":"○","gake":"○","takashio":"○","jishin":"○","tsunami":"○","kaji":"○","naisui":"○","kazan":"○"}}
,{"type":"Feature","geometry":{"type":"Point","coordinates":[130.118,33.215]},"properties":{"Name":"大町中学校体育館","Jusho":"佐賀県杵島郡大町町大字大町5427","kouzui":"○","gake":"○","takashio":"○","jishin":"○","tsunami":"○","kaji":"○","naisui":"○","kazan":"○"}}
,{"type":"Feature","geometry":{"type":"Point","coordinates":[130.119,33.215]},"properties":{"Name":"大町中学校運動場","Jusho":"佐賀県杵島郡大町町大字大町5427","kouzui":"○","gake":"×","takashio":"○","jishin":"○","tsunami":"○","kaji":"○","naisui":"○","kazan":"○"}}
,{"type":"Feature","geometry":{"type":"Point","coordinates":[130.108,33.216]},"properties":{"Name":"大町町公民館","Jusho":"佐賀県杵島郡大町町大字福母2481","kouzui":"○","gake":"○","takashio":"○","jishin":"×","tsunami":"○","kaji":"○","naisui":"○","kazan":"○"}}
,{"type":"Feature","geometry":{"type":"Point","coordinates":[130.111,33.212]},"properties":{"Name":"大町町スポーツセンター","Jusho":"佐賀県杵島郡大町町大字福母158-1","kouzui":"○","gake":"○","takashio":"○","jishin":"○","tsunami":"○","kaji":"○","naisui":"○","kazan":"○"}}
,{"type":"Feature","geometry":{"type":"Point","coordinates":[130.111,33.215]},"properties":{"Name":"大町町民グラウンド","Jusho":"佐賀県杵島郡大町町大字大町5232","kouzui":"○","gake":"○","takashio":"○","jishin":"○","tsunami":"○","kaji":"○","naisui":"○","kazan":"○"}}
,{"type":"Feature","geometry":{"type":"Point","coordinates":[130.112,33.221]},"properties":{"Name":"ボタ山公園","Jusho":"佐賀県杵島郡大町町大字大町4656-1","kouzui":"○","gake":"×","takashio":"○","jishin":"○","tsunami":"○","kaji":"○","naisui":"○","kazan":"○"}}
,{"type":"Feature","geometry":{"type":"Point","coordinates":[130.109,33.217]},"properties":{"Name":"大町町老人センター","Jusho":"佐賀県杵島郡大町町大字福母2431-28","kouzui":"○","gake":"×","takashio":"○","jishin":"×","tsunami":"○","kaji":"○","naisui":"○","kazan":"○"}}
,{"type":"Feature","geometry":{"type":"Point","coordinates":[130.107,33.213]},"properties":{"Name":"大町町情報プラザ","Jusho":"佐賀県杵島郡大町町大字福母297-4","kouzui":"○","gake":"×","takashio":"○","jishin":"○","tsunami":"○","kaji":"○","naisui":"○","kazan":"○"}}
,{"type":"Feature","geometry":{"type":"Point","coordinates":[130.15,33.218]},"properties":{"Name":"江北町全天候スポーツ広場、老人福祉センター","Jusho":"佐賀県杵島郡江北町大字山口2637-2他","kouzui":"○","gake":"○","takashio":"×","jishin":"○","tsunami":"×","kaji":"○","naisui":"○","kazan":"×"}}
,{"type":"Feature","geometry":{"type":"Point","coordinates":[130.157,33.221]},"properties":{"Name":"江北町役場、江北町公民館","Jusho":"佐賀県杵島郡江北町大字山口1651-1","kouzui":"○","gake":"○","takashio":"×","jishin":"○","tsunami":"×","kaji":"○","naisui":"○","kazan":"×"}}
,{"type":"Feature","geometry":{"type":"Point","coordinates":[130.16,33.218]},"properties":{"Name":"ふれあい交流センター「ネイブル」","Jusho":"佐賀県杵島郡江北町大字山口1334-1","kouzui":"○","gake":"○","takashio":"×","jishin":"○","tsunami":"×","kaji":"○","naisui":"○","kazan":"×"}}
,{"type":"Feature","geometry":{"type":"Point","coordinates":[130.159,33.216]},"properties":{"Name":"江北町幼児教育センター","Jusho":"佐賀県杵島郡江北町大字山口1153他","kouzui":"○","gake":"○","takashio":"×","jishin":"○","tsunami":"×","kaji":"○","naisui":"○","kazan":"×"}}
,{"type":"Feature","geometry":{"type":"Point","coordinates":[130.16,33.215]},"properties":{"Name":"江北町こどもセンター「うるる」","Jusho":"佐賀県杵島郡江北町大字山口1201-1","kouzui":"○","gake":"○","takashio":"×","jishin":"○","tsunami":"×","kaji":"○","naisui":"○","kazan":"×"}}
,{"type":"Feature","geometry":{"type":"Point","coordinates":[130.142,33.228]},"properties":{"Name":"江北町防災広場","Jusho":"佐賀県杵島郡江北町大字上小田2282-11他","kouzui":"○","gake":"○","takashio":"×","jishin":"○","tsunami":"×","kaji":"○","naisui":"○","kazan":"×"}}
,{"type":"Feature","geometry":{"type":"Point","coordinates":[130.135,33.235]},"properties":{"Name":"花山球場","Jusho":"佐賀県杵島郡江北町大字上小田2745-3他","kouzui":"○","gake":"○","takashio":"×","jishin":"○","tsunami":"×","kaji":"○","naisui":"○","kazan":"×"}}
,{"type":"Feature","geometry":{"type":"Point","coordinates":[130.159,33.216]},"properties":{"Name":"江北小学校","Jusho":"佐賀県杵島郡江北町大字山口1128-1他","kouzui":"○","gake":"○","takashio":"×","jishin":"○","tsunami":"×","kaji":"○","naisui":"○","kazan":"×"}}
,{"type":"Feature","geometry":{"type":"Point","coordinates":[130.16,33.214]},"properties":{"Name":"江北中学校","Jusho":"佐賀県杵島郡江北町大字山口412","kouzui":"○","gake":"○","takashio":"×","jishin":"○","tsunami":"×","kaji":"○","naisui":"○","kazan":"×"}}
,{"type":"Feature","geometry":{"type":"Point","coordinates":[130.142,33.182]},"properties":{"Name":"白石町総合センター","Jusho":"佐賀県杵島郡白石町大字福田1312-1","kouzui":"○","gake":"×","takashio":"○","jishin":"○","tsunami":"○","kaji":"○","naisui":"○","kazan":"×"}}
,{"type":"Feature","geometry":{"type":"Point","coordinates":[130.142,33.182]},"properties":{"Name":"白石町健康センター","Jusho":"佐賀県杵島郡白石町大字福田1312-1","kouzui":"○","gake":"×","takashio":"○","jishin":"○","tsunami":"○","kaji":"○","naisui":"○","kazan":"×"}}
,{"type":"Feature","geometry":{"type":"Point","coordinates":[130.134,33.175]},"properties":{"Name":"白石社会体育館","Jusho":"佐賀県杵島郡白石町大字遠江75-1","kouzui":"○","gake":"×","takashio":"○","jishin":"○","tsunami":"○","kaji":"○","naisui":"○","kazan":"×"}}
,{"type":"Feature","geometry":{"type":"Point","coordinates":[130.136,33.174]},"properties":{"Name":"白石中学校","Jusho":"佐賀県杵島郡白石町大字遠江143-1","kouzui":"○","gake":"×","takashio":"○","jishin":"○","tsunami":"○","kaji":"○","naisui":"○","kazan":"×"}}
,{"type":"Feature","geometry":{"type":"Point","coordinates":[130.15,33.185]},"properties":{"Name":"白石小学校","Jusho":"佐賀県杵島郡白石町大字福田237１","kouzui":"○","gake":"×","takashio":"×","jishin":"○","tsunami":"○","kaji":"○","naisui":"○","kazan":"×"}}
,{"type":"Feature","geometry":{"type":"Point","coordinates":[130.135,33.19]},"properties":{"Name":"六角小学校","Jusho":"佐賀県杵島郡白石町大字東郷2231","kouzui":"○","gake":"×","takashio":"×","jishin":"○","tsunami":"○","kaji":"○","naisui":"○","kazan":"×"}}
,{"type":"Feature","geometry":{"type":"Point","coordinates":[130.106,33.181]},"properties":{"Name":"須古小学校","Jusho":"佐賀県杵島郡白石町大字堤1463","kouzui":"○","gake":"○","takashio":"×","jishin":"○","tsunami":"○","kaji":"○","naisui":"○","kazan":"×"}}
,{"type":"Feature","geometry":{"type":"Point","coordinates":[130.146,33.168]},"properties":{"Name":"北明小学校","Jusho":"佐賀県杵島郡白石町大字築切205","kouzui":"○","gake":"×","takashio":"○","jishin":"○","tsunami":"○","kaji":"○","naisui":"○","kazan":"×"}}
,{"type":"Feature","geometry":{"type":"Point","coordinates":[130.105,33.18]},"properties":{"Name":"三近堂コミュニティセンター","Jusho":"佐賀県杵島郡白石町大字堤1461","kouzui":"○","gake":"○","takashio":"×","jishin":"○","tsunami":"○","kaji":"○","naisui":"○","kazan":"×"}}
,{"type":"Feature","geometry":{"type":"Point","coordinates":[130.19,33.181]},"properties":{"Name":"福富ゆうあい館","Jusho":"佐賀県杵島郡白石町大字福富3535-1","kouzui":"○","gake":"×","takashio":"○","jishin":"○","tsunami":"○","kaji":"○","naisui":"○","kazan":"×"}}
,{"type":"Feature","geometry":{"type":"Point","coordinates":[130.191,33.183]},"properties":{"Name":"福富社会体育館","Jusho":"佐賀県杵島郡白石町大字福富3508-2","kouzui":"○","gake":"×","takashio":"○","jishin":"○","tsunami":"○","kaji":"○","naisui":"○","kazan":"×"}}
,{"type":"Feature","geometry":{"type":"Point","coordinates":[130.192,33.183]},"properties":{"Name":"福富中学校","Jusho":"佐賀県杵島郡白石町大字福富3499","kouzui":"○","gake":"×","takashio":"○","jishin":"○","tsunami":"○","kaji":"○","naisui":"○","kazan":"×"}}
,{"type":"Feature","geometry":{"type":"Point","coordinates":[130.188,33.185]},"properties":{"Name":"福富小学校","Jusho":"佐賀県杵島郡白石町大字福富3410-2","kouzui":"○","gake":"×","takashio":"○","jishin":"○","tsunami":"○","kaji":"○","naisui":"○","kazan":"×"}}
,{"type":"Feature","geometry":{"type":"Point","coordinates":[130.125,33.145]},"properties":{"Name":"有明スカイパークふれあい郷","Jusho":"佐賀県杵島郡白石町大字戸ケ里3211","kouzui":"○","gake":"○","takashio":"○","jishin":"○","tsunami":"○","kaji":"○","naisui":"○","kazan":"×"}}
,{"type":"Feature","geometry":{"type":"Point","coordinates":[130.123,33.147]},"properties":{"Name":"有明公民館","Jusho":"佐賀県杵島郡白石町大字坂田275-1","kouzui":"○","gake":"○","takashio":"○","jishin":"○","tsunami":"○","kaji":"○","naisui":"○","kazan":"×"}}
,{"type":"Feature","geometry":{"type":"Point","coordinates":[130.123,33.145]},"properties":{"Name":"有明中学校","Jusho":"佐賀県杵島郡白石町大字坂田290-1","kouzui":"○","gake":"○","takashio":"○","jishin":"○","tsunami":"○","kaji":"○","naisui":"○","kazan":"×"}}
,{"type":"Feature","geometry":{"type":"Point","coordinates":[130.145,33.144]},"properties":{"Name":"有明東小学校","Jusho":"佐賀県杵島郡白石町大字牛屋6833-2","kouzui":"○","gake":"×","takashio":"○","jishin":"○","tsunami":"○","kaji":"○","naisui":"○","kazan":"×"}}
,{"type":"Feature","geometry":{"type":"Point","coordinates":[130.117,33.156]},"properties":{"Name":"有明西小学校","Jusho":"佐賀県杵島郡白石町大字戸ケ里1493-1","kouzui":"○","gake":"○","takashio":"×","jishin":"○","tsunami":"○","kaji":"○","naisui":"○","kazan":"×"}}
,{"type":"Feature","geometry":{"type":"Point","coordinates":[130.117,33.138]},"properties":{"Name":"有明南小学校","Jusho":"佐賀県杵島郡白石町大字深浦5581-1","kouzui":"○","gake":"○","takashio":"○","jishin":"○","tsunami":"○","kaji":"○","naisui":"○","kazan":"×"}}
,{"type":"Feature","geometry":{"type":"Point","coordinates":[130.132,33.188]},"properties":{"Name":"県立白石高等学校","Jusho":"佐賀県杵島郡白石町大字今泉138","kouzui":"○","gake":"×","takashio":"○","jishin":"○","tsunami":"○","kaji":"○","naisui":"○","kazan":"×"}}
,{"type":"Feature","geometry":{"type":"Point","coordinates":[130.134,33.183]},"properties":{"Name":"県立佐賀農業高等学校","Jusho":"佐賀県杵島郡白石町大字福田1660","kouzui":"○","gake":"×","takashio":"○","jishin":"○","tsunami":"○","kaji":"○","naisui":"○","kazan":"×"}}
,{"type":"Feature","geometry":{"type":"Point","coordinates":[130.143,33.183]},"properties":{"Name":"白石町総合運動場","Jusho":"佐賀県杵島郡白石町大字福田1420","kouzui":"×","gake":"×","takashio":"×","jishin":"○","tsunami":"×","kaji":"○","naisui":"×","kazan":"×"}}
,{"type":"Feature","geometry":{"type":"Point","coordinates":[130.17,33.047]},"properties":{"Name":"道の駅太良","Jusho":"佐賀県藤津郡太良町大字伊福甲3488-2","kouzui":"○","gake":"○","takashio":"×","jishin":"×","tsunami":"×","kaji":"○","naisui":"○","kazan":"○"}}
,{"type":"Feature","geometry":{"type":"Point","coordinates":[130.171,33.034]},"properties":{"Name":"太良高校グラウンド","Jusho":"佐賀県藤津郡太良町大字多良4212-6","kouzui":"×","gake":"○","takashio":"×","jishin":"×","tsunami":"×","kaji":"○","naisui":"○","kazan":"○"}}
,{"type":"Feature","geometry":{"type":"Point","coordinates":[130.171,33.035]},"properties":{"Name":"太良高校体育館","Jusho":"佐賀県藤津郡太良町大字多良4212-6","kouzui":"○","gake":"○","takashio":"×","jishin":"×","tsunami":"×","kaji":"○","naisui":"○","kazan":"○"}}
,{"type":"Feature","geometry":{"type":"Point","coordinates":[130.176,33.022]},"properties":{"Name":"多良中学校グラウンド","Jusho":"佐賀県藤津郡太良町大字多良39-1","kouzui":"×","gake":"○","takashio":"○","jishin":"○","tsunami":"○","kaji":"○","naisui":"○","kazan":"○"}}
,{"type":"Feature","geometry":{"type":"Point","coordinates":[130.175,33.023]},"properties":{"Name":"多良中体育館","Jusho":"佐賀県藤津郡太良町大字多良1282","kouzui":"○","gake":"○","takashio":"○","jishin":"○","tsunami":"○","kaji":"○","naisui":"○","kazan":"○"}}
,{"type":"Feature","geometry":{"type":"Point","coordinates":[130.175,33.023]},"properties":{"Name":"多良小学校グラウンド","Jusho":"佐賀県藤津郡太良町大字多良1300","kouzui":"×","gake":"○","takashio":"○","jishin":"○","tsunami":"○","kaji":"○","naisui":"○","kazan":"○"}}
,{"type":"Feature","geometry":{"type":"Point","coordinates":[130.175,33.024]},"properties":{"Name":"多良小体育館","Jusho":"佐賀県藤津郡太良町大字多良1264","kouzui":"○","gake":"○","takashio":"○","jishin":"○","tsunami":"○","kaji":"○","naisui":"○","kazan":"○"}}
,{"type":"Feature","geometry":{"type":"Point","coordinates":[130.18,33.019]},"properties":{"Name":"太良町B&G運動広場","Jusho":"佐賀県藤津郡太良町大字多良1-6","kouzui":"×","gake":"○","takashio":"×","jishin":"×","tsunami":"×","kaji":"○","naisui":"○","kazan":"○"}}
,{"type":"Feature","geometry":{"type":"Point","coordinates":[130.18,33.02]},"properties":{"Name":"太良町B&G体育館","Jusho":"佐賀県藤津郡太良町大字多良1-6","kouzui":"○","gake":"○","takashio":"×","jishin":"×","tsunami":"×","kaji":"○","naisui":"○","kazan":"○"}}
,{"type":"Feature","geometry":{"type":"Point","coordinates":[130.215,32.979]},"properties":{"Name":"大浦中学校グラウンド","Jusho":"佐賀県藤津郡太良町大字大浦丙1345-1","kouzui":"×","gake":"○","takashio":"○","jishin":"○","tsunami":"○","kaji":"○","naisui":"○","kazan":"○"}}
,{"type":"Feature","geometry":{"type":"Point","coordinates":[130.213,32.978]},"properties":{"Name":"大浦中体育館","Jusho":"佐賀県藤津郡太良町大字大浦丙1373-1","kouzui":"○","gake":"○","takashio":"○","jishin":"○","tsunami":"○","kaji":"○","naisui":"○","kazan":"○"}}
,{"type":"Feature","geometry":{"type":"Point","coordinates":[130.205,32.973]},"properties":{"Name":"大浦小学校グラウンド","Jusho":"佐賀県藤津郡太良町大字大浦丁348-1","kouzui":"○","gake":"○","takashio":"○","jishin":"○","tsunami":"○","kaji":"○","naisui":"○","kazan":"○"}}
,{"type":"Feature","geometry":{"type":"Point","coordinates":[130.204,32.973]},"properties":{"Name":"大浦小体育館","Jusho":"佐賀県藤津郡太良町大字大浦丁348-1","kouzui":"○","gake":"○","takashio":"○","jishin":"○","tsunami":"○","kaji":"○","naisui":"○","kazan":"○"}}
,{"type":"Feature","geometry":{"type":"Point","coordinates":[130.204,32.974]},"properties":{"Name":"町民体育センター","Jusho":"佐賀県藤津郡太良町大字大浦丁331-1","kouzui":"○","gake":"○","takashio":"○","jishin":"○","tsunami":"○","kaji":"○","naisui":"○","kazan":"○"}}
]};