var shiga={"type":"FeatureCollection","name":"shiga","features":[
{"type":"Feature","geometry":{"type":"Point","coordinates":[135.879,35.007]},"properties":{"Name":"滋賀県立県民交流センター（ピアザ淡海）","Jusho":"滋賀県大津市におの浜1-1-20","kouzui":"×","gake":"○","takashio":"×","jishin":"○","tsunami":"×","kaji":"×","naisui":"○","kazan":"×"}}
,{"type":"Feature","geometry":{"type":"Point","coordinates":[135.887,35.005]},"properties":{"Name":"県立体育館","Jusho":"滋賀県大津市におの浜4-2-12","kouzui":"×","gake":"○","takashio":"×","jishin":"○","tsunami":"×","kaji":"×","naisui":"○","kazan":"×"}}
,{"type":"Feature","geometry":{"type":"Point","coordinates":[135.886,35.005]},"properties":{"Name":"県立武道館","Jusho":"滋賀県大津市におの浜4-2-15","kouzui":"×","gake":"○","takashio":"×","jishin":"○","tsunami":"×","kaji":"×","naisui":"○","kazan":"×"}}
,{"type":"Feature","geometry":{"type":"Point","coordinates":[135.899,34.978]},"properties":{"Name":"東レスタジアム","Jusho":"滋賀県大津市粟津町13","kouzui":"○","gake":"○","takashio":"×","jishin":"○","tsunami":"×","kaji":"×","naisui":"○","kazan":"×"}}
,{"type":"Feature","geometry":{"type":"Point","coordinates":[135.874,35.143]},"properties":{"Name":"伊香立環境交流館","Jusho":"滋賀県大津市伊香立下在地町1222-1","kouzui":"○","gake":"○","takashio":"×","jishin":"○","tsunami":"×","kaji":"×","naisui":"○","kazan":"×"}}
,{"type":"Feature","geometry":{"type":"Point","coordinates":[135.874,35.143]},"properties":{"Name":"伊香立児童クラブ","Jusho":"滋賀県大津市伊香立下在地町1222-1","kouzui":"○","gake":"○","takashio":"×","jishin":"○","tsunami":"×","kaji":"×","naisui":"○","kazan":"×"}}
,{"type":"Feature","geometry":{"type":"Point","coordinates":[135.878,35.15]},"properties":{"Name":"伊香立中学校体育館","Jusho":"滋賀県大津市伊香立下在地町414","kouzui":"○","gake":"○","takashio":"×","jishin":"○","tsunami":"×","kaji":"×","naisui":"○","kazan":"×"}}
,{"type":"Feature","geometry":{"type":"Point","coordinates":[135.879,35.15]},"properties":{"Name":"伊香立中学校グラウンド","Jusho":"滋賀県大津市伊香立下在地町414","kouzui":"○","gake":"○","takashio":"×","jishin":"○","tsunami":"×","kaji":"×","naisui":"○","kazan":"×"}}
,{"type":"Feature","geometry":{"type":"Point","coordinates":[135.893,35.153]},"properties":{"Name":"伊香立保育園グラウンド","Jusho":"滋賀県大津市伊香立下龍華町566","kouzui":"○","gake":"×","takashio":"×","jishin":"○","tsunami":"×","kaji":"×","naisui":"○","kazan":"×"}}
,{"type":"Feature","geometry":{"type":"Point","coordinates":[135.894,35.15]},"properties":{"Name":"伊香立ふれあいセンター","Jusho":"滋賀県大津市伊香立下龍華町584-157","kouzui":"○","gake":"○","takashio":"×","jishin":"○","tsunami":"×","kaji":"×","naisui":"○","kazan":"×"}}
,{"type":"Feature","geometry":{"type":"Point","coordinates":[135.894,35.15]},"properties":{"Name":"伊香立児童館","Jusho":"滋賀県大津市伊香立下龍華町584-157","kouzui":"○","gake":"○","takashio":"×","jishin":"○","tsunami":"×","kaji":"×","naisui":"○","kazan":"×"}}
,{"type":"Feature","geometry":{"type":"Point","coordinates":[135.872,35.142]},"properties":{"Name":"伊香立小学校体育館","Jusho":"滋賀県大津市伊香立生津町132-1","kouzui":"○","gake":"○","takashio":"×","jishin":"○","tsunami":"×","kaji":"×","naisui":"○","kazan":"×"}}
,{"type":"Feature","geometry":{"type":"Point","coordinates":[135.872,35.143]},"properties":{"Name":"伊香立小学校グラウンド","Jusho":"滋賀県大津市伊香立生津町132-1","kouzui":"○","gake":"○","takashio":"×","jishin":"○","tsunami":"×","kaji":"×","naisui":"○","kazan":"×"}}
,{"type":"Feature","geometry":{"type":"Point","coordinates":[135.873,35.142]},"properties":{"Name":"伊香立市民センター","Jusho":"滋賀県大津市伊香立生津町133-1","kouzui":"○","gake":"○","takashio":"×","jishin":"○","tsunami":"×","kaji":"×","naisui":"○","kazan":"×"}}
,{"type":"Feature","geometry":{"type":"Point","coordinates":[135.93,34.984]},"properties":{"Name":"瀬田東幼稚園グラウンド","Jusho":"滋賀県大津市一里山2-20-1","kouzui":"○","gake":"○","takashio":"×","jishin":"○","tsunami":"×","kaji":"×","naisui":"○","kazan":"×"}}
,{"type":"Feature","geometry":{"type":"Point","coordinates":[135.93,34.984]},"properties":{"Name":"瀬田東幼稚園","Jusho":"滋賀県大津市一里山2-20-1","kouzui":"○","gake":"○","takashio":"×","jishin":"○","tsunami":"×","kaji":"×","naisui":"○","kazan":"×"}}
,{"type":"Feature","geometry":{"type":"Point","coordinates":[135.931,34.983]},"properties":{"Name":"瀬田東小学校グラウンド","Jusho":"滋賀県大津市一里山2-20-2","kouzui":"○","gake":"○","takashio":"×","jishin":"○","tsunami":"×","kaji":"×","naisui":"×","kazan":"×"}}
,{"type":"Feature","geometry":{"type":"Point","coordinates":[135.931,34.982]},"properties":{"Name":"瀬田東小学校体育館","Jusho":"滋賀県大津市一里山2-20-2","kouzui":"○","gake":"○","takashio":"×","jishin":"○","tsunami":"×","kaji":"×","naisui":"○","kazan":"×"}}
,{"type":"Feature","geometry":{"type":"Point","coordinates":[135.935,34.985]},"properties":{"Name":"一里山公園","Jusho":"滋賀県大津市一里山3-16","kouzui":"○","gake":"○","takashio":"×","jishin":"○","tsunami":"×","kaji":"×","naisui":"×","kazan":"×"}}
,{"type":"Feature","geometry":{"type":"Point","coordinates":[135.934,34.985]},"properties":{"Name":"瀬田東市民センター","Jusho":"滋賀県大津市一里山3-16-1","kouzui":"○","gake":"○","takashio":"×","jishin":"○","tsunami":"×","kaji":"×","naisui":"○","kazan":"×"}}
,{"type":"Feature","geometry":{"type":"Point","coordinates":[135.935,34.985]},"properties":{"Name":"一里山公園緑のふれあいセンター","Jusho":"滋賀県大津市一里山3-16-1","kouzui":"○","gake":"○","takashio":"×","jishin":"○","tsunami":"×","kaji":"×","naisui":"○","kazan":"×"}}
,{"type":"Feature","geometry":{"type":"Point","coordinates":[135.935,34.976]},"properties":{"Name":"瀬田公園","Jusho":"滋賀県大津市一里山6-9","kouzui":"○","gake":"○","takashio":"×","jishin":"○","tsunami":"×","kaji":"○","naisui":"×","kazan":"×"}}
,{"type":"Feature","geometry":{"type":"Point","coordinates":[135.939,34.977]},"properties":{"Name":"瀬田公園体育館","Jusho":"滋賀県大津市一里山6-9","kouzui":"○","gake":"○","takashio":"×","jishin":"○","tsunami":"×","kaji":"×","naisui":"○","kazan":"×"}}
,{"type":"Feature","geometry":{"type":"Point","coordinates":[135.915,34.947]},"properties":{"Name":"田上市民体育館","Jusho":"滋賀県大津市稲津1-10-18","kouzui":"○","gake":"○","takashio":"×","jishin":"×","tsunami":"×","kaji":"×","naisui":"○","kazan":"×"}}
,{"type":"Feature","geometry":{"type":"Point","coordinates":[135.915,34.947]},"properties":{"Name":"南ふれあいセンター","Jusho":"滋賀県大津市稲津1-10-20","kouzui":"○","gake":"○","takashio":"×","jishin":"×","tsunami":"×","kaji":"×","naisui":"○","kazan":"×"}}
,{"type":"Feature","geometry":{"type":"Point","coordinates":[135.914,34.946]},"properties":{"Name":"稲津南児童公園","Jusho":"滋賀県大津市稲津1-14","kouzui":"○","gake":"○","takashio":"×","jishin":"○","tsunami":"×","kaji":"×","naisui":"×","kazan":"×"}}
,{"type":"Feature","geometry":{"type":"Point","coordinates":[135.914,34.946]},"properties":{"Name":"田上児童館","Jusho":"滋賀県大津市稲津1-14-30","kouzui":"○","gake":"○","takashio":"×","jishin":"○","tsunami":"×","kaji":"×","naisui":"×","kazan":"×"}}
,{"type":"Feature","geometry":{"type":"Point","coordinates":[135.918,34.944]},"properties":{"Name":"湖南台地西児童公園","Jusho":"滋賀県大津市稲津3-18","kouzui":"○","gake":"○","takashio":"×","jishin":"○","tsunami":"×","kaji":"×","naisui":"○","kazan":"×"}}
,{"type":"Feature","geometry":{"type":"Point","coordinates":[135.92,34.945]},"properties":{"Name":"湖南台地東児童公園","Jusho":"滋賀県大津市稲津3-6","kouzui":"○","gake":"×","takashio":"×","jishin":"○","tsunami":"×","kaji":"×","naisui":"×","kazan":"×"}}
,{"type":"Feature","geometry":{"type":"Point","coordinates":[135.887,34.978]},"properties":{"Name":"園山公園","Jusho":"滋賀県大津市園山2-11","kouzui":"○","gake":"○","takashio":"×","jishin":"○","tsunami":"×","kaji":"○","naisui":"○","kazan":"×"}}
,{"type":"Feature","geometry":{"type":"Point","coordinates":[135.886,34.981]},"properties":{"Name":"富士見市民センター","Jusho":"滋賀県大津市園山2-15-33","kouzui":"○","gake":"○","takashio":"×","jishin":"○","tsunami":"×","kaji":"×","naisui":"○","kazan":"×"}}
,{"type":"Feature","geometry":{"type":"Point","coordinates":[135.833,34.993]},"properties":{"Name":"藤尾市民センター","Jusho":"滋賀県大津市横木2-4-1","kouzui":"○","gake":"○","takashio":"×","jishin":"○","tsunami":"×","kaji":"×","naisui":"○","kazan":"×"}}
,{"type":"Feature","geometry":{"type":"Point","coordinates":[135.865,35.001]},"properties":{"Name":"逢坂小学校グラウンド","Jusho":"滋賀県大津市音羽台6-1","kouzui":"○","gake":"○","takashio":"×","jishin":"○","tsunami":"×","kaji":"×","naisui":"×","kazan":"×"}}
,{"type":"Feature","geometry":{"type":"Point","coordinates":[135.864,35.002]},"properties":{"Name":"逢坂小学校体育館","Jusho":"滋賀県大津市音羽台6-1","kouzui":"○","gake":"○","takashio":"×","jishin":"○","tsunami":"×","kaji":"×","naisui":"○","kazan":"×"}}
,{"type":"Feature","geometry":{"type":"Point","coordinates":[135.864,35.002]},"properties":{"Name":"逢坂幼稚園","Jusho":"滋賀県大津市音羽台6-2","kouzui":"○","gake":"○","takashio":"×","jishin":"○","tsunami":"×","kaji":"×","naisui":"○","kazan":"×"}}
,{"type":"Feature","geometry":{"type":"Point","coordinates":[135.864,35.002]},"properties":{"Name":"逢坂幼稚園グラウンド","Jusho":"滋賀県大津市音羽台6-2","kouzui":"○","gake":"○","takashio":"×","jishin":"○","tsunami":"×","kaji":"×","naisui":"○","kazan":"×"}}
,{"type":"Feature","geometry":{"type":"Point","coordinates":[135.866,35.001]},"properties":{"Name":"逢坂保育園グラウンド","Jusho":"滋賀県大津市音羽台6-20","kouzui":"○","gake":"○","takashio":"×","jishin":"○","tsunami":"×","kaji":"×","naisui":"×","kazan":"×"}}
,{"type":"Feature","geometry":{"type":"Point","coordinates":[135.876,35.062]},"properties":{"Name":"下阪本市民センター","Jusho":"滋賀県大津市下阪本3-14-30","kouzui":"○","gake":"○","takashio":"×","jishin":"○","tsunami":"×","kaji":"×","naisui":"○","kazan":"×"}}
,{"type":"Feature","geometry":{"type":"Point","coordinates":[135.877,35.063]},"properties":{"Name":"下阪本小学校体育館","Jusho":"滋賀県大津市下阪本4-10-1","kouzui":"○","gake":"○","takashio":"×","jishin":"○","tsunami":"×","kaji":"×","naisui":"○","kazan":"×"}}
,{"type":"Feature","geometry":{"type":"Point","coordinates":[135.877,35.063]},"properties":{"Name":"下阪本小学校グラウンド","Jusho":"滋賀県大津市下阪本4-10-1","kouzui":"○","gake":"○","takashio":"×","jishin":"○","tsunami":"×","kaji":"×","naisui":"×","kazan":"×"}}
,{"type":"Feature","geometry":{"type":"Point","coordinates":[135.877,35.065]},"properties":{"Name":"下阪本幼稚園グラウンド","Jusho":"滋賀県大津市下阪本4-15-12","kouzui":"○","gake":"○","takashio":"×","jishin":"○","tsunami":"×","kaji":"×","naisui":"○","kazan":"×"}}
,{"type":"Feature","geometry":{"type":"Point","coordinates":[135.876,35.065]},"properties":{"Name":"下阪本幼稚園","Jusho":"滋賀県大津市下阪本4-15-12","kouzui":"○","gake":"○","takashio":"×","jishin":"○","tsunami":"×","kaji":"×","naisui":"○","kazan":"×"}}
,{"type":"Feature","geometry":{"type":"Point","coordinates":[135.885,35.066]},"properties":{"Name":"新唐崎公園","Jusho":"滋賀県大津市下阪本6-2","kouzui":"×","gake":"○","takashio":"×","jishin":"○","tsunami":"×","kaji":"×","naisui":"×","kazan":"×"}}
,{"type":"Feature","geometry":{"type":"Point","coordinates":[135.879,35.068]},"properties":{"Name":"日吉中学校グラウンド","Jusho":"滋賀県大津市下阪本6-38-26","kouzui":"○","gake":"○","takashio":"×","jishin":"○","tsunami":"×","kaji":"×","naisui":"×","kazan":"×"}}
,{"type":"Feature","geometry":{"type":"Point","coordinates":[135.879,35.069]},"properties":{"Name":"日吉中学校体育館","Jusho":"滋賀県大津市下阪本6-38-26","kouzui":"○","gake":"○","takashio":"×","jishin":"○","tsunami":"×","kaji":"×","naisui":"○","kazan":"×"}}
,{"type":"Feature","geometry":{"type":"Point","coordinates":[135.915,35.139]},"properties":{"Name":"花園児童公園","Jusho":"滋賀県大津市花園町13","kouzui":"○","gake":"○","takashio":"×","jishin":"○","tsunami":"×","kaji":"×","naisui":"○","kazan":"×"}}
,{"type":"Feature","geometry":{"type":"Point","coordinates":[135.916,35.139]},"properties":{"Name":"麗湖こども園","Jusho":"滋賀県大津市花園町13-36","kouzui":"○","gake":"○","takashio":"×","jishin":"○","tsunami":"×","kaji":"×","naisui":"○","kazan":"×"}}
,{"type":"Feature","geometry":{"type":"Point","coordinates":[135.916,35.139]},"properties":{"Name":"麗湖こども園グラウンド","Jusho":"滋賀県大津市花園町13-36","kouzui":"○","gake":"○","takashio":"×","jishin":"○","tsunami":"×","kaji":"×","naisui":"○","kazan":"×"}}
,{"type":"Feature","geometry":{"type":"Point","coordinates":[135.863,35.234]},"properties":{"Name":"葛川小学校校舎","Jusho":"滋賀県大津市葛川中村町108-1","kouzui":"○","gake":"○","takashio":"×","jishin":"○","tsunami":"×","kaji":"×","naisui":"○","kazan":"×"}}
,{"type":"Feature","geometry":{"type":"Point","coordinates":[135.863,35.234]},"properties":{"Name":"葛川保育園","Jusho":"滋賀県大津市葛川中村町108-1","kouzui":"○","gake":"○","takashio":"×","jishin":"○","tsunami":"×","kaji":"×","naisui":"○","kazan":"×"}}
,{"type":"Feature","geometry":{"type":"Point","coordinates":[135.863,35.233]},"properties":{"Name":"葛川小・中学校グラウンド","Jusho":"滋賀県大津市葛川中村町108-1","kouzui":"○","gake":"×","takashio":"×","jishin":"○","tsunami":"×","kaji":"×","naisui":"○","kazan":"×"}}
,{"type":"Feature","geometry":{"type":"Point","coordinates":[135.863,35.234]},"properties":{"Name":"葛川中学校校舎","Jusho":"滋賀県大津市葛川中村町108-1","kouzui":"○","gake":"○","takashio":"×","jishin":"○","tsunami":"×","kaji":"×","naisui":"○","kazan":"×"}}
,{"type":"Feature","geometry":{"type":"Point","coordinates":[135.867,35.247]},"properties":{"Name":"葛川市民センター","Jusho":"滋賀県大津市葛川坊村町237-37","kouzui":"○","gake":"○","takashio":"×","jishin":"○","tsunami":"×","kaji":"×","naisui":"○","kazan":"×"}}
,{"type":"Feature","geometry":{"type":"Point","coordinates":[135.866,35.244]},"properties":{"Name":"葛川少年自然の家","Jusho":"滋賀県大津市葛川坊村町243","kouzui":"○","gake":"○","takashio":"×","jishin":"○","tsunami":"×","kaji":"×","naisui":"○","kazan":"×"}}
,{"type":"Feature","geometry":{"type":"Point","coordinates":[135.857,35.035]},"properties":{"Name":"志賀幼稚園グラウンド","Jusho":"滋賀県大津市勧学1-8-1","kouzui":"○","gake":"○","takashio":"×","jishin":"○","tsunami":"×","kaji":"×","naisui":"×","kazan":"×"}}
,{"type":"Feature","geometry":{"type":"Point","coordinates":[135.858,35.035]},"properties":{"Name":"志賀幼稚園","Jusho":"滋賀県大津市勧学1-8-1","kouzui":"○","gake":"○","takashio":"×","jishin":"○","tsunami":"×","kaji":"×","naisui":"○","kazan":"×"}}
,{"type":"Feature","geometry":{"type":"Point","coordinates":[135.93,34.934]},"properties":{"Name":"田上幼稚園","Jusho":"滋賀県大津市関津6-19-8","kouzui":"○","gake":"○","takashio":"×","jishin":"○","tsunami":"×","kaji":"×","naisui":"○","kazan":"×"}}
,{"type":"Feature","geometry":{"type":"Point","coordinates":[135.93,34.934]},"properties":{"Name":"田上幼稚園グラウンド","Jusho":"滋賀県大津市関津6-19-8","kouzui":"○","gake":"○","takashio":"×","jishin":"○","tsunami":"×","kaji":"×","naisui":"○","kazan":"×"}}
,{"type":"Feature","geometry":{"type":"Point","coordinates":[135.866,35.004]},"properties":{"Name":"逢坂市民センター","Jusho":"滋賀県大津市京町3-1-3","kouzui":"○","gake":"○","takashio":"×","jishin":"○","tsunami":"×","kaji":"×","naisui":"○","kazan":"×"}}
,{"type":"Feature","geometry":{"type":"Point","coordinates":[135.881,35.109]},"properties":{"Name":"旧仰木幼稚園グラウンド","Jusho":"滋賀県大津市仰木4-1-30","kouzui":"○","gake":"○","takashio":"×","jishin":"○","tsunami":"×","kaji":"×","naisui":"○","kazan":"×"}}
,{"type":"Feature","geometry":{"type":"Point","coordinates":[135.882,35.108]},"properties":{"Name":"仰木市民センター","Jusho":"滋賀県大津市仰木4-15-11","kouzui":"○","gake":"○","takashio":"×","jishin":"○","tsunami":"×","kaji":"×","naisui":"○","kazan":"×"}}
,{"type":"Feature","geometry":{"type":"Point","coordinates":[135.883,35.109]},"properties":{"Name":"仰木小学校グラウンド","Jusho":"滋賀県大津市仰木4-15-8","kouzui":"○","gake":"○","takashio":"×","jishin":"○","tsunami":"×","kaji":"×","naisui":"○","kazan":"×"}}
,{"type":"Feature","geometry":{"type":"Point","coordinates":[135.882,35.109]},"properties":{"Name":"仰木小学校体育館","Jusho":"滋賀県大津市仰木4-15-8","kouzui":"○","gake":"○","takashio":"×","jishin":"○","tsunami":"×","kaji":"×","naisui":"○","kazan":"×"}}
,{"type":"Feature","geometry":{"type":"Point","coordinates":[135.88,35.108]},"properties":{"Name":"仰木太鼓会館","Jusho":"滋賀県大津市仰木4-2-50","kouzui":"○","gake":"○","takashio":"×","jishin":"○","tsunami":"×","kaji":"×","naisui":"○","kazan":"×"}}
,{"type":"Feature","geometry":{"type":"Point","coordinates":[135.893,35.103]},"properties":{"Name":"滋賀県立北大津高校体育館","Jusho":"滋賀県大津市仰木の里1-23-1","kouzui":"○","gake":"○","takashio":"×","jishin":"○","tsunami":"×","kaji":"×","naisui":"○","kazan":"×"}}
,{"type":"Feature","geometry":{"type":"Point","coordinates":[135.889,35.103]},"properties":{"Name":"仰木西公園・北大津高校グラウンド","Jusho":"滋賀県大津市仰木の里1-28","kouzui":"○","gake":"○","takashio":"×","jishin":"○","tsunami":"×","kaji":"○","naisui":"○","kazan":"×"}}
,{"type":"Feature","geometry":{"type":"Point","coordinates":[135.888,35.102]},"properties":{"Name":"認定こども園はぐくみの家仰木星の子　駐車場","Jusho":"滋賀県大津市仰木の里1-28-1","kouzui":"○","gake":"○","takashio":"×","jishin":"○","tsunami":"×","kaji":"×","naisui":"○","kazan":"×"}}
,{"type":"Feature","geometry":{"type":"Point","coordinates":[135.888,35.106]},"properties":{"Name":"仰木の里幼稚園","Jusho":"滋賀県大津市仰木の里3-10-1","kouzui":"○","gake":"○","takashio":"×","jishin":"○","tsunami":"×","kaji":"×","naisui":"○","kazan":"×"}}
,{"type":"Feature","geometry":{"type":"Point","coordinates":[135.888,35.106]},"properties":{"Name":"仰木の里幼稚園グラウンド","Jusho":"滋賀県大津市仰木の里3-10-1","kouzui":"○","gake":"○","takashio":"×","jishin":"○","tsunami":"×","kaji":"×","naisui":"○","kazan":"×"}}
,{"type":"Feature","geometry":{"type":"Point","coordinates":[135.892,35.107]},"properties":{"Name":"仰木の里小学校体育館","Jusho":"滋賀県大津市仰木の里4-4-1","kouzui":"○","gake":"○","takashio":"×","jishin":"○","tsunami":"×","kaji":"×","naisui":"○","kazan":"×"}}
,{"type":"Feature","geometry":{"type":"Point","coordinates":[135.892,35.106]},"properties":{"Name":"仰木の里小学校グラウンド","Jusho":"滋賀県大津市仰木の里4-4-1","kouzui":"○","gake":"○","takashio":"×","jishin":"○","tsunami":"×","kaji":"×","naisui":"○","kazan":"×"}}
,{"type":"Feature","geometry":{"type":"Point","coordinates":[135.89,35.108]},"properties":{"Name":"仰木中学校体育館","Jusho":"滋賀県大津市仰木の里5-1-1","kouzui":"○","gake":"○","takashio":"×","jishin":"○","tsunami":"×","kaji":"×","naisui":"○","kazan":"×"}}
,{"type":"Feature","geometry":{"type":"Point","coordinates":[135.89,35.107]},"properties":{"Name":"仰木中学校グラウンド","Jusho":"滋賀県大津市仰木の里5-1-1","kouzui":"○","gake":"○","takashio":"×","jishin":"○","tsunami":"×","kaji":"×","naisui":"○","kazan":"×"}}
,{"type":"Feature","geometry":{"type":"Point","coordinates":[135.894,35.109]},"properties":{"Name":"仰木の里市民センター","Jusho":"滋賀県大津市仰木の里7-1-25","kouzui":"○","gake":"○","takashio":"×","jishin":"○","tsunami":"×","kaji":"×","naisui":"○","kazan":"×"}}
,{"type":"Feature","geometry":{"type":"Point","coordinates":[135.898,35.105]},"properties":{"Name":"仰木東公園","Jusho":"滋賀県大津市仰木の里東2-15","kouzui":"○","gake":"○","takashio":"×","jishin":"○","tsunami":"×","kaji":"×","naisui":"×","kazan":"×"}}
,{"type":"Feature","geometry":{"type":"Point","coordinates":[135.899,35.102]},"properties":{"Name":"せんだん保育園駐車場","Jusho":"滋賀県大津市仰木の里東2-2-5","kouzui":"○","gake":"○","takashio":"×","jishin":"○","tsunami":"×","kaji":"×","naisui":"○","kazan":"×"}}
,{"type":"Feature","geometry":{"type":"Point","coordinates":[135.901,35.109]},"properties":{"Name":"仰木の里東小学校体育館","Jusho":"滋賀県大津市仰木の里東6-1-1","kouzui":"○","gake":"○","takashio":"×","jishin":"○","tsunami":"×","kaji":"×","naisui":"○","kazan":"×"}}
,{"type":"Feature","geometry":{"type":"Point","coordinates":[135.901,35.109]},"properties":{"Name":"仰木の里東小学校グラウンド","Jusho":"滋賀県大津市仰木の里東6-1-1","kouzui":"○","gake":"○","takashio":"×","jishin":"○","tsunami":"×","kaji":"×","naisui":"×","kazan":"×"}}
,{"type":"Feature","geometry":{"type":"Point","coordinates":[135.9,35.109]},"properties":{"Name":"仰木の里東幼稚園グラウンド","Jusho":"滋賀県大津市仰木の里東6-4-1","kouzui":"○","gake":"○","takashio":"×","jishin":"○","tsunami":"×","kaji":"×","naisui":"○","kazan":"×"}}
,{"type":"Feature","geometry":{"type":"Point","coordinates":[135.899,35.109]},"properties":{"Name":"仰木の里東幼稚園","Jusho":"滋賀県大津市仰木の里東6-4-1","kouzui":"○","gake":"○","takashio":"×","jishin":"○","tsunami":"×","kaji":"×","naisui":"○","kazan":"×"}}
,{"type":"Feature","geometry":{"type":"Point","coordinates":[135.932,34.99]},"properties":{"Name":"月輪自動車教習所","Jusho":"滋賀県大津市月輪1-6-1","kouzui":"○","gake":"○","takashio":"×","jishin":"○","tsunami":"×","kaji":"×","naisui":"○","kazan":"×"}}
,{"type":"Feature","geometry":{"type":"Point","coordinates":[135.946,34.98]},"properties":{"Name":"月輪大池公園","Jusho":"滋賀県大津市月輪4-1","kouzui":"○","gake":"○","takashio":"×","jishin":"○","tsunami":"×","kaji":"×","naisui":"×","kazan":"×"}}
,{"type":"Feature","geometry":{"type":"Point","coordinates":[135.911,35.112]},"properties":{"Name":"北部地域文化センター","Jusho":"滋賀県大津市堅田2-1-11","kouzui":"○","gake":"○","takashio":"×","jishin":"○","tsunami":"×","kaji":"×","naisui":"○","kazan":"×"}}
,{"type":"Feature","geometry":{"type":"Point","coordinates":[135.88,34.994]},"properties":{"Name":"湖城が丘街区公園","Jusho":"滋賀県大津市湖城が丘33","kouzui":"○","gake":"○","takashio":"×","jishin":"○","tsunami":"×","kaji":"×","naisui":"○","kazan":"×"}}
,{"type":"Feature","geometry":{"type":"Point","coordinates":[135.922,35.142]},"properties":{"Name":"小野市民センター","Jusho":"滋賀県大津市湖青1-1-2","kouzui":"○","gake":"○","takashio":"×","jishin":"○","tsunami":"×","kaji":"×","naisui":"○","kazan":"×"}}
,{"type":"Feature","geometry":{"type":"Point","coordinates":[135.854,35.016]},"properties":{"Name":"滋賀県立大津商業高校体育館","Jusho":"滋賀県大津市御陵町2-1","kouzui":"○","gake":"○","takashio":"×","jishin":"○","tsunami":"×","kaji":"×","naisui":"○","kazan":"×"}}
,{"type":"Feature","geometry":{"type":"Point","coordinates":[135.854,35.016]},"properties":{"Name":"滋賀県立大津商業高校グラウンド","Jusho":"滋賀県大津市御陵町2-1","kouzui":"○","gake":"×","takashio":"×","jishin":"○","tsunami":"×","kaji":"×","naisui":"×","kazan":"×"}}
,{"type":"Feature","geometry":{"type":"Point","coordinates":[135.853,35.016]},"properties":{"Name":"市民文化会館","Jusho":"滋賀県大津市御陵町2-3","kouzui":"○","gake":"○","takashio":"×","jishin":"○","tsunami":"×","kaji":"×","naisui":"○","kazan":"×"}}
,{"type":"Feature","geometry":{"type":"Point","coordinates":[135.857,35.019]},"properties":{"Name":"皇子山総合運動公園","Jusho":"滋賀県大津市御陵町4","kouzui":"×","gake":"○","takashio":"×","jishin":"○","tsunami":"×","kaji":"○","naisui":"×","kazan":"×"}}
,{"type":"Feature","geometry":{"type":"Point","coordinates":[135.856,35.022]},"properties":{"Name":"県立スポーツ会館","Jusho":"滋賀県大津市御陵町4-1","kouzui":"○","gake":"○","takashio":"×","jishin":"○","tsunami":"×","kaji":"×","naisui":"○","kazan":"×"}}
,{"type":"Feature","geometry":{"type":"Point","coordinates":[135.898,34.972]},"properties":{"Name":"晴嵐小学校体育館","Jusho":"滋賀県大津市光が丘町4-70","kouzui":"○","gake":"○","takashio":"×","jishin":"○","tsunami":"×","kaji":"×","naisui":"○","kazan":"×"}}
,{"type":"Feature","geometry":{"type":"Point","coordinates":[135.897,34.972]},"properties":{"Name":"晴嵐小学校グラウンド","Jusho":"滋賀県大津市光が丘町4-70","kouzui":"○","gake":"○","takashio":"×","jishin":"○","tsunami":"×","kaji":"×","naisui":"○","kazan":"×"}}
,{"type":"Feature","geometry":{"type":"Point","coordinates":[135.897,34.971]},"properties":{"Name":"晴嵐保育園グラウンド","Jusho":"滋賀県大津市光が丘町5-10","kouzui":"○","gake":"○","takashio":"×","jishin":"○","tsunami":"×","kaji":"×","naisui":"○","kazan":"×"}}
,{"type":"Feature","geometry":{"type":"Point","coordinates":[135.917,35.138]},"properties":{"Name":"真野保育園","Jusho":"滋賀県大津市向陽町4-2","kouzui":"○","gake":"○","takashio":"×","jishin":"○","tsunami":"×","kaji":"×","naisui":"○","kazan":"×"}}
,{"type":"Feature","geometry":{"type":"Point","coordinates":[135.851,35.024]},"properties":{"Name":"皇子が丘公園","Jusho":"滋賀県大津市皇子が丘1-1","kouzui":"○","gake":"×","takashio":"×","jishin":"○","tsunami":"×","kaji":"○","naisui":"×","kazan":"×"}}
,{"type":"Feature","geometry":{"type":"Point","coordinates":[135.855,35.024]},"properties":{"Name":"皇子が丘公園体育館","Jusho":"滋賀県大津市皇子が丘1-1-1","kouzui":"○","gake":"○","takashio":"×","jishin":"○","tsunami":"×","kaji":"×","naisui":"○","kazan":"×"}}
,{"type":"Feature","geometry":{"type":"Point","coordinates":[135.852,35.025]},"properties":{"Name":"皇子が丘公園第二体育館","Jusho":"滋賀県大津市皇子が丘1-1-50","kouzui":"○","gake":"○","takashio":"×","jishin":"○","tsunami":"×","kaji":"×","naisui":"○","kazan":"×"}}
,{"type":"Feature","geometry":{"type":"Point","coordinates":[135.852,35.026]},"properties":{"Name":"皇子が丘保育園グラウンド","Jusho":"滋賀県大津市皇子が丘1-20-20","kouzui":"○","gake":"○","takashio":"×","jishin":"○","tsunami":"×","kaji":"×","naisui":"×","kazan":"×"}}
,{"type":"Feature","geometry":{"type":"Point","coordinates":[135.854,35.026]},"properties":{"Name":"中ふれあいセンター","Jusho":"滋賀県大津市皇子が丘1-9-10","kouzui":"○","gake":"○","takashio":"×","jishin":"×","tsunami":"×","kaji":"×","naisui":"○","kazan":"×"}}
,{"type":"Feature","geometry":{"type":"Point","coordinates":[135.927,35.206]},"properties":{"Name":"木戸小学校体育館","Jusho":"滋賀県大津市荒川1000","kouzui":"○","gake":"○","takashio":"×","jishin":"○","tsunami":"×","kaji":"×","naisui":"○","kazan":"×"}}
,{"type":"Feature","geometry":{"type":"Point","coordinates":[135.926,35.206]},"properties":{"Name":"木戸小学校グラウンド","Jusho":"滋賀県大津市荒川1000","kouzui":"○","gake":"○","takashio":"×","jishin":"○","tsunami":"×","kaji":"×","naisui":"×","kazan":"×"}}
,{"type":"Feature","geometry":{"type":"Point","coordinates":[135.928,35.206]},"properties":{"Name":"志賀北幼稚園","Jusho":"滋賀県大津市荒川880","kouzui":"○","gake":"○","takashio":"×","jishin":"○","tsunami":"×","kaji":"×","naisui":"×","kazan":"×"}}
,{"type":"Feature","geometry":{"type":"Point","coordinates":[135.897,34.969]},"properties":{"Name":"滋賀県立石山高校グラウンド","Jusho":"滋賀県大津市国分1-15-1","kouzui":"○","gake":"○","takashio":"×","jishin":"○","tsunami":"×","kaji":"×","naisui":"○","kazan":"×"}}
,{"type":"Feature","geometry":{"type":"Point","coordinates":[135.896,34.968]},"properties":{"Name":"滋賀県立石山高校体育館","Jusho":"滋賀県大津市国分1-15-1","kouzui":"○","gake":"○","takashio":"×","jishin":"○","tsunami":"×","kaji":"×","naisui":"○","kazan":"×"}}
,{"type":"Feature","geometry":{"type":"Point","coordinates":[135.912,34.94]},"properties":{"Name":"南郷水産センター駐車場","Jusho":"滋賀県大津市黒津4-3","kouzui":"×","gake":"○","takashio":"×","jishin":"○","tsunami":"×","kaji":"×","naisui":"×","kazan":"×"}}
,{"type":"Feature","geometry":{"type":"Point","coordinates":[135.865,35.044]},"properties":{"Name":"唐崎幼稚園","Jusho":"滋賀県大津市際川3-38-2","kouzui":"○","gake":"○","takashio":"×","jishin":"×","tsunami":"×","kaji":"×","naisui":"○","kazan":"×"}}
,{"type":"Feature","geometry":{"type":"Point","coordinates":[135.866,35.043]},"properties":{"Name":"唐崎幼稚園グラウンド","Jusho":"滋賀県大津市際川3-38-2","kouzui":"○","gake":"○","takashio":"×","jishin":"○","tsunami":"×","kaji":"×","naisui":"×","kazan":"×"}}
,{"type":"Feature","geometry":{"type":"Point","coordinates":[135.867,35.045]},"properties":{"Name":"唐崎小学校グラウンド","Jusho":"滋賀県大津市際川4-7-1","kouzui":"○","gake":"○","takashio":"×","jishin":"○","tsunami":"×","kaji":"×","naisui":"×","kazan":"×"}}
,{"type":"Feature","geometry":{"type":"Point","coordinates":[135.867,35.045]},"properties":{"Name":"唐崎小学校体育館","Jusho":"滋賀県大津市際川4-7-1","kouzui":"○","gake":"○","takashio":"×","jishin":"○","tsunami":"×","kaji":"×","naisui":"○","kazan":"×"}}
,{"type":"Feature","geometry":{"type":"Point","coordinates":[135.865,35.058]},"properties":{"Name":"比叡山高等学校グラウンド","Jusho":"滋賀県大津市坂本1-2","kouzui":"○","gake":"○","takashio":"×","jishin":"○","tsunami":"×","kaji":"×","naisui":"○","kazan":"×"}}
,{"type":"Feature","geometry":{"type":"Point","coordinates":[135.873,35.069]},"properties":{"Name":"坂本小学校体育館","Jusho":"滋賀県大津市坂本3-12-57","kouzui":"○","gake":"○","takashio":"×","jishin":"○","tsunami":"×","kaji":"×","naisui":"○","kazan":"×"}}
,{"type":"Feature","geometry":{"type":"Point","coordinates":[135.873,35.068]},"properties":{"Name":"坂本小学校グラウンド","Jusho":"滋賀県大津市坂本3-12-57","kouzui":"○","gake":"○","takashio":"×","jishin":"○","tsunami":"×","kaji":"×","naisui":"×","kazan":"×"}}
,{"type":"Feature","geometry":{"type":"Point","coordinates":[135.865,35.07]},"properties":{"Name":"比叡山高等学校本館","Jusho":"滋賀県大津市坂本4-3-1","kouzui":"○","gake":"○","takashio":"×","jishin":"○","tsunami":"×","kaji":"×","naisui":"○","kazan":"×"}}
,{"type":"Feature","geometry":{"type":"Point","coordinates":[135.867,35.071]},"properties":{"Name":"比叡山中学校体育館","Jusho":"滋賀県大津市坂本4-5","kouzui":"○","gake":"○","takashio":"×","jishin":"○","tsunami":"×","kaji":"×","naisui":"○","kazan":"×"}}
,{"type":"Feature","geometry":{"type":"Point","coordinates":[135.869,35.078]},"properties":{"Name":"坂本市民運動広場","Jusho":"滋賀県大津市坂本5-16","kouzui":"○","gake":"×","takashio":"×","jishin":"○","tsunami":"×","kaji":"×","naisui":"○","kazan":"×"}}
,{"type":"Feature","geometry":{"type":"Point","coordinates":[135.871,35.072]},"properties":{"Name":"坂本市民格技場","Jusho":"滋賀県大津市坂本6-1-11","kouzui":"○","gake":"○","takashio":"×","jishin":"○","tsunami":"×","kaji":"×","naisui":"○","kazan":"×"}}
,{"type":"Feature","geometry":{"type":"Point","coordinates":[135.871,35.071]},"properties":{"Name":"坂本市民センター","Jusho":"滋賀県大津市坂本6-1-12","kouzui":"○","gake":"○","takashio":"×","jishin":"○","tsunami":"×","kaji":"×","naisui":"○","kazan":"×"}}
,{"type":"Feature","geometry":{"type":"Point","coordinates":[135.871,35.072]},"properties":{"Name":"坂本幼稚園","Jusho":"滋賀県大津市坂本6-1-12","kouzui":"○","gake":"○","takashio":"×","jishin":"○","tsunami":"×","kaji":"×","naisui":"○","kazan":"×"}}
,{"type":"Feature","geometry":{"type":"Point","coordinates":[135.871,35.071]},"properties":{"Name":"坂本市民センター前広場","Jusho":"滋賀県大津市坂本6-1-12","kouzui":"○","gake":"○","takashio":"×","jishin":"○","tsunami":"×","kaji":"×","naisui":"○","kazan":"×"}}
,{"type":"Feature","geometry":{"type":"Point","coordinates":[135.871,35.072]},"properties":{"Name":"坂本幼稚園グラウンド","Jusho":"滋賀県大津市坂本6-1-12","kouzui":"○","gake":"○","takashio":"×","jishin":"○","tsunami":"×","kaji":"×","naisui":"○","kazan":"×"}}
,{"type":"Feature","geometry":{"type":"Point","coordinates":[135.875,35.077]},"properties":{"Name":"坂本市民体育館","Jusho":"滋賀県大津市坂本6-33-19","kouzui":"○","gake":"○","takashio":"×","jishin":"×","tsunami":"×","kaji":"×","naisui":"○","kazan":"×"}}
,{"type":"Feature","geometry":{"type":"Point","coordinates":[135.874,35.077]},"properties":{"Name":"比叡ふれあいセンター","Jusho":"滋賀県大津市坂本6-33-19","kouzui":"○","gake":"○","takashio":"×","jishin":"×","tsunami":"×","kaji":"×","naisui":"○","kazan":"×"}}
,{"type":"Feature","geometry":{"type":"Point","coordinates":[135.873,35.08]},"properties":{"Name":"坂本天満宮多目的広場","Jusho":"滋賀県大津市坂本8-30","kouzui":"○","gake":"○","takashio":"×","jishin":"○","tsunami":"×","kaji":"×","naisui":"○","kazan":"×"}}
,{"type":"Feature","geometry":{"type":"Point","coordinates":[135.857,35.011]},"properties":{"Name":"長等幼稚園","Jusho":"滋賀県大津市三井寺町10-30","kouzui":"○","gake":"○","takashio":"×","jishin":"○","tsunami":"×","kaji":"×","naisui":"○","kazan":"×"}}
,{"type":"Feature","geometry":{"type":"Point","coordinates":[135.857,35.011]},"properties":{"Name":"長等幼稚園グラウンド","Jusho":"滋賀県大津市三井寺町10-30","kouzui":"○","gake":"○","takashio":"×","jishin":"○","tsunami":"×","kaji":"×","naisui":"○","kazan":"×"}}
,{"type":"Feature","geometry":{"type":"Point","coordinates":[135.915,34.974]},"properties":{"Name":"瀬田南小学校体育館","Jusho":"滋賀県大津市三大寺1-1","kouzui":"○","gake":"○","takashio":"×","jishin":"○","tsunami":"×","kaji":"×","naisui":"○","kazan":"×"}}
,{"type":"Feature","geometry":{"type":"Point","coordinates":[135.916,34.976]},"properties":{"Name":"瀬田南小学校グラウンド","Jusho":"滋賀県大津市三大寺1-1","kouzui":"○","gake":"○","takashio":"×","jishin":"○","tsunami":"×","kaji":"×","naisui":"○","kazan":"×"}}
,{"type":"Feature","geometry":{"type":"Point","coordinates":[135.916,34.974]},"properties":{"Name":"みなみっこひろば（瀬田南幼稚園・瀬田南保育園）グラウンド","Jusho":"滋賀県大津市三大寺1-3","kouzui":"○","gake":"○","takashio":"×","jishin":"○","tsunami":"×","kaji":"×","naisui":"○","kazan":"×"}}
,{"type":"Feature","geometry":{"type":"Point","coordinates":[135.916,34.975]},"properties":{"Name":"みなみっこひろば（瀬田南幼稚園・瀬田南保育園）","Jusho":"滋賀県大津市三大寺1-3","kouzui":"○","gake":"○","takashio":"×","jishin":"○","tsunami":"×","kaji":"×","naisui":"○","kazan":"×"}}
,{"type":"Feature","geometry":{"type":"Point","coordinates":[135.823,35.04]},"properties":{"Name":"山中会館","Jusho":"滋賀県大津市山中町1-12","kouzui":"○","gake":"○","takashio":"×","jishin":"×","tsunami":"×","kaji":"×","naisui":"○","kazan":"×"}}
,{"type":"Feature","geometry":{"type":"Point","coordinates":[135.823,35.039]},"properties":{"Name":"山中市民運動広場","Jusho":"滋賀県大津市山中町1-12","kouzui":"○","gake":"×","takashio":"×","jishin":"○","tsunami":"×","kaji":"×","naisui":"○","kazan":"×"}}
,{"type":"Feature","geometry":{"type":"Point","coordinates":[135.884,35.137]},"properties":{"Name":"伊香立公園","Jusho":"滋賀県大津市山百合の丘4-1","kouzui":"○","gake":"○","takashio":"×","jishin":"○","tsunami":"×","kaji":"○","naisui":"○","kazan":"×"}}
,{"type":"Feature","geometry":{"type":"Point","coordinates":[135.934,34.939]},"properties":{"Name":"田上公園多目的グラウンド","Jusho":"滋賀県大津市枝3-1","kouzui":"○","gake":"○","takashio":"×","jishin":"○","tsunami":"×","kaji":"×","naisui":"×","kazan":"×"}}
,{"type":"Feature","geometry":{"type":"Point","coordinates":[135.856,35.043]},"properties":{"Name":"埋蔵文化財調査センター","Jusho":"滋賀県大津市滋賀里1-17-23","kouzui":"○","gake":"○","takashio":"×","jishin":"○","tsunami":"×","kaji":"×","naisui":"○","kazan":"×"}}
,{"type":"Feature","geometry":{"type":"Point","coordinates":[135.858,35.044]},"properties":{"Name":"滋賀里交流センター","Jusho":"滋賀県大津市滋賀里1-9-11","kouzui":"○","gake":"○","takashio":"×","jishin":"○","tsunami":"×","kaji":"×","naisui":"○","kazan":"×"}}
,{"type":"Feature","geometry":{"type":"Point","coordinates":[135.879,34.975]},"properties":{"Name":"若葉台公園","Jusho":"滋賀県大津市若葉台28","kouzui":"○","gake":"○","takashio":"×","jishin":"○","tsunami":"×","kaji":"○","naisui":"○","kazan":"×"}}
,{"type":"Feature","geometry":{"type":"Point","coordinates":[135.883,34.989]},"properties":{"Name":"茶臼山公園","Jusho":"滋賀県大津市秋葉台34","kouzui":"○","gake":"○","takashio":"×","jishin":"○","tsunami":"×","kaji":"○","naisui":"○","kazan":"×"}}
,{"type":"Feature","geometry":{"type":"Point","coordinates":[135.914,35.149]},"properties":{"Name":"比良ゴルフ場","Jusho":"滋賀県大津市小野1611","kouzui":"○","gake":"○","takashio":"×","jishin":"○","tsunami":"×","kaji":"○","naisui":"○","kazan":"×"}}
,{"type":"Feature","geometry":{"type":"Point","coordinates":[135.886,34.998]},"properties":{"Name":"滋賀大学教育学部附属学校グラウンド","Jusho":"滋賀県大津市昭和町10-3","kouzui":"○","gake":"○","takashio":"×","jishin":"○","tsunami":"×","kaji":"×","naisui":"×","kazan":"×"}}
,{"type":"Feature","geometry":{"type":"Point","coordinates":[135.888,34.998]},"properties":{"Name":"膳所児童館","Jusho":"滋賀県大津市昭和町15-15","kouzui":"○","gake":"○","takashio":"×","jishin":"×","tsunami":"×","kaji":"×","naisui":"○","kazan":"×"}}
,{"type":"Feature","geometry":{"type":"Point","coordinates":[135.888,34.998]},"properties":{"Name":"膳所ふれあいセンター","Jusho":"滋賀県大津市昭和町15-25","kouzui":"○","gake":"○","takashio":"×","jishin":"○","tsunami":"×","kaji":"×","naisui":"○","kazan":"×"}}
,{"type":"Feature","geometry":{"type":"Point","coordinates":[135.888,34.999]},"properties":{"Name":"膳所保育園グラウンド","Jusho":"滋賀県大津市昭和町17-32","kouzui":"○","gake":"○","takashio":"×","jishin":"○","tsunami":"×","kaji":"×","naisui":"×","kazan":"×"}}
,{"type":"Feature","geometry":{"type":"Point","coordinates":[135.95,34.95]},"properties":{"Name":"田上中学校体育館","Jusho":"滋賀県大津市新免1-1-12","kouzui":"×","gake":"○","takashio":"×","jishin":"○","tsunami":"×","kaji":"×","naisui":"×","kazan":"×"}}
,{"type":"Feature","geometry":{"type":"Point","coordinates":[135.949,34.949]},"properties":{"Name":"田上中学校グラウンド","Jusho":"滋賀県大津市新免1-1-12","kouzui":"×","gake":"○","takashio":"×","jishin":"○","tsunami":"×","kaji":"×","naisui":"×","kazan":"×"}}
,{"type":"Feature","geometry":{"type":"Point","coordinates":[135.913,35.132]},"properties":{"Name":"真野小学校グラウンド","Jusho":"滋賀県大津市真野4-6-17","kouzui":"○","gake":"○","takashio":"×","jishin":"○","tsunami":"×","kaji":"×","naisui":"○","kazan":"×"}}
,{"type":"Feature","geometry":{"type":"Point","coordinates":[135.912,35.133]},"properties":{"Name":"真野小学校体育館","Jusho":"滋賀県大津市真野4-6-17","kouzui":"○","gake":"○","takashio":"×","jishin":"○","tsunami":"×","kaji":"×","naisui":"○","kazan":"×"}}
,{"type":"Feature","geometry":{"type":"Point","coordinates":[135.913,35.132]},"properties":{"Name":"真野市民センター","Jusho":"滋賀県大津市真野4-6-2","kouzui":"○","gake":"○","takashio":"×","jishin":"○","tsunami":"×","kaji":"×","naisui":"○","kazan":"×"}}
,{"type":"Feature","geometry":{"type":"Point","coordinates":[135.912,35.133]},"properties":{"Name":"真野幼稚園","Jusho":"滋賀県大津市真野4-6-27","kouzui":"○","gake":"○","takashio":"×","jishin":"○","tsunami":"×","kaji":"×","naisui":"○","kazan":"×"}}
,{"type":"Feature","geometry":{"type":"Point","coordinates":[135.912,35.133]},"properties":{"Name":"真野幼稚園グラウンド","Jusho":"滋賀県大津市真野4-6-27","kouzui":"○","gake":"○","takashio":"×","jishin":"○","tsunami":"×","kaji":"×","naisui":"○","kazan":"×"}}
,{"type":"Feature","geometry":{"type":"Point","coordinates":[135.913,34.97]},"properties":{"Name":"滋賀県立瀬田工業高校体育館","Jusho":"滋賀県大津市神領3-18-1","kouzui":"○","gake":"○","takashio":"×","jishin":"○","tsunami":"×","kaji":"×","naisui":"○","kazan":"×"}}
,{"type":"Feature","geometry":{"type":"Point","coordinates":[135.912,34.97]},"properties":{"Name":"滋賀県立瀬田工業高校グラウンド","Jusho":"滋賀県大津市神領3-18-1","kouzui":"○","gake":"○","takashio":"×","jishin":"○","tsunami":"×","kaji":"×","naisui":"○","kazan":"×"}}
,{"type":"Feature","geometry":{"type":"Point","coordinates":[135.914,34.971]},"properties":{"Name":"瀬田南市民センター","Jusho":"滋賀県大津市神領3-8-9","kouzui":"○","gake":"○","takashio":"×","jishin":"○","tsunami":"×","kaji":"×","naisui":"○","kazan":"×"}}
,{"type":"Feature","geometry":{"type":"Point","coordinates":[135.919,35.146]},"properties":{"Name":"小野小学校体育館","Jusho":"滋賀県大津市水明1-34-2","kouzui":"○","gake":"○","takashio":"×","jishin":"○","tsunami":"×","kaji":"×","naisui":"○","kazan":"×"}}
,{"type":"Feature","geometry":{"type":"Point","coordinates":[135.92,35.146]},"properties":{"Name":"小野小学校グラウンド","Jusho":"滋賀県大津市水明1-34-2","kouzui":"○","gake":"○","takashio":"×","jishin":"○","tsunami":"×","kaji":"×","naisui":"○","kazan":"×"}}
,{"type":"Feature","geometry":{"type":"Point","coordinates":[135.908,34.977]},"properties":{"Name":"唐橋公園","Jusho":"滋賀県大津市瀬田1","kouzui":"×","gake":"○","takashio":"×","jishin":"○","tsunami":"×","kaji":"×","naisui":"×","kazan":"×"}}
,{"type":"Feature","geometry":{"type":"Point","coordinates":[135.947,34.972]},"properties":{"Name":"滋賀県立東大津高校体育館","Jusho":"滋賀県大津市瀬田南大萱町1732-2","kouzui":"○","gake":"○","takashio":"×","jishin":"○","tsunami":"×","kaji":"×","naisui":"○","kazan":"×"}}
,{"type":"Feature","geometry":{"type":"Point","coordinates":[135.945,34.972]},"properties":{"Name":"滋賀県立東大津高校グラウンド","Jusho":"滋賀県大津市瀬田南大萱町1732-2","kouzui":"○","gake":"○","takashio":"×","jishin":"○","tsunami":"×","kaji":"×","naisui":"○","kazan":"×"}}
,{"type":"Feature","geometry":{"type":"Point","coordinates":[135.943,34.971]},"properties":{"Name":"びわこ文化公園","Jusho":"滋賀県大津市瀬田南大萱町1740-1","kouzui":"○","gake":"○","takashio":"×","jishin":"○","tsunami":"×","kaji":"○","naisui":"○","kazan":"×"}}
,{"type":"Feature","geometry":{"type":"Point","coordinates":[135.9,34.985]},"properties":{"Name":"粟津中学校体育館","Jusho":"滋賀県大津市晴嵐1-20-20","kouzui":"○","gake":"○","takashio":"×","jishin":"○","tsunami":"×","kaji":"×","naisui":"○","kazan":"×"}}
,{"type":"Feature","geometry":{"type":"Point","coordinates":[135.901,34.985]},"properties":{"Name":"粟津中学校グラウンド","Jusho":"滋賀県大津市晴嵐1-20-20","kouzui":"×","gake":"○","takashio":"×","jishin":"○","tsunami":"×","kaji":"×","naisui":"×","kazan":"×"}}
,{"type":"Feature","geometry":{"type":"Point","coordinates":[135.905,35.141]},"properties":{"Name":"真野中学校グラウンド","Jusho":"滋賀県大津市清風町24-1","kouzui":"○","gake":"○","takashio":"×","jishin":"○","tsunami":"×","kaji":"×","naisui":"○","kazan":"×"}}
,{"type":"Feature","geometry":{"type":"Point","coordinates":[135.904,35.141]},"properties":{"Name":"真野中学校体育館","Jusho":"滋賀県大津市清風町24-1","kouzui":"○","gake":"○","takashio":"×","jishin":"○","tsunami":"×","kaji":"×","naisui":"○","kazan":"×"}}
,{"type":"Feature","geometry":{"type":"Point","coordinates":[135.909,35.141]},"properties":{"Name":"まんだら公園","Jusho":"滋賀県大津市清風町6","kouzui":"○","gake":"○","takashio":"×","jishin":"○","tsunami":"×","kaji":"×","naisui":"×","kazan":"×"}}
,{"type":"Feature","geometry":{"type":"Point","coordinates":[135.905,35.145]},"properties":{"Name":"清和公園","Jusho":"滋賀県大津市清和町16","kouzui":"○","gake":"○","takashio":"×","jishin":"○","tsunami":"×","kaji":"×","naisui":"○","kazan":"×"}}
,{"type":"Feature","geometry":{"type":"Point","coordinates":[135.974,34.981]},"properties":{"Name":"青山小学校体育館","Jusho":"滋賀県大津市青山3-16-1","kouzui":"○","gake":"○","takashio":"×","jishin":"○","tsunami":"×","kaji":"×","naisui":"○","kazan":"×"}}
,{"type":"Feature","geometry":{"type":"Point","coordinates":[135.975,34.98]},"properties":{"Name":"青山小学校グラウンド","Jusho":"滋賀県大津市青山3-16-1","kouzui":"○","gake":"○","takashio":"×","jishin":"○","tsunami":"×","kaji":"×","naisui":"×","kazan":"×"}}
,{"type":"Feature","geometry":{"type":"Point","coordinates":[135.974,34.979]},"properties":{"Name":"青山幼稚園グラウンド","Jusho":"滋賀県大津市青山3-16-2","kouzui":"○","gake":"○","takashio":"×","jishin":"○","tsunami":"×","kaji":"×","naisui":"○","kazan":"×"}}
,{"type":"Feature","geometry":{"type":"Point","coordinates":[135.974,34.98]},"properties":{"Name":"青山幼稚園","Jusho":"滋賀県大津市青山3-16-2","kouzui":"○","gake":"○","takashio":"×","jishin":"○","tsunami":"×","kaji":"×","naisui":"○","kazan":"×"}}
,{"type":"Feature","geometry":{"type":"Point","coordinates":[135.969,34.977]},"properties":{"Name":"青山市民センター","Jusho":"滋賀県大津市青山5-13-36","kouzui":"○","gake":"○","takashio":"×","jishin":"○","tsunami":"×","kaji":"×","naisui":"○","kazan":"×"}}
,{"type":"Feature","geometry":{"type":"Point","coordinates":[135.972,34.973]},"properties":{"Name":"青山中学校グラウンド","Jusho":"滋賀県大津市青山8-24-1","kouzui":"○","gake":"○","takashio":"×","jishin":"○","tsunami":"×","kaji":"×","naisui":"○","kazan":"×"}}
,{"type":"Feature","geometry":{"type":"Point","coordinates":[135.972,34.974]},"properties":{"Name":"青山中学校体育館","Jusho":"滋賀県大津市青山8-24-1","kouzui":"○","gake":"○","takashio":"×","jishin":"○","tsunami":"×","kaji":"×","naisui":"○","kazan":"×"}}
,{"type":"Feature","geometry":{"type":"Point","coordinates":[135.909,34.956]},"properties":{"Name":"石山市民体育館","Jusho":"滋賀県大津市石山寺3-10-35","kouzui":"○","gake":"○","takashio":"×","jishin":"○","tsunami":"×","kaji":"×","naisui":"○","kazan":"×"}}
,{"type":"Feature","geometry":{"type":"Point","coordinates":[135.909,34.956]},"properties":{"Name":"石山小学校体育館","Jusho":"滋賀県大津市石山寺3-11-20","kouzui":"○","gake":"○","takashio":"×","jishin":"○","tsunami":"×","kaji":"×","naisui":"○","kazan":"×"}}
,{"type":"Feature","geometry":{"type":"Point","coordinates":[135.909,34.955]},"properties":{"Name":"石山小学校グラウンド","Jusho":"滋賀県大津市石山寺3-11-20","kouzui":"○","gake":"○","takashio":"×","jishin":"○","tsunami":"×","kaji":"×","naisui":"×","kazan":"×"}}
,{"type":"Feature","geometry":{"type":"Point","coordinates":[135.908,34.954]},"properties":{"Name":"石山市民センター","Jusho":"滋賀県大津市石山寺3-15-15","kouzui":"○","gake":"○","takashio":"×","jishin":"○","tsunami":"×","kaji":"×","naisui":"○","kazan":"×"}}
,{"type":"Feature","geometry":{"type":"Point","coordinates":[135.908,34.954]},"properties":{"Name":"石山幼稚園グラウンド","Jusho":"滋賀県大津市石山寺3-17-8","kouzui":"○","gake":"○","takashio":"×","jishin":"○","tsunami":"×","kaji":"×","naisui":"×","kazan":"×"}}
,{"type":"Feature","geometry":{"type":"Point","coordinates":[135.907,34.954]},"properties":{"Name":"石山幼稚園","Jusho":"滋賀県大津市石山寺3-17-8","kouzui":"○","gake":"○","takashio":"×","jishin":"×","tsunami":"×","kaji":"×","naisui":"○","kazan":"×"}}
,{"type":"Feature","geometry":{"type":"Point","coordinates":[135.909,34.96]},"properties":{"Name":"石山公園（石山寺駐車場含む）","Jusho":"滋賀県大津市石山寺3-2","kouzui":"○","gake":"○","takashio":"×","jishin":"○","tsunami":"×","kaji":"×","naisui":"×","kazan":"×"}}
,{"type":"Feature","geometry":{"type":"Point","coordinates":[135.877,35.002]},"properties":{"Name":"旧市立大津市民病院　付属看護専門学校","Jusho":"滋賀県大津市石場10-53","kouzui":"○","gake":"○","takashio":"×","jishin":"○","tsunami":"×","kaji":"×","naisui":"○","kazan":"×"}}
,{"type":"Feature","geometry":{"type":"Point","coordinates":[135.894,34.94]},"properties":{"Name":"南郷中学校体育館","Jusho":"滋賀県大津市赤尾町57-1","kouzui":"○","gake":"○","takashio":"×","jishin":"○","tsunami":"×","kaji":"×","naisui":"○","kazan":"×"}}
,{"type":"Feature","geometry":{"type":"Point","coordinates":[135.895,34.94]},"properties":{"Name":"南郷中学校グラウンド","Jusho":"滋賀県大津市赤尾町57-1","kouzui":"○","gake":"○","takashio":"×","jishin":"○","tsunami":"×","kaji":"×","naisui":"×","kazan":"×"}}
,{"type":"Feature","geometry":{"type":"Point","coordinates":[135.889,34.996]},"properties":{"Name":"滋賀県立膳所高校体育館","Jusho":"滋賀県大津市膳所2-11-1","kouzui":"○","gake":"○","takashio":"×","jishin":"○","tsunami":"×","kaji":"×","naisui":"×","kazan":"×"}}
,{"type":"Feature","geometry":{"type":"Point","coordinates":[135.89,34.997]},"properties":{"Name":"滋賀県立膳所高校グラウンド","Jusho":"滋賀県大津市膳所2-11-1","kouzui":"○","gake":"○","takashio":"×","jishin":"○","tsunami":"×","kaji":"×","naisui":"×","kazan":"×"}}
,{"type":"Feature","geometry":{"type":"Point","coordinates":[135.887,34.995]},"properties":{"Name":"滋賀県立膳所高校第２グラウンド","Jusho":"滋賀県大津市相模町4","kouzui":"○","gake":"○","takashio":"×","jishin":"○","tsunami":"×","kaji":"×","naisui":"×","kazan":"×"}}
,{"type":"Feature","geometry":{"type":"Point","coordinates":[135.875,35.007]},"properties":{"Name":"勤労福祉センター","Jusho":"滋賀県大津市打出浜1-6","kouzui":"×","gake":"○","takashio":"×","jishin":"○","tsunami":"×","kaji":"×","naisui":"○","kazan":"×"}}
,{"type":"Feature","geometry":{"type":"Point","coordinates":[135.876,35.008]},"properties":{"Name":"大津湖岸なぎさ公園打出の森","Jusho":"滋賀県大津市打出浜15","kouzui":"×","gake":"○","takashio":"×","jishin":"○","tsunami":"×","kaji":"×","naisui":"○","kazan":"×"}}
,{"type":"Feature","geometry":{"type":"Point","coordinates":[135.877,35.007]},"properties":{"Name":"滋賀県立芸術劇場びわ湖ホール","Jusho":"滋賀県大津市打出浜15-1","kouzui":"×","gake":"○","takashio":"×","jishin":"○","tsunami":"×","kaji":"×","naisui":"×","kazan":"×"}}
,{"type":"Feature","geometry":{"type":"Point","coordinates":[135.92,34.981]},"properties":{"Name":"瀬田市民センター","Jusho":"滋賀県大津市大江3-2-1","kouzui":"○","gake":"○","takashio":"×","jishin":"○","tsunami":"×","kaji":"×","naisui":"○","kazan":"×"}}
,{"type":"Feature","geometry":{"type":"Point","coordinates":[135.922,34.981]},"properties":{"Name":"瀬田小学校グラウンド","Jusho":"滋賀県大津市大江4-2-1","kouzui":"○","gake":"○","takashio":"×","jishin":"○","tsunami":"×","kaji":"×","naisui":"×","kazan":"×"}}
,{"type":"Feature","geometry":{"type":"Point","coordinates":[135.921,34.982]},"properties":{"Name":"瀬田小学校体育館","Jusho":"滋賀県大津市大江4-2-1","kouzui":"○","gake":"○","takashio":"×","jishin":"○","tsunami":"×","kaji":"×","naisui":"○","kazan":"×"}}
,{"type":"Feature","geometry":{"type":"Point","coordinates":[135.921,34.983]},"properties":{"Name":"瀬田幼稚園","Jusho":"滋賀県大津市大江4-3-6","kouzui":"○","gake":"○","takashio":"×","jishin":"○","tsunami":"×","kaji":"×","naisui":"○","kazan":"×"}}
,{"type":"Feature","geometry":{"type":"Point","coordinates":[135.921,34.982]},"properties":{"Name":"瀬田幼稚園グラウンド","Jusho":"滋賀県大津市大江4-3-6","kouzui":"○","gake":"○","takashio":"×","jishin":"○","tsunami":"×","kaji":"×","naisui":"○","kazan":"×"}}
,{"type":"Feature","geometry":{"type":"Point","coordinates":[135.928,34.977]},"properties":{"Name":"瀬田中学校グラウンド","Jusho":"滋賀県大津市大江7-1-1","kouzui":"○","gake":"○","takashio":"×","jishin":"○","tsunami":"×","kaji":"×","naisui":"×","kazan":"×"}}
,{"type":"Feature","geometry":{"type":"Point","coordinates":[135.929,34.978]},"properties":{"Name":"瀬田中学校体育館","Jusho":"滋賀県大津市大江7-1-1","kouzui":"○","gake":"○","takashio":"×","jishin":"○","tsunami":"×","kaji":"×","naisui":"○","kazan":"×"}}
,{"type":"Feature","geometry":{"type":"Point","coordinates":[135.923,34.992]},"properties":{"Name":"瀬田北中学校グラウンド","Jusho":"滋賀県大津市大将軍1-13-1","kouzui":"○","gake":"○","takashio":"×","jishin":"○","tsunami":"×","kaji":"×","naisui":"○","kazan":"×"}}
,{"type":"Feature","geometry":{"type":"Point","coordinates":[135.923,34.992]},"properties":{"Name":"瀬田北中学校体育館","Jusho":"滋賀県大津市大将軍1-13-1","kouzui":"○","gake":"○","takashio":"×","jishin":"○","tsunami":"×","kaji":"×","naisui":"○","kazan":"×"}}
,{"type":"Feature","geometry":{"type":"Point","coordinates":[135.924,34.991]},"properties":{"Name":"瀬田北幼稚園","Jusho":"滋賀県大津市大将軍1-14-1","kouzui":"○","gake":"○","takashio":"×","jishin":"○","tsunami":"×","kaji":"×","naisui":"○","kazan":"×"}}
,{"type":"Feature","geometry":{"type":"Point","coordinates":[135.924,34.991]},"properties":{"Name":"瀬田北幼稚園グラウンド","Jusho":"滋賀県大津市大将軍1-14-1","kouzui":"○","gake":"○","takashio":"×","jishin":"○","tsunami":"×","kaji":"×","naisui":"○","kazan":"×"}}
,{"type":"Feature","geometry":{"type":"Point","coordinates":[135.924,34.991]},"properties":{"Name":"瀬田北市民センター","Jusho":"滋賀県大津市大将軍1-14-30","kouzui":"○","gake":"○","takashio":"×","jishin":"○","tsunami":"×","kaji":"×","naisui":"○","kazan":"×"}}
,{"type":"Feature","geometry":{"type":"Point","coordinates":[135.925,34.992]},"properties":{"Name":"瀬田北小学校グラウンド","Jusho":"滋賀県大津市大将軍1-14-5","kouzui":"○","gake":"○","takashio":"×","jishin":"○","tsunami":"×","kaji":"×","naisui":"○","kazan":"×"}}
,{"type":"Feature","geometry":{"type":"Point","coordinates":[135.926,34.992]},"properties":{"Name":"瀬田北小学校体育館","Jusho":"滋賀県大津市大将軍1-14-5","kouzui":"○","gake":"○","takashio":"×","jishin":"○","tsunami":"×","kaji":"×","naisui":"○","kazan":"×"}}
,{"type":"Feature","geometry":{"type":"Point","coordinates":[135.914,34.911]},"properties":{"Name":"大石市民センター","Jusho":"滋賀県大津市大石中1-1-1","kouzui":"○","gake":"○","takashio":"×","jishin":"○","tsunami":"×","kaji":"×","naisui":"○","kazan":"×"}}
,{"type":"Feature","geometry":{"type":"Point","coordinates":[135.912,34.91]},"properties":{"Name":"大石幼稚園","Jusho":"滋賀県大津市大石中1-5-9","kouzui":"○","gake":"○","takashio":"×","jishin":"○","tsunami":"×","kaji":"×","naisui":"○","kazan":"×"}}
,{"type":"Feature","geometry":{"type":"Point","coordinates":[135.912,34.91]},"properties":{"Name":"大石幼稚園グラウンド","Jusho":"滋賀県大津市大石中1-5-9","kouzui":"○","gake":"○","takashio":"×","jishin":"○","tsunami":"×","kaji":"×","naisui":"○","kazan":"×"}}
,{"type":"Feature","geometry":{"type":"Point","coordinates":[135.915,34.911]},"properties":{"Name":"大石小学校グラウンド","Jusho":"滋賀県大津市大石東7-4-1","kouzui":"○","gake":"○","takashio":"×","jishin":"○","tsunami":"×","kaji":"×","naisui":"×","kazan":"×"}}
,{"type":"Feature","geometry":{"type":"Point","coordinates":[135.915,34.911]},"properties":{"Name":"大石小学校体育館","Jusho":"滋賀県大津市大石東7-4-1","kouzui":"○","gake":"○","takashio":"×","jishin":"○","tsunami":"×","kaji":"×","naisui":"○","kazan":"×"}}
,{"type":"Feature","geometry":{"type":"Point","coordinates":[135.907,34.91]},"properties":{"Name":"大石緑地グラウンド","Jusho":"滋賀県大津市大石淀1","kouzui":"○","gake":"○","takashio":"×","jishin":"○","tsunami":"×","kaji":"×","naisui":"×","kazan":"×"}}
,{"type":"Feature","geometry":{"type":"Point","coordinates":[135.855,35]},"properties":{"Name":"市営大谷団地一帯","Jusho":"滋賀県大津市大谷町6","kouzui":"○","gake":"×","takashio":"×","jishin":"○","tsunami":"×","kaji":"×","naisui":"○","kazan":"×"}}
,{"type":"Feature","geometry":{"type":"Point","coordinates":[135.892,34.953]},"properties":{"Name":"滋賀県立大津清陵高校体育館","Jusho":"滋賀県大津市大平1-14-1","kouzui":"○","gake":"○","takashio":"×","jishin":"○","tsunami":"×","kaji":"×","naisui":"○","kazan":"×"}}
,{"type":"Feature","geometry":{"type":"Point","coordinates":[135.893,34.953]},"properties":{"Name":"滋賀県立大津清陵高校グラウンド","Jusho":"滋賀県大津市大平1-14-1","kouzui":"○","gake":"○","takashio":"×","jishin":"○","tsunami":"×","kaji":"×","naisui":"○","kazan":"×"}}
,{"type":"Feature","geometry":{"type":"Point","coordinates":[135.894,34.95]},"properties":{"Name":"大平保育園グラウンド","Jusho":"滋賀県大津市大平2-33-22","kouzui":"○","gake":"○","takashio":"×","jishin":"○","tsunami":"×","kaji":"×","naisui":"○","kazan":"×"}}
,{"type":"Feature","geometry":{"type":"Point","coordinates":[135.858,35.015]},"properties":{"Name":"長等市民センター","Jusho":"滋賀県大津市大門通16-40","kouzui":"○","gake":"○","takashio":"×","jishin":"○","tsunami":"×","kaji":"×","naisui":"○","kazan":"×"}}
,{"type":"Feature","geometry":{"type":"Point","coordinates":[135.856,35.012]},"properties":{"Name":"長等小学校体育館","Jusho":"滋賀県大津市大門通5-1","kouzui":"○","gake":"○","takashio":"×","jishin":"○","tsunami":"×","kaji":"×","naisui":"○","kazan":"×"}}
,{"type":"Feature","geometry":{"type":"Point","coordinates":[135.856,35.012]},"properties":{"Name":"長等小学校グラウンド","Jusho":"滋賀県大津市大門通5-1","kouzui":"○","gake":"○","takashio":"×","jishin":"○","tsunami":"×","kaji":"×","naisui":"×","kazan":"×"}}
,{"type":"Feature","geometry":{"type":"Point","coordinates":[135.832,34.995]},"properties":{"Name":"藤尾小学校体育館","Jusho":"滋賀県大津市茶戸町10-1","kouzui":"○","gake":"○","takashio":"×","jishin":"○","tsunami":"×","kaji":"×","naisui":"○","kazan":"×"}}
,{"type":"Feature","geometry":{"type":"Point","coordinates":[135.833,34.995]},"properties":{"Name":"藤尾小学校グラウンド","Jusho":"滋賀県大津市茶戸町10-1","kouzui":"○","gake":"○","takashio":"×","jishin":"○","tsunami":"×","kaji":"×","naisui":"○","kazan":"×"}}
,{"type":"Feature","geometry":{"type":"Point","coordinates":[135.83,34.994]},"properties":{"Name":"永興藤尾こども園グラウンド","Jusho":"滋賀県大津市茶戸町22-6","kouzui":"○","gake":"○","takashio":"×","jishin":"○","tsunami":"×","kaji":"×","naisui":"○","kazan":"×"}}
,{"type":"Feature","geometry":{"type":"Point","coordinates":[135.865,35.008]},"properties":{"Name":"中央市民センター","Jusho":"滋賀県大津市中央2-2-5","kouzui":"○","gake":"○","takashio":"×","jishin":"○","tsunami":"×","kaji":"×","naisui":"○","kazan":"×"}}
,{"type":"Feature","geometry":{"type":"Point","coordinates":[135.888,34.991]},"properties":{"Name":"膳所幼稚園","Jusho":"滋賀県大津市中庄2-6-5","kouzui":"○","gake":"○","takashio":"×","jishin":"○","tsunami":"×","kaji":"×","naisui":"○","kazan":"×"}}
,{"type":"Feature","geometry":{"type":"Point","coordinates":[135.888,34.99]},"properties":{"Name":"膳所幼稚園グラウンド","Jusho":"滋賀県大津市中庄2-6-5","kouzui":"○","gake":"○","takashio":"×","jishin":"○","tsunami":"×","kaji":"×","naisui":"○","kazan":"×"}}
,{"type":"Feature","geometry":{"type":"Point","coordinates":[135.888,34.991]},"properties":{"Name":"膳所小学校グラウンド","Jusho":"滋賀県大津市中庄2-8-37","kouzui":"○","gake":"○","takashio":"×","jishin":"○","tsunami":"×","kaji":"×","naisui":"×","kazan":"×"}}
,{"type":"Feature","geometry":{"type":"Point","coordinates":[135.888,34.992]},"properties":{"Name":"膳所小学校体育館","Jusho":"滋賀県大津市中庄2-8-37","kouzui":"○","gake":"○","takashio":"×","jishin":"○","tsunami":"×","kaji":"×","naisui":"○","kazan":"×"}}
,{"type":"Feature","geometry":{"type":"Point","coordinates":[135.87,35]},"properties":{"Name":"滋賀短期大学附属高校グラウンド","Jusho":"滋賀県大津市朝日が丘1-18-1","kouzui":"○","gake":"○","takashio":"×","jishin":"○","tsunami":"×","kaji":"×","naisui":"○","kazan":"×"}}
,{"type":"Feature","geometry":{"type":"Point","coordinates":[135.869,34.999]},"properties":{"Name":"滋賀短期大学附属高校体育館","Jusho":"滋賀県大津市朝日が丘1-18-1","kouzui":"○","gake":"○","takashio":"×","jishin":"○","tsunami":"×","kaji":"×","naisui":"○","kazan":"×"}}
,{"type":"Feature","geometry":{"type":"Point","coordinates":[135.87,35.001]},"properties":{"Name":"朝日が丘保育園グラウンド","Jusho":"滋賀県大津市朝日が丘1-23-33","kouzui":"○","gake":"○","takashio":"×","jishin":"○","tsunami":"×","kaji":"×","naisui":"○","kazan":"×"}}
,{"type":"Feature","geometry":{"type":"Point","coordinates":[135.903,34.973]},"properties":{"Name":"晴嵐幼稚園","Jusho":"滋賀県大津市鳥居川町15-22","kouzui":"○","gake":"○","takashio":"×","jishin":"○","tsunami":"×","kaji":"×","naisui":"○","kazan":"×"}}
,{"type":"Feature","geometry":{"type":"Point","coordinates":[135.903,34.973]},"properties":{"Name":"晴嵐幼稚園グラウンド","Jusho":"滋賀県大津市鳥居川町15-22","kouzui":"○","gake":"○","takashio":"×","jishin":"○","tsunami":"×","kaji":"×","naisui":"×","kazan":"×"}}
,{"type":"Feature","geometry":{"type":"Point","coordinates":[135.866,35.049]},"properties":{"Name":"唐崎市民センター","Jusho":"滋賀県大津市唐崎2-10-1","kouzui":"○","gake":"○","takashio":"×","jishin":"○","tsunami":"×","kaji":"×","naisui":"○","kazan":"×"}}
,{"type":"Feature","geometry":{"type":"Point","coordinates":[135.867,35.048]},"properties":{"Name":"唐崎中学校グラウンド","Jusho":"滋賀県大津市唐崎2-9-1","kouzui":"○","gake":"○","takashio":"×","jishin":"○","tsunami":"×","kaji":"×","naisui":"×","kazan":"×"}}
,{"type":"Feature","geometry":{"type":"Point","coordinates":[135.868,35.047]},"properties":{"Name":"唐崎中学校体育館","Jusho":"滋賀県大津市唐崎2-9-1","kouzui":"○","gake":"○","takashio":"×","jishin":"○","tsunami":"×","kaji":"×","naisui":"○","kazan":"×"}}
,{"type":"Feature","geometry":{"type":"Point","coordinates":[135.869,35.007]},"properties":{"Name":"大津幼稚園グラウンド","Jusho":"滋賀県大津市島の関1-50","kouzui":"○","gake":"○","takashio":"×","jishin":"○","tsunami":"×","kaji":"×","naisui":"×","kazan":"×"}}
,{"type":"Feature","geometry":{"type":"Point","coordinates":[135.869,35.008]},"properties":{"Name":"大津幼稚園","Jusho":"滋賀県大津市島の関1-50","kouzui":"○","gake":"○","takashio":"×","jishin":"○","tsunami":"×","kaji":"×","naisui":"○","kazan":"×"}}
,{"type":"Feature","geometry":{"type":"Point","coordinates":[135.869,35.008]},"properties":{"Name":"中央小学校グラウンド","Jusho":"滋賀県大津市島の関1-60","kouzui":"○","gake":"○","takashio":"×","jishin":"○","tsunami":"×","kaji":"×","naisui":"×","kazan":"×"}}
,{"type":"Feature","geometry":{"type":"Point","coordinates":[135.87,35.008]},"properties":{"Name":"中央小学校体育館","Jusho":"滋賀県大津市島の関1-60","kouzui":"○","gake":"○","takashio":"×","jishin":"○","tsunami":"×","kaji":"×","naisui":"○","kazan":"×"}}
,{"type":"Feature","geometry":{"type":"Point","coordinates":[135.87,35.009]},"properties":{"Name":"市民会館","Jusho":"滋賀県大津市島の関14-1","kouzui":"×","gake":"○","takashio":"×","jishin":"○","tsunami":"×","kaji":"×","naisui":"○","kazan":"×"}}
,{"type":"Feature","geometry":{"type":"Point","coordinates":[135.87,35.01]},"properties":{"Name":"大津湖岸なぎさ公園おまつり広場","Jusho":"滋賀県大津市島の関１３地先","kouzui":"×","gake":"○","takashio":"×","jishin":"○","tsunami":"×","kaji":"×","naisui":"×","kazan":"×"}}
,{"type":"Feature","geometry":{"type":"Point","coordinates":[135.908,34.942]},"properties":{"Name":"南郷市民センター","Jusho":"滋賀県大津市南郷1-12-13","kouzui":"○","gake":"○","takashio":"×","jishin":"○","tsunami":"×","kaji":"×","naisui":"○","kazan":"×"}}
,{"type":"Feature","geometry":{"type":"Point","coordinates":[135.907,34.941]},"properties":{"Name":"南郷小学校体育館","Jusho":"滋賀県大津市南郷1-15-9","kouzui":"○","gake":"○","takashio":"×","jishin":"○","tsunami":"×","kaji":"×","naisui":"○","kazan":"×"}}
,{"type":"Feature","geometry":{"type":"Point","coordinates":[135.907,34.94]},"properties":{"Name":"南郷小学校グラウンド","Jusho":"滋賀県大津市南郷1-15-9","kouzui":"○","gake":"○","takashio":"×","jishin":"○","tsunami":"×","kaji":"×","naisui":"×","kazan":"×"}}
,{"type":"Feature","geometry":{"type":"Point","coordinates":[135.909,34.94]},"properties":{"Name":"南郷公園","Jusho":"滋賀県大津市南郷1-17","kouzui":"×","gake":"○","takashio":"×","jishin":"○","tsunami":"×","kaji":"×","naisui":"×","kazan":"×"}}
,{"type":"Feature","geometry":{"type":"Point","coordinates":[135.902,34.939]},"properties":{"Name":"南郷幼稚園","Jusho":"滋賀県大津市南郷3-15-1","kouzui":"○","gake":"○","takashio":"×","jishin":"○","tsunami":"×","kaji":"×","naisui":"○","kazan":"×"}}
,{"type":"Feature","geometry":{"type":"Point","coordinates":[135.902,34.938]},"properties":{"Name":"南郷幼稚園グラウンド","Jusho":"滋賀県大津市南郷3-15-1","kouzui":"○","gake":"×","takashio":"×","jishin":"○","tsunami":"×","kaji":"×","naisui":"×","kazan":"×"}}
,{"type":"Feature","geometry":{"type":"Point","coordinates":[135.856,35.035]},"properties":{"Name":"志賀小学校体育館","Jusho":"滋賀県大津市南志賀1-5-1","kouzui":"○","gake":"○","takashio":"×","jishin":"○","tsunami":"×","kaji":"×","naisui":"○","kazan":"×"}}
,{"type":"Feature","geometry":{"type":"Point","coordinates":[135.855,35.034]},"properties":{"Name":"志賀小学校グラウンド","Jusho":"滋賀県大津市南志賀1-5-1","kouzui":"○","gake":"○","takashio":"×","jishin":"○","tsunami":"×","kaji":"×","naisui":"○","kazan":"×"}}
,{"type":"Feature","geometry":{"type":"Point","coordinates":[135.857,35.036]},"properties":{"Name":"滋賀市民センター","Jusho":"滋賀県大津市南志賀1-8-32","kouzui":"○","gake":"○","takashio":"×","jishin":"○","tsunami":"×","kaji":"×","naisui":"○","kazan":"×"}}
,{"type":"Feature","geometry":{"type":"Point","coordinates":[135.957,35.236]},"properties":{"Name":"小松小学校体育館","Jusho":"滋賀県大津市南小松1122","kouzui":"○","gake":"○","takashio":"×","jishin":"○","tsunami":"×","kaji":"×","naisui":"○","kazan":"×"}}
,{"type":"Feature","geometry":{"type":"Point","coordinates":[135.957,35.236]},"properties":{"Name":"小松小学校グラウンド","Jusho":"滋賀県大津市南小松1122","kouzui":"○","gake":"○","takashio":"×","jishin":"○","tsunami":"×","kaji":"×","naisui":"○","kazan":"×"}}
,{"type":"Feature","geometry":{"type":"Point","coordinates":[135.91,35.181]},"properties":{"Name":"志賀中学校グラウンド","Jusho":"滋賀県大津市南船路1029","kouzui":"○","gake":"○","takashio":"×","jishin":"○","tsunami":"×","kaji":"×","naisui":"○","kazan":"×"}}
,{"type":"Feature","geometry":{"type":"Point","coordinates":[135.909,35.18]},"properties":{"Name":"志賀中学校体育館","Jusho":"滋賀県大津市南船路1029","kouzui":"○","gake":"○","takashio":"×","jishin":"○","tsunami":"×","kaji":"×","naisui":"○","kazan":"×"}}
,{"type":"Feature","geometry":{"type":"Point","coordinates":[135.865,35.029]},"properties":{"Name":"近江神宮外苑公園","Jusho":"滋賀県大津市二本松1-2","kouzui":"○","gake":"○","takashio":"×","jishin":"○","tsunami":"×","kaji":"×","naisui":"○","kazan":"×"}}
,{"type":"Feature","geometry":{"type":"Point","coordinates":[135.881,35.08]},"properties":{"Name":"日吉台第９公園","Jusho":"滋賀県大津市日吉台1-14","kouzui":"○","gake":"○","takashio":"×","jishin":"○","tsunami":"×","kaji":"×","naisui":"○","kazan":"×"}}
,{"type":"Feature","geometry":{"type":"Point","coordinates":[135.879,35.079]},"properties":{"Name":"日吉台市民センター","Jusho":"滋賀県大津市日吉台1-15-1","kouzui":"○","gake":"○","takashio":"×","jishin":"○","tsunami":"×","kaji":"×","naisui":"○","kazan":"×"}}
,{"type":"Feature","geometry":{"type":"Point","coordinates":[135.877,35.082]},"properties":{"Name":"日吉台至明こども園グラウンド","Jusho":"滋賀県大津市日吉台3-33-2","kouzui":"○","gake":"○","takashio":"×","jishin":"○","tsunami":"×","kaji":"×","naisui":"○","kazan":"×"}}
,{"type":"Feature","geometry":{"type":"Point","coordinates":[135.876,35.083]},"properties":{"Name":"日吉台小学校グラウンド","Jusho":"滋賀県大津市日吉台3-33-3","kouzui":"○","gake":"○","takashio":"×","jishin":"○","tsunami":"×","kaji":"×","naisui":"○","kazan":"×"}}
,{"type":"Feature","geometry":{"type":"Point","coordinates":[135.876,35.083]},"properties":{"Name":"日吉台小学校体育館","Jusho":"滋賀県大津市日吉台3-33-3","kouzui":"○","gake":"○","takashio":"×","jishin":"○","tsunami":"×","kaji":"×","naisui":"○","kazan":"×"}}
,{"type":"Feature","geometry":{"type":"Point","coordinates":[135.883,35.001]},"properties":{"Name":"滋賀県立大津高校体育館","Jusho":"滋賀県大津市馬場1-1-1","kouzui":"○","gake":"○","takashio":"×","jishin":"○","tsunami":"×","kaji":"×","naisui":"○","kazan":"×"}}
,{"type":"Feature","geometry":{"type":"Point","coordinates":[135.883,35]},"properties":{"Name":"滋賀県立大津高校グラウンド","Jusho":"滋賀県大津市馬場1-1-1","kouzui":"○","gake":"○","takashio":"×","jishin":"○","tsunami":"×","kaji":"×","naisui":"×","kazan":"×"}}
,{"type":"Feature","geometry":{"type":"Point","coordinates":[135.883,35.002]},"properties":{"Name":"平野小学校グラウンド","Jusho":"滋賀県大津市馬場1-2-1","kouzui":"○","gake":"○","takashio":"×","jishin":"○","tsunami":"×","kaji":"×","naisui":"×","kazan":"×"}}
,{"type":"Feature","geometry":{"type":"Point","coordinates":[135.882,35.001]},"properties":{"Name":"平野小学校体育館","Jusho":"滋賀県大津市馬場1-2-1","kouzui":"○","gake":"○","takashio":"×","jishin":"○","tsunami":"×","kaji":"×","naisui":"○","kazan":"×"}}
,{"type":"Feature","geometry":{"type":"Point","coordinates":[135.88,35.003]},"properties":{"Name":"平野幼稚園グラウンド","Jusho":"滋賀県大津市馬場1-5-28","kouzui":"○","gake":"○","takashio":"×","jishin":"○","tsunami":"×","kaji":"×","naisui":"○","kazan":"×"}}
,{"type":"Feature","geometry":{"type":"Point","coordinates":[135.88,35.003]},"properties":{"Name":"平野幼稚園","Jusho":"滋賀県大津市馬場1-5-28","kouzui":"○","gake":"○","takashio":"×","jishin":"×","tsunami":"×","kaji":"×","naisui":"○","kazan":"×"}}
,{"type":"Feature","geometry":{"type":"Point","coordinates":[135.882,34.999]},"properties":{"Name":"平野市民センター","Jusho":"滋賀県大津市馬場3-15-45","kouzui":"○","gake":"○","takashio":"×","jishin":"○","tsunami":"×","kaji":"×","naisui":"○","kazan":"×"}}
,{"type":"Feature","geometry":{"type":"Point","coordinates":[135.883,35.073]},"properties":{"Name":"下阪本市民運動広場","Jusho":"滋賀県大津市比叡辻2-14","kouzui":"○","gake":"○","takashio":"×","jishin":"○","tsunami":"×","kaji":"×","naisui":"○","kazan":"×"}}
,{"type":"Feature","geometry":{"type":"Point","coordinates":[135.834,35.032]},"properties":{"Name":"比叡平市民運動広場","Jusho":"滋賀県大津市比叡平1-1063-9","kouzui":"○","gake":"○","takashio":"×","jishin":"○","tsunami":"×","kaji":"×","naisui":"○","kazan":"×"}}
,{"type":"Feature","geometry":{"type":"Point","coordinates":[135.835,35.033]},"properties":{"Name":"比叡平小学校体育館","Jusho":"滋賀県大津市比叡平1-45-1","kouzui":"○","gake":"○","takashio":"×","jishin":"○","tsunami":"×","kaji":"×","naisui":"○","kazan":"×"}}
,{"type":"Feature","geometry":{"type":"Point","coordinates":[135.835,35.033]},"properties":{"Name":"比叡平小学校グラウンド","Jusho":"滋賀県大津市比叡平1-45-1","kouzui":"○","gake":"○","takashio":"×","jishin":"○","tsunami":"×","kaji":"×","naisui":"○","kazan":"×"}}
,{"type":"Feature","geometry":{"type":"Point","coordinates":[135.835,35.033]},"properties":{"Name":"やまのこひろば（比叡平幼稚園・　ひえい平保育園）グラウンド","Jusho":"滋賀県大津市比叡平1-45-3","kouzui":"○","gake":"○","takashio":"×","jishin":"○","tsunami":"×","kaji":"×","naisui":"○","kazan":"×"}}
,{"type":"Feature","geometry":{"type":"Point","coordinates":[135.828,35.028]},"properties":{"Name":"住民交流・まちづくりセンター中庭","Jusho":"滋賀県大津市比叡平2-39-4","kouzui":"○","gake":"×","takashio":"×","jishin":"○","tsunami":"×","kaji":"×","naisui":"○","kazan":"×"}}
,{"type":"Feature","geometry":{"type":"Point","coordinates":[135.828,35.029]},"properties":{"Name":"住民交流・まちづくりセンター","Jusho":"滋賀県大津市比叡平2-39-4","kouzui":"○","gake":"○","takashio":"×","jishin":"×","tsunami":"×","kaji":"×","naisui":"○","kazan":"×"}}
,{"type":"Feature","geometry":{"type":"Point","coordinates":[135.831,35.031]},"properties":{"Name":"山中比叡平市民センター","Jusho":"滋賀県大津市比叡平3-57-1","kouzui":"○","gake":"○","takashio":"×","jishin":"○","tsunami":"×","kaji":"×","naisui":"○","kazan":"×"}}
,{"type":"Feature","geometry":{"type":"Point","coordinates":[135.861,35.019]},"properties":{"Name":"尾花川公園","Jusho":"滋賀県大津市尾花川1","kouzui":"×","gake":"○","takashio":"×","jishin":"○","tsunami":"×","kaji":"×","naisui":"×","kazan":"×"}}
,{"type":"Feature","geometry":{"type":"Point","coordinates":[135.859,35.021]},"properties":{"Name":"皇子山中学校体育館","Jusho":"滋賀県大津市尾花川12-1","kouzui":"×","gake":"○","takashio":"×","jishin":"○","tsunami":"×","kaji":"×","naisui":"○","kazan":"×"}}
,{"type":"Feature","geometry":{"type":"Point","coordinates":[135.859,35.021]},"properties":{"Name":"皇子山中学校グラウンド","Jusho":"滋賀県大津市尾花川12-1","kouzui":"×","gake":"○","takashio":"×","jishin":"○","tsunami":"×","kaji":"×","naisui":"×","kazan":"×"}}
,{"type":"Feature","geometry":{"type":"Point","coordinates":[135.918,35.137]},"properties":{"Name":"びわ湖美空団地一帯（向陽公園含む）","Jusho":"滋賀県大津市美空町8","kouzui":"○","gake":"○","takashio":"×","jishin":"○","tsunami":"×","kaji":"○","naisui":"○","kazan":"×"}}
,{"type":"Feature","geometry":{"type":"Point","coordinates":[135.889,35.079]},"properties":{"Name":"湖西浄化センター","Jusho":"滋賀県大津市苗鹿3-1-1","kouzui":"○","gake":"○","takashio":"×","jishin":"○","tsunami":"×","kaji":"○","naisui":"×","kazan":"×"}}
,{"type":"Feature","geometry":{"type":"Point","coordinates":[135.866,35.013]},"properties":{"Name":"大津港","Jusho":"滋賀県大津市浜大津5-5","kouzui":"×","gake":"○","takashio":"×","jishin":"○","tsunami":"×","kaji":"○","naisui":"×","kazan":"×"}}
,{"type":"Feature","geometry":{"type":"Point","coordinates":[135.888,34.986]},"properties":{"Name":"富士見台一区防災広場","Jusho":"滋賀県大津市富士見台3-30","kouzui":"○","gake":"○","takashio":"×","jishin":"○","tsunami":"×","kaji":"×","naisui":"○","kazan":"×"}}
,{"type":"Feature","geometry":{"type":"Point","coordinates":[135.883,34.98]},"properties":{"Name":"富士見小学校グラウンド","Jusho":"滋賀県大津市富士見台42-16","kouzui":"○","gake":"○","takashio":"×","jishin":"○","tsunami":"×","kaji":"×","naisui":"○","kazan":"×"}}
,{"type":"Feature","geometry":{"type":"Point","coordinates":[135.883,34.979]},"properties":{"Name":"富士見小学校体育館","Jusho":"滋賀県大津市富士見台42-16","kouzui":"○","gake":"×","takashio":"×","jishin":"○","tsunami":"×","kaji":"×","naisui":"○","kazan":"×"}}
,{"type":"Feature","geometry":{"type":"Point","coordinates":[135.884,34.979]},"properties":{"Name":"富士見幼稚園グラウンド","Jusho":"滋賀県大津市富士見台45-5","kouzui":"○","gake":"○","takashio":"×","jishin":"○","tsunami":"×","kaji":"×","naisui":"○","kazan":"×"}}
,{"type":"Feature","geometry":{"type":"Point","coordinates":[135.884,34.98]},"properties":{"Name":"富士見幼稚園","Jusho":"滋賀県大津市富士見台45-5","kouzui":"○","gake":"○","takashio":"×","jishin":"○","tsunami":"×","kaji":"×","naisui":"○","kazan":"×"}}
,{"type":"Feature","geometry":{"type":"Point","coordinates":[135.91,34.947]},"properties":{"Name":"石山中学校体育館","Jusho":"滋賀県大津市平津1-23-1","kouzui":"○","gake":"○","takashio":"×","jishin":"○","tsunami":"×","kaji":"×","naisui":"○","kazan":"×"}}
,{"type":"Feature","geometry":{"type":"Point","coordinates":[135.908,34.947]},"properties":{"Name":"石山中学校グラウンド","Jusho":"滋賀県大津市平津1-23-1","kouzui":"○","gake":"○","takashio":"×","jishin":"○","tsunami":"×","kaji":"×","naisui":"×","kazan":"×"}}
,{"type":"Feature","geometry":{"type":"Point","coordinates":[135.905,34.951]},"properties":{"Name":"滋賀大学教育学部","Jusho":"滋賀県大津市平津2-5-1","kouzui":"○","gake":"○","takashio":"×","jishin":"○","tsunami":"×","kaji":"○","naisui":"○","kazan":"×"}}
,{"type":"Feature","geometry":{"type":"Point","coordinates":[135.961,34.96]},"properties":{"Name":"上田上幼稚園","Jusho":"滋賀県大津市平野1-18-20","kouzui":"×","gake":"○","takashio":"×","jishin":"○","tsunami":"×","kaji":"×","naisui":"○","kazan":"×"}}
,{"type":"Feature","geometry":{"type":"Point","coordinates":[135.961,34.959]},"properties":{"Name":"上田上幼稚園グラウンド","Jusho":"滋賀県大津市平野1-18-20","kouzui":"×","gake":"○","takashio":"×","jishin":"○","tsunami":"×","kaji":"×","naisui":"×","kazan":"×"}}
,{"type":"Feature","geometry":{"type":"Point","coordinates":[135.96,34.96]},"properties":{"Name":"上田上小学校グラウンド","Jusho":"滋賀県大津市平野1-18-5","kouzui":"×","gake":"○","takashio":"×","jishin":"○","tsunami":"×","kaji":"×","naisui":"×","kazan":"×"}}
,{"type":"Feature","geometry":{"type":"Point","coordinates":[135.96,34.96]},"properties":{"Name":"上田上小学校体育館","Jusho":"滋賀県大津市平野1-18-5","kouzui":"×","gake":"○","takashio":"×","jishin":"○","tsunami":"×","kaji":"×","naisui":"○","kazan":"×"}}
,{"type":"Feature","geometry":{"type":"Point","coordinates":[135.974,35.255]},"properties":{"Name":"小松市民センター","Jusho":"滋賀県大津市北小松565","kouzui":"○","gake":"○","takashio":"×","jishin":"×","tsunami":"×","kaji":"×","naisui":"×","kazan":"×"}}
,{"type":"Feature","geometry":{"type":"Point","coordinates":[135.899,34.976]},"properties":{"Name":"晴嵐市民センター","Jusho":"滋賀県大津市北大路1-9-5","kouzui":"○","gake":"○","takashio":"×","jishin":"○","tsunami":"×","kaji":"×","naisui":"○","kazan":"×"}}
,{"type":"Feature","geometry":{"type":"Point","coordinates":[135.887,34.969]},"properties":{"Name":"北大路中学校体育館","Jusho":"滋賀県大津市北大路3-22-1","kouzui":"○","gake":"○","takashio":"×","jishin":"○","tsunami":"×","kaji":"×","naisui":"○","kazan":"×"}}
,{"type":"Feature","geometry":{"type":"Point","coordinates":[135.887,34.97]},"properties":{"Name":"北大路中学校グラウンド","Jusho":"滋賀県大津市北大路3-22-1","kouzui":"○","gake":"×","takashio":"×","jishin":"○","tsunami":"×","kaji":"×","naisui":"○","kazan":"×"}}
,{"type":"Feature","geometry":{"type":"Point","coordinates":[135.947,35.228]},"properties":{"Name":"びわこ成蹊スポーツ大学グラウンド","Jusho":"滋賀県大津市北比良1204","kouzui":"○","gake":"○","takashio":"×","jishin":"○","tsunami":"×","kaji":"○","naisui":"○","kazan":"×"}}
,{"type":"Feature","geometry":{"type":"Point","coordinates":[135.962,34.96]},"properties":{"Name":"上田上市民センター","Jusho":"滋賀県大津市牧1-1-24","kouzui":"○","gake":"○","takashio":"×","jishin":"○","tsunami":"×","kaji":"×","naisui":"○","kazan":"×"}}
,{"type":"Feature","geometry":{"type":"Point","coordinates":[135.894,34.995]},"properties":{"Name":"膳所市民センター","Jusho":"滋賀県大津市本丸町6-40","kouzui":"○","gake":"○","takashio":"×","jishin":"○","tsunami":"×","kaji":"×","naisui":"○","kazan":"×"}}
,{"type":"Feature","geometry":{"type":"Point","coordinates":[135.894,34.994]},"properties":{"Name":"生涯学習センター","Jusho":"滋賀県大津市本丸町6-50","kouzui":"○","gake":"○","takashio":"×","jishin":"○","tsunami":"×","kaji":"×","naisui":"×","kazan":"×"}}
,{"type":"Feature","geometry":{"type":"Point","coordinates":[135.895,34.995]},"properties":{"Name":"膳所城跡公園","Jusho":"滋賀県大津市本丸町7","kouzui":"○","gake":"○","takashio":"×","jishin":"○","tsunami":"×","kaji":"×","naisui":"×","kazan":"×"}}
,{"type":"Feature","geometry":{"type":"Point","coordinates":[135.872,34.997]},"properties":{"Name":"打出中学校体育館","Jusho":"滋賀県大津市本宮2-46-1","kouzui":"○","gake":"○","takashio":"×","jishin":"○","tsunami":"×","kaji":"×","naisui":"○","kazan":"×"}}
,{"type":"Feature","geometry":{"type":"Point","coordinates":[135.872,34.998]},"properties":{"Name":"打出中学校グラウンド","Jusho":"滋賀県大津市本宮2-46-1","kouzui":"○","gake":"○","takashio":"×","jishin":"○","tsunami":"×","kaji":"×","naisui":"○","kazan":"×"}}
,{"type":"Feature","geometry":{"type":"Point","coordinates":[135.92,35.111]},"properties":{"Name":"本福寺こども園","Jusho":"滋賀県大津市本堅田1-22-30","kouzui":"×","gake":"○","takashio":"×","jishin":"○","tsunami":"×","kaji":"×","naisui":"×","kazan":"×"}}
,{"type":"Feature","geometry":{"type":"Point","coordinates":[135.918,35.114]},"properties":{"Name":"堅田中学校グラウンド","Jusho":"滋賀県大津市本堅田3-22-1","kouzui":"×","gake":"○","takashio":"×","jishin":"○","tsunami":"×","kaji":"×","naisui":"×","kazan":"×"}}
,{"type":"Feature","geometry":{"type":"Point","coordinates":[135.918,35.115]},"properties":{"Name":"堅田中学校体育館","Jusho":"滋賀県大津市本堅田3-22-1","kouzui":"×","gake":"○","takashio":"×","jishin":"○","tsunami":"×","kaji":"×","naisui":"×","kazan":"×"}}
,{"type":"Feature","geometry":{"type":"Point","coordinates":[135.916,35.112]},"properties":{"Name":"堅田小学校体育館","Jusho":"滋賀県大津市本堅田3-6-1","kouzui":"○","gake":"○","takashio":"×","jishin":"○","tsunami":"×","kaji":"×","naisui":"○","kazan":"×"}}
,{"type":"Feature","geometry":{"type":"Point","coordinates":[135.916,35.114]},"properties":{"Name":"堅田幼稚園","Jusho":"滋賀県大津市本堅田3-7-17","kouzui":"○","gake":"○","takashio":"×","jishin":"○","tsunami":"×","kaji":"×","naisui":"○","kazan":"×"}}
,{"type":"Feature","geometry":{"type":"Point","coordinates":[135.915,35.114]},"properties":{"Name":"堅田市民センター","Jusho":"滋賀県大津市本堅田3-8-1","kouzui":"○","gake":"○","takashio":"×","jishin":"○","tsunami":"×","kaji":"×","naisui":"○","kazan":"×"}}
,{"type":"Feature","geometry":{"type":"Point","coordinates":[135.913,35.113]},"properties":{"Name":"堅田高校・堅田小学校グラウンド一帯","Jusho":"滋賀県大津市本堅田3-9-1","kouzui":"○","gake":"○","takashio":"×","jishin":"○","tsunami":"×","kaji":"○","naisui":"×","kazan":"×"}}
,{"type":"Feature","geometry":{"type":"Point","coordinates":[135.914,35.113]},"properties":{"Name":"滋賀県立堅田高校体育館","Jusho":"滋賀県大津市本堅田3-9-1","kouzui":"○","gake":"○","takashio":"×","jishin":"○","tsunami":"×","kaji":"×","naisui":"○","kazan":"×"}}
,{"type":"Feature","geometry":{"type":"Point","coordinates":[135.909,35.118]},"properties":{"Name":"第二本福寺こども園","Jusho":"滋賀県大津市本堅田6-14-11","kouzui":"○","gake":"○","takashio":"×","jishin":"○","tsunami":"×","kaji":"×","naisui":"○","kazan":"×"}}
,{"type":"Feature","geometry":{"type":"Point","coordinates":[135.91,35.118]},"properties":{"Name":"堅田かすがやま翔裕館","Jusho":"滋賀県大津市本堅田6-16-8","kouzui":"○","gake":"○","takashio":"×","jishin":"○","tsunami":"×","kaji":"×","naisui":"○","kazan":"×"}}
,{"type":"Feature","geometry":{"type":"Point","coordinates":[135.907,35.115]},"properties":{"Name":"天神山保育園グラウンド","Jusho":"滋賀県大津市本堅田6-3-1","kouzui":"○","gake":"○","takashio":"×","jishin":"○","tsunami":"×","kaji":"×","naisui":"○","kazan":"×"}}
,{"type":"Feature","geometry":{"type":"Point","coordinates":[135.921,35.206]},"properties":{"Name":"木戸市民センター","Jusho":"滋賀県大津市木戸58","kouzui":"○","gake":"○","takashio":"×","jishin":"○","tsunami":"×","kaji":"×","naisui":"×","kazan":"×"}}
,{"type":"Feature","geometry":{"type":"Point","coordinates":[135.916,34.968]},"properties":{"Name":"野郷原児童遊園地","Jusho":"滋賀県大津市野郷原1-2","kouzui":"○","gake":"○","takashio":"×","jishin":"○","tsunami":"×","kaji":"×","naisui":"○","kazan":"×"}}
,{"type":"Feature","geometry":{"type":"Point","coordinates":[135.868,35.027]},"properties":{"Name":"柳が崎湖畔公園芝生広場","Jusho":"滋賀県大津市柳が崎5","kouzui":"×","gake":"○","takashio":"×","jishin":"○","tsunami":"×","kaji":"×","naisui":"○","kazan":"×"}}
,{"type":"Feature","geometry":{"type":"Point","coordinates":[135.868,35.027]},"properties":{"Name":"びわ湖大津館","Jusho":"滋賀県大津市柳が崎5-35","kouzui":"×","gake":"○","takashio":"×","jishin":"○","tsunami":"×","kaji":"×","naisui":"○","kazan":"×"}}
,{"type":"Feature","geometry":{"type":"Point","coordinates":[135.866,35.028]},"properties":{"Name":"柳が崎湖畔公園駐車場","Jusho":"滋賀県大津市柳が崎7","kouzui":"○","gake":"○","takashio":"×","jishin":"○","tsunami":"×","kaji":"×","naisui":"×","kazan":"×"}}
,{"type":"Feature","geometry":{"type":"Point","coordinates":[135.896,35.09]},"properties":{"Name":"雄琴市民センター","Jusho":"滋賀県大津市雄琴1-17-2","kouzui":"○","gake":"○","takashio":"×","jishin":"○","tsunami":"×","kaji":"×","naisui":"○","kazan":"×"}}
,{"type":"Feature","geometry":{"type":"Point","coordinates":[135.894,35.093]},"properties":{"Name":"雄琴小学校体育館","Jusho":"滋賀県大津市雄琴2-16-1","kouzui":"○","gake":"○","takashio":"×","jishin":"○","tsunami":"×","kaji":"×","naisui":"○","kazan":"×"}}
,{"type":"Feature","geometry":{"type":"Point","coordinates":[135.894,35.092]},"properties":{"Name":"旧雄琴幼稚園グラウンド","Jusho":"滋賀県大津市雄琴2-16-1","kouzui":"○","gake":"○","takashio":"×","jishin":"○","tsunami":"×","kaji":"×","naisui":"○","kazan":"×"}}
,{"type":"Feature","geometry":{"type":"Point","coordinates":[135.893,35.093]},"properties":{"Name":"雄琴小学校グラウンド","Jusho":"滋賀県大津市雄琴2-16-1","kouzui":"○","gake":"○","takashio":"×","jishin":"○","tsunami":"×","kaji":"×","naisui":"○","kazan":"×"}}
,{"type":"Feature","geometry":{"type":"Point","coordinates":[135.895,35.088]},"properties":{"Name":"雄琴湖岸緑地","Jusho":"滋賀県大津市雄琴6-1","kouzui":"×","gake":"○","takashio":"×","jishin":"○","tsunami":"×","kaji":"×","naisui":"×","kazan":"×"}}
,{"type":"Feature","geometry":{"type":"Point","coordinates":[135.907,35.142]},"properties":{"Name":"陽明公園","Jusho":"滋賀県大津市陽明町6","kouzui":"○","gake":"○","takashio":"×","jishin":"○","tsunami":"×","kaji":"×","naisui":"○","kazan":"×"}}
,{"type":"Feature","geometry":{"type":"Point","coordinates":[135.929,34.938]},"properties":{"Name":"田上市民センター","Jusho":"滋賀県大津市里3-9-1","kouzui":"×","gake":"○","takashio":"×","jishin":"○","tsunami":"×","kaji":"×","naisui":"○","kazan":"×"}}
,{"type":"Feature","geometry":{"type":"Point","coordinates":[135.931,34.937]},"properties":{"Name":"田上小学校体育館","Jusho":"滋賀県大津市里5-8-1","kouzui":"○","gake":"○","takashio":"×","jishin":"○","tsunami":"×","kaji":"×","naisui":"○","kazan":"×"}}
,{"type":"Feature","geometry":{"type":"Point","coordinates":[135.932,34.937]},"properties":{"Name":"田上小学校グラウンド","Jusho":"滋賀県大津市里5-8-1","kouzui":"○","gake":"○","takashio":"×","jishin":"○","tsunami":"×","kaji":"×","naisui":"×","kazan":"×"}}
,{"type":"Feature","geometry":{"type":"Point","coordinates":[135.874,34.996]},"properties":{"Name":"滋賀短期大学","Jusho":"滋賀県大津市竜が丘24-4","kouzui":"○","gake":"○","takashio":"×","jishin":"○","tsunami":"×","kaji":"×","naisui":"×","kazan":"×"}}
,{"type":"Feature","geometry":{"type":"Point","coordinates":[135.873,34.996]},"properties":{"Name":"滋賀短期大学グラウンド","Jusho":"滋賀県大津市竜が丘24-4","kouzui":"○","gake":"○","takashio":"×","jishin":"○","tsunami":"×","kaji":"×","naisui":"×","kazan":"×"}}
,{"type":"Feature","geometry":{"type":"Point","coordinates":[135.908,35.144]},"properties":{"Name":"真野北小学校体育館","Jusho":"滋賀県大津市緑町15-2","kouzui":"○","gake":"○","takashio":"×","jishin":"○","tsunami":"×","kaji":"×","naisui":"○","kazan":"×"}}
,{"type":"Feature","geometry":{"type":"Point","coordinates":[135.909,35.144]},"properties":{"Name":"真野北小学校グラウンド","Jusho":"滋賀県大津市緑町15-2","kouzui":"○","gake":"○","takashio":"×","jishin":"○","tsunami":"×","kaji":"×","naisui":"○","kazan":"×"}}
,{"type":"Feature","geometry":{"type":"Point","coordinates":[135.91,35.145]},"properties":{"Name":"みどり公園","Jusho":"滋賀県大津市緑町16","kouzui":"○","gake":"○","takashio":"×","jishin":"○","tsunami":"×","kaji":"×","naisui":"○","kazan":"×"}}
,{"type":"Feature","geometry":{"type":"Point","coordinates":[135.91,35.146]},"properties":{"Name":"伊香立・真野北幼稚園グラウンド","Jusho":"滋賀県大津市緑町16-2","kouzui":"○","gake":"○","takashio":"×","jishin":"○","tsunami":"×","kaji":"×","naisui":"○","kazan":"×"}}
,{"type":"Feature","geometry":{"type":"Point","coordinates":[135.91,35.146]},"properties":{"Name":"伊香立・真野北幼稚園","Jusho":"滋賀県大津市緑町16-2","kouzui":"○","gake":"×","takashio":"×","jishin":"○","tsunami":"×","kaji":"×","naisui":"○","kazan":"×"}}
,{"type":"Feature","geometry":{"type":"Point","coordinates":[135.909,35.142]},"properties":{"Name":"真野北市民センター","Jusho":"滋賀県大津市緑町4-1","kouzui":"○","gake":"○","takashio":"×","jishin":"○","tsunami":"×","kaji":"×","naisui":"○","kazan":"×"}}
,{"type":"Feature","geometry":{"type":"Point","coordinates":[135.909,35.142]},"properties":{"Name":"真野北市民センター前広場","Jusho":"滋賀県大津市緑町4-1","kouzui":"○","gake":"○","takashio":"×","jishin":"○","tsunami":"×","kaji":"×","naisui":"×","kazan":"×"}}
,{"type":"Feature","geometry":{"type":"Point","coordinates":[135.922,35.16]},"properties":{"Name":"和邇文化センター","Jusho":"滋賀県大津市和邇高城12","kouzui":"○","gake":"○","takashio":"×","jishin":"○","tsunami":"×","kaji":"×","naisui":"○","kazan":"×"}}
,{"type":"Feature","geometry":{"type":"Point","coordinates":[135.922,35.159]},"properties":{"Name":"和邇市民体育館","Jusho":"滋賀県大津市和邇高城27-2","kouzui":"○","gake":"○","takashio":"×","jishin":"×","tsunami":"×","kaji":"×","naisui":"○","kazan":"×"}}
,{"type":"Feature","geometry":{"type":"Point","coordinates":[135.923,35.154]},"properties":{"Name":"志賀南幼稚園","Jusho":"滋賀県大津市和邇今宿482-1","kouzui":"○","gake":"○","takashio":"×","jishin":"○","tsunami":"×","kaji":"×","naisui":"○","kazan":"×"}}
,{"type":"Feature","geometry":{"type":"Point","coordinates":[135.923,35.158]},"properties":{"Name":"和邇市民運動広場","Jusho":"滋賀県大津市和邇今宿851","kouzui":"○","gake":"○","takashio":"×","jishin":"○","tsunami":"×","kaji":"×","naisui":"×","kazan":"×"}}
,{"type":"Feature","geometry":{"type":"Point","coordinates":[135.92,35.158]},"properties":{"Name":"和邇小学校体育館","Jusho":"滋賀県大津市和邇中190","kouzui":"○","gake":"○","takashio":"×","jishin":"○","tsunami":"×","kaji":"×","naisui":"○","kazan":"×"}}
,{"type":"Feature","geometry":{"type":"Point","coordinates":[135.92,35.157]},"properties":{"Name":"和邇小学校グラウンド","Jusho":"滋賀県大津市和邇中190","kouzui":"○","gake":"○","takashio":"×","jishin":"○","tsunami":"×","kaji":"×","naisui":"○","kazan":"×"}}
,{"type":"Feature","geometry":{"type":"Point","coordinates":[135.901,35.16]},"properties":{"Name":"道の駅妹子の郷施設棟","Jusho":"滋賀県大津市和邇中528","kouzui":"○","gake":"○","takashio":"×","jishin":"○","tsunami":"×","kaji":"×","naisui":"○","kazan":"×"}}
,{"type":"Feature","geometry":{"type":"Point","coordinates":[135.901,35.16]},"properties":{"Name":"道の駅妹子の郷駐車場","Jusho":"滋賀県大津市和邇中528","kouzui":"○","gake":"○","takashio":"×","jishin":"○","tsunami":"×","kaji":"×","naisui":"○","kazan":"×"}}
,{"type":"Feature","geometry":{"type":"Point","coordinates":[136.26,35.264]},"properties":{"Name":"彦根市立佐和山小学校","Jusho":"滋賀県彦根市安清町11-32","kouzui":"○","gake":"○","takashio":"×","jishin":"○","tsunami":"×","kaji":"×","naisui":"○","kazan":"×"}}
,{"type":"Feature","geometry":{"type":"Point","coordinates":[136.196,35.208]},"properties":{"Name":"彦根市立稲枝東小学校","Jusho":"滋賀県彦根市稲部町308","kouzui":"○","gake":"○","takashio":"×","jishin":"○","tsunami":"×","kaji":"×","naisui":"○","kazan":"×"}}
,{"type":"Feature","geometry":{"type":"Point","coordinates":[136.19,35.208]},"properties":{"Name":"稲枝商工会館","Jusho":"滋賀県彦根市稲部町607-1","kouzui":"○","gake":"○","takashio":"×","jishin":"○","tsunami":"×","kaji":"×","naisui":"○","kazan":"×"}}
,{"type":"Feature","geometry":{"type":"Point","coordinates":[136.254,35.253]},"properties":{"Name":"パナソニック株式会社くらしアプライアンス社ビューティ・パーソナルケア事業部彦根工場","Jusho":"滋賀県彦根市岡町33","kouzui":"○","gake":"○","takashio":"×","jishin":"○","tsunami":"×","kaji":"×","naisui":"○","kazan":"×"}}
,{"type":"Feature","geometry":{"type":"Point","coordinates":[136.178,35.222]},"properties":{"Name":"彦根市立稲枝北小学校","Jusho":"滋賀県彦根市下岡部町597","kouzui":"○","gake":"○","takashio":"×","jishin":"○","tsunami":"×","kaji":"×","naisui":"○","kazan":"×"}}
,{"type":"Feature","geometry":{"type":"Point","coordinates":[136.213,35.221]},"properties":{"Name":"彦根市役所亀山出張所","Jusho":"滋賀県彦根市賀田山町278-2","kouzui":"○","gake":"○","takashio":"×","jishin":"○","tsunami":"×","kaji":"×","naisui":"○","kazan":"×"}}
,{"type":"Feature","geometry":{"type":"Point","coordinates":[136.214,35.221]},"properties":{"Name":"彦根市立亀山小学校","Jusho":"滋賀県彦根市賀田山町8","kouzui":"○","gake":"○","takashio":"×","jishin":"○","tsunami":"×","kaji":"×","naisui":"○","kazan":"×"}}
,{"type":"Feature","geometry":{"type":"Point","coordinates":[136.231,35.259]},"properties":{"Name":"彦根市中老人福祉センター","Jusho":"滋賀県彦根市開出今町1361","kouzui":"○","gake":"○","takashio":"×","jishin":"○","tsunami":"×","kaji":"×","naisui":"○","kazan":"×"}}
,{"type":"Feature","geometry":{"type":"Point","coordinates":[136.228,35.246]},"properties":{"Name":"彦根市立南中学校","Jusho":"滋賀県彦根市甘呂町156","kouzui":"○","gake":"○","takashio":"×","jishin":"○","tsunami":"×","kaji":"×","naisui":"○","kazan":"×"}}
,{"type":"Feature","geometry":{"type":"Point","coordinates":[136.226,35.247]},"properties":{"Name":"彦根市立城陽小学校","Jusho":"滋賀県彦根市甘呂町430","kouzui":"○","gake":"○","takashio":"×","jishin":"○","tsunami":"×","kaji":"×","naisui":"○","kazan":"×"}}
,{"type":"Feature","geometry":{"type":"Point","coordinates":[136.258,35.269]},"properties":{"Name":"彦根市立城東小学校","Jusho":"滋賀県彦根市京町2-2-19","kouzui":"○","gake":"○","takashio":"×","jishin":"○","tsunami":"×","kaji":"×","naisui":"○","kazan":"×"}}
,{"type":"Feature","geometry":{"type":"Point","coordinates":[136.24,35.228]},"properties":{"Name":"彦根市立河瀬小学校","Jusho":"滋賀県彦根市極楽寺町118","kouzui":"○","gake":"○","takashio":"×","jishin":"○","tsunami":"×","kaji":"×","naisui":"○","kazan":"×"}}
,{"type":"Feature","geometry":{"type":"Point","coordinates":[136.262,35.265]},"properties":{"Name":"彦根総合高等学校","Jusho":"滋賀県彦根市芹川町328","kouzui":"○","gake":"○","takashio":"×","jishin":"○","tsunami":"×","kaji":"×","naisui":"○","kazan":"×"}}
,{"type":"Feature","geometry":{"type":"Point","coordinates":[136.264,35.26]},"properties":{"Name":"彦根市立東中学校","Jusho":"滋賀県彦根市芹川町443","kouzui":"○","gake":"○","takashio":"×","jishin":"○","tsunami":"×","kaji":"×","naisui":"○","kazan":"×"}}
,{"type":"Feature","geometry":{"type":"Point","coordinates":[136.26,35.255]},"properties":{"Name":"滋賀県立彦根翔西館高等学校","Jusho":"滋賀県彦根市芹川町580","kouzui":"○","gake":"○","takashio":"×","jishin":"○","tsunami":"×","kaji":"×","naisui":"○","kazan":"×"}}
,{"type":"Feature","geometry":{"type":"Point","coordinates":[136.254,35.273]},"properties":{"Name":"滋賀県立彦根東高等学校","Jusho":"滋賀県彦根市金亀町4-7","kouzui":"○","gake":"○","takashio":"×","jishin":"○","tsunami":"×","kaji":"×","naisui":"○","kazan":"×"}}
,{"type":"Feature","geometry":{"type":"Point","coordinates":[136.248,35.278]},"properties":{"Name":"彦根市立西中学校","Jusho":"滋賀県彦根市金亀町8-1","kouzui":"○","gake":"○","takashio":"×","jishin":"○","tsunami":"×","kaji":"×","naisui":"○","kazan":"×"}}
,{"type":"Feature","geometry":{"type":"Point","coordinates":[136.242,35.237]},"properties":{"Name":"彦根市人権・福祉交流会館","Jusho":"滋賀県彦根市犬方町848-1","kouzui":"○","gake":"○","takashio":"×","jishin":"○","tsunami":"×","kaji":"×","naisui":"○","kazan":"×"}}
,{"type":"Feature","geometry":{"type":"Point","coordinates":[136.257,35.235]},"properties":{"Name":"彦根市高宮地域文化センター","Jusho":"滋賀県彦根市高宮町2311","kouzui":"○","gake":"○","takashio":"×","jishin":"○","tsunami":"×","kaji":"×","naisui":"○","kazan":"×"}}
,{"type":"Feature","geometry":{"type":"Point","coordinates":[136.258,35.232]},"properties":{"Name":"彦根市立高宮小学校","Jusho":"滋賀県彦根市高宮町2447","kouzui":"○","gake":"○","takashio":"×","jishin":"○","tsunami":"×","kaji":"×","naisui":"○","kazan":"×"}}
,{"type":"Feature","geometry":{"type":"Point","coordinates":[136.257,35.274]},"properties":{"Name":"彦根キャッスル　リゾート＆スパ","Jusho":"滋賀県彦根市佐和町1-8","kouzui":"○","gake":"○","takashio":"×","jishin":"○","tsunami":"×","kaji":"×","naisui":"○","kazan":"×"}}
,{"type":"Feature","geometry":{"type":"Point","coordinates":[136.194,35.246]},"properties":{"Name":"三津屋町民会館","Jusho":"滋賀県彦根市三津屋町1451","kouzui":"○","gake":"○","takashio":"×","jishin":"○","tsunami":"×","kaji":"×","naisui":"○","kazan":"×"}}
,{"type":"Feature","geometry":{"type":"Point","coordinates":[136.245,35.247]},"properties":{"Name":"プロシードアリーナＨＩＫＯＮＥ","Jusho":"滋賀県彦根市小泉町640","kouzui":"○","gake":"○","takashio":"×","jishin":"○","tsunami":"×","kaji":"×","naisui":"○","kazan":"×"}}
,{"type":"Feature","geometry":{"type":"Point","coordinates":[136.251,35.285]},"properties":{"Name":"千松会館","Jusho":"滋賀県彦根市松原1-12-13","kouzui":"○","gake":"○","takashio":"×","jishin":"○","tsunami":"×","kaji":"×","naisui":"○","kazan":"×"}}
,{"type":"Feature","geometry":{"type":"Point","coordinates":[136.256,35.281]},"properties":{"Name":"滋賀県立彦根総合スポーツ公園（県立彦根球場）","Jusho":"滋賀県彦根市松原町3028","kouzui":"○","gake":"○","takashio":"×","jishin":"○","tsunami":"×","kaji":"×","naisui":"○","kazan":"×"}}
,{"type":"Feature","geometry":{"type":"Point","coordinates":[136.259,35.283]},"properties":{"Name":"近江高等学校","Jusho":"滋賀県彦根市松原町3511-1","kouzui":"○","gake":"○","takashio":"×","jishin":"○","tsunami":"×","kaji":"×","naisui":"○","kazan":"×"}}
,{"type":"Feature","geometry":{"type":"Point","coordinates":[136.257,35.284]},"properties":{"Name":"彦根市立城北小学校","Jusho":"滋賀県彦根市松原町3751-3","kouzui":"○","gake":"○","takashio":"×","jishin":"○","tsunami":"×","kaji":"×","naisui":"○","kazan":"×"}}
,{"type":"Feature","geometry":{"type":"Point","coordinates":[136.25,35.287]},"properties":{"Name":"かんぽの宿彦根","Jusho":"滋賀県彦根市松原町3759","kouzui":"○","gake":"○","takashio":"×","jishin":"○","tsunami":"×","kaji":"×","naisui":"○","kazan":"×"}}
,{"type":"Feature","geometry":{"type":"Point","coordinates":[136.14,35.215]},"properties":{"Name":"新海町公民館周辺施設","Jusho":"滋賀県彦根市新海町409","kouzui":"○","gake":"○","takashio":"×","jishin":"○","tsunami":"×","kaji":"×","naisui":"○","kazan":"×"}}
,{"type":"Feature","geometry":{"type":"Point","coordinates":[136.24,35.229]},"properties":{"Name":"彦根市河瀬地区公民館","Jusho":"滋賀県彦根市森堂町131","kouzui":"○","gake":"○","takashio":"×","jishin":"○","tsunami":"×","kaji":"×","naisui":"○","kazan":"×"}}
,{"type":"Feature","geometry":{"type":"Point","coordinates":[136.271,35.25]},"properties":{"Name":"彦根市旭森地区公民館","Jusho":"滋賀県彦根市正法寺町642-1","kouzui":"○","gake":"○","takashio":"×","jishin":"○","tsunami":"×","kaji":"×","naisui":"○","kazan":"×"}}
,{"type":"Feature","geometry":{"type":"Point","coordinates":[136.245,35.227]},"properties":{"Name":"彦根市立彦根中学校","Jusho":"滋賀県彦根市西葛籠町553","kouzui":"○","gake":"○","takashio":"×","jishin":"○","tsunami":"×","kaji":"×","naisui":"○","kazan":"×"}}
,{"type":"Feature","geometry":{"type":"Point","coordinates":[136.236,35.261]},"properties":{"Name":"彦根市立中央中学校","Jusho":"滋賀県彦根市西今町1207","kouzui":"○","gake":"○","takashio":"×","jishin":"○","tsunami":"×","kaji":"×","naisui":"○","kazan":"×"}}
,{"type":"Feature","geometry":{"type":"Point","coordinates":[136.243,35.248]},"properties":{"Name":"彦根市立城南小学校","Jusho":"滋賀県彦根市西今町380","kouzui":"○","gake":"○","takashio":"×","jishin":"○","tsunami":"×","kaji":"×","naisui":"○","kazan":"×"}}
,{"type":"Feature","geometry":{"type":"Point","coordinates":[136.227,35.225]},"properties":{"Name":"東びわこ農業協同組合本店","Jusho":"滋賀県彦根市川瀬馬場町922-1","kouzui":"○","gake":"○","takashio":"×","jishin":"○","tsunami":"×","kaji":"×","naisui":"○","kazan":"×"}}
,{"type":"Feature","geometry":{"type":"Point","coordinates":[136.223,35.228]},"properties":{"Name":"滋賀県立河瀬高等学校","Jusho":"滋賀県彦根市川瀬馬場町975","kouzui":"○","gake":"○","takashio":"×","jishin":"○","tsunami":"×","kaji":"×","naisui":"○","kazan":"×"}}
,{"type":"Feature","geometry":{"type":"Point","coordinates":[136.261,35.271]},"properties":{"Name":"彦根市東地区公民館","Jusho":"滋賀県彦根市大東町1-26","kouzui":"○","gake":"○","takashio":"×","jishin":"○","tsunami":"×","kaji":"×","naisui":"○","kazan":"×"}}
,{"type":"Feature","geometry":{"type":"Point","coordinates":[136.262,35.27]},"properties":{"Name":"彦根勤労福祉会館","Jusho":"滋賀県彦根市大東町4-28","kouzui":"○","gake":"○","takashio":"×","jishin":"○","tsunami":"×","kaji":"×","naisui":"○","kazan":"×"}}
,{"type":"Feature","geometry":{"type":"Point","coordinates":[136.235,35.269]},"properties":{"Name":"彦根市立金城小学校","Jusho":"滋賀県彦根市大薮町391","kouzui":"○","gake":"○","takashio":"×","jishin":"○","tsunami":"×","kaji":"×","naisui":"○","kazan":"×"}}
,{"type":"Feature","geometry":{"type":"Point","coordinates":[136.247,35.27]},"properties":{"Name":"滋賀県立彦根翔西館高等学校　第二体育館・第二グラウンド","Jusho":"滋賀県彦根市池州町9-73","kouzui":"×","gake":"○","takashio":"×","jishin":"○","tsunami":"×","kaji":"×","naisui":"×","kazan":"×"}}
,{"type":"Feature","geometry":{"type":"Point","coordinates":[136.256,35.27]},"properties":{"Name":"彦根商工会議所","Jusho":"滋賀県彦根市中央町3-8","kouzui":"○","gake":"○","takashio":"×","jishin":"×","tsunami":"×","kaji":"×","naisui":"○","kazan":"×"}}
,{"type":"Feature","geometry":{"type":"Point","coordinates":[136.287,35.281]},"properties":{"Name":"彦根市鳥居本地区公民館","Jusho":"滋賀県彦根市鳥居本町1491-6","kouzui":"○","gake":"○","takashio":"×","jishin":"○","tsunami":"×","kaji":"×","naisui":"○","kazan":"×"}}
,{"type":"Feature","geometry":{"type":"Point","coordinates":[136.286,35.282]},"properties":{"Name":"彦根市立鳥居本小学校","Jusho":"滋賀県彦根市鳥居本町1550-1","kouzui":"○","gake":"○","takashio":"×","jishin":"○","tsunami":"×","kaji":"×","naisui":"○","kazan":"×"}}
,{"type":"Feature","geometry":{"type":"Point","coordinates":[136.285,35.284]},"properties":{"Name":"彦根市立鳥居本中学校","Jusho":"滋賀県彦根市鳥居本町788","kouzui":"○","gake":"○","takashio":"×","jishin":"○","tsunami":"×","kaji":"×","naisui":"○","kazan":"×"}}
,{"type":"Feature","geometry":{"type":"Point","coordinates":[136.179,35.213]},"properties":{"Name":"彦根市立稲枝中学校","Jusho":"滋賀県彦根市田原町202","kouzui":"○","gake":"○","takashio":"×","jishin":"○","tsunami":"×","kaji":"×","naisui":"○","kazan":"×"}}
,{"type":"Feature","geometry":{"type":"Point","coordinates":[136.265,35.249]},"properties":{"Name":"彦根市立旭森小学校","Jusho":"滋賀県彦根市東沼波町300","kouzui":"○","gake":"○","takashio":"×","jishin":"○","tsunami":"×","kaji":"×","naisui":"○","kazan":"×"}}
,{"type":"Feature","geometry":{"type":"Point","coordinates":[136.224,35.219]},"properties":{"Name":"滋賀県立彦根工業高等学校","Jusho":"滋賀県彦根市南川瀬町1310","kouzui":"○","gake":"○","takashio":"×","jishin":"○","tsunami":"×","kaji":"×","naisui":"○","kazan":"×"}}
,{"type":"Feature","geometry":{"type":"Point","coordinates":[136.246,35.278]},"properties":{"Name":"滋賀大学","Jusho":"滋賀県彦根市馬場1-1-1","kouzui":"○","gake":"○","takashio":"×","jishin":"○","tsunami":"×","kaji":"×","naisui":"○","kazan":"×"}}
,{"type":"Feature","geometry":{"type":"Point","coordinates":[136.248,35.281]},"properties":{"Name":"彦根市北老人福祉センター","Jusho":"滋賀県彦根市馬場1-5-5","kouzui":"○","gake":"○","takashio":"×","jishin":"○","tsunami":"×","kaji":"×","naisui":"○","kazan":"×"}}
,{"type":"Feature","geometry":{"type":"Point","coordinates":[136.219,35.26]},"properties":{"Name":"滋賀県立大学","Jusho":"滋賀県彦根市八坂町2500","kouzui":"○","gake":"○","takashio":"×","jishin":"○","tsunami":"×","kaji":"×","naisui":"○","kazan":"×"}}
,{"type":"Feature","geometry":{"type":"Point","coordinates":[136.205,35.205]},"properties":{"Name":"聖泉大学","Jusho":"滋賀県彦根市肥田町720","kouzui":"○","gake":"○","takashio":"×","jishin":"○","tsunami":"×","kaji":"×","naisui":"○","kazan":"×"}}
,{"type":"Feature","geometry":{"type":"Point","coordinates":[136.182,35.205]},"properties":{"Name":"彦富町公民館","Jusho":"滋賀県彦根市彦富町1718","kouzui":"○","gake":"○","takashio":"×","jishin":"○","tsunami":"×","kaji":"×","naisui":"○","kazan":"×"}}
,{"type":"Feature","geometry":{"type":"Point","coordinates":[136.244,35.26]},"properties":{"Name":"彦根市立平田小学校","Jusho":"滋賀県彦根市平田町267","kouzui":"○","gake":"○","takashio":"×","jishin":"○","tsunami":"×","kaji":"×","naisui":"○","kazan":"×"}}
,{"type":"Feature","geometry":{"type":"Point","coordinates":[136.24,35.256]},"properties":{"Name":"彦根市福祉センター","Jusho":"滋賀県彦根市平田町670","kouzui":"○","gake":"○","takashio":"×","jishin":"○","tsunami":"×","kaji":"×","naisui":"○","kazan":"×"}}
,{"type":"Feature","geometry":{"type":"Point","coordinates":[136.246,35.254]},"properties":{"Name":"東びわこ農業協同組合彦根中央支店","Jusho":"滋賀県彦根市平田町792-1","kouzui":"○","gake":"○","takashio":"×","jishin":"×","tsunami":"×","kaji":"×","naisui":"○","kazan":"×"}}
,{"type":"Feature","geometry":{"type":"Point","coordinates":[136.16,35.21]},"properties":{"Name":"彦根市立稲枝西小学校","Jusho":"滋賀県彦根市本庄町3583","kouzui":"○","gake":"○","takashio":"×","jishin":"○","tsunami":"×","kaji":"×","naisui":"○","kazan":"×"}}
,{"type":"Feature","geometry":{"type":"Point","coordinates":[136.181,35.213]},"properties":{"Name":"彦根市稲枝地区公民館","Jusho":"滋賀県彦根市本庄町60","kouzui":"○","gake":"○","takashio":"×","jishin":"○","tsunami":"×","kaji":"×","naisui":"○","kazan":"×"}}
,{"type":"Feature","geometry":{"type":"Point","coordinates":[136.181,35.212]},"properties":{"Name":"東びわこ農業協同組合稲枝支店","Jusho":"滋賀県彦根市本庄町92-1","kouzui":"○","gake":"○","takashio":"×","jishin":"○","tsunami":"×","kaji":"×","naisui":"○","kazan":"×"}}
,{"type":"Feature","geometry":{"type":"Point","coordinates":[136.253,35.271]},"properties":{"Name":"彦根市立彦根幼稚園","Jusho":"滋賀県彦根市本町1-3-33","kouzui":"○","gake":"○","takashio":"×","jishin":"○","tsunami":"×","kaji":"×","naisui":"○","kazan":"×"}}
,{"type":"Feature","geometry":{"type":"Point","coordinates":[136.253,35.269]},"properties":{"Name":"彦根市西地区公民館","Jusho":"滋賀県彦根市本町1-9-1","kouzui":"○","gake":"○","takashio":"×","jishin":"○","tsunami":"×","kaji":"×","naisui":"○","kazan":"×"}}
,{"type":"Feature","geometry":{"type":"Point","coordinates":[136.249,35.272]},"properties":{"Name":"彦根市立城西小学校","Jusho":"滋賀県彦根市本町3-3-22","kouzui":"○","gake":"○","takashio":"×","jishin":"○","tsunami":"×","kaji":"×","naisui":"○","kazan":"×"}}
,{"type":"Feature","geometry":{"type":"Point","coordinates":[136.233,35.256]},"properties":{"Name":"ひこね市文化プラザ","Jusho":"滋賀県彦根市野瀬町187-4","kouzui":"○","gake":"○","takashio":"×","jishin":"○","tsunami":"×","kaji":"×","naisui":"○","kazan":"×"}}
,{"type":"Feature","geometry":{"type":"Point","coordinates":[136.269,35.268]},"properties":{"Name":"彦根市民交流センター","Jusho":"滋賀県彦根市里根町163-1","kouzui":"○","gake":"○","takashio":"×","jishin":"○","tsunami":"×","kaji":"×","naisui":"○","kazan":"×"}}
,{"type":"Feature","geometry":{"type":"Point","coordinates":[136.225,35.234]},"properties":{"Name":"彦根市立若葉小学校","Jusho":"滋賀県彦根市蓮台寺町180","kouzui":"○","gake":"○","takashio":"×","jishin":"○","tsunami":"×","kaji":"×","naisui":"○","kazan":"×"}}
,{"type":"Feature","geometry":{"type":"Point","coordinates":[136.296,35.373]},"properties":{"Name":"南中学校","Jusho":"滋賀県長浜市永久寺町810","kouzui":"○","gake":"○","takashio":"×","jishin":"○","tsunami":"×","kaji":"×","naisui":"○","kazan":"×"}}
,{"type":"Feature","geometry":{"type":"Point","coordinates":[136.221,35.423]},"properties":{"Name":"びわ北小学校　洪水時は２階以上に避難","Jusho":"滋賀県長浜市益田町56","kouzui":"○","gake":"○","takashio":"×","jishin":"○","tsunami":"×","kaji":"×","naisui":"○","kazan":"×"}}
,{"type":"Feature","geometry":{"type":"Point","coordinates":[136.304,35.368]},"properties":{"Name":"長浜南小学校","Jusho":"滋賀県長浜市加田町1460","kouzui":"○","gake":"○","takashio":"×","jishin":"○","tsunami":"×","kaji":"×","naisui":"○","kazan":"×"}}
,{"type":"Feature","geometry":{"type":"Point","coordinates":[136.287,35.378]},"properties":{"Name":"長浜市民体育館","Jusho":"滋賀県長浜市宮司町1203","kouzui":"○","gake":"○","takashio":"×","jishin":"○","tsunami":"×","kaji":"×","naisui":"○","kazan":"×"}}
,{"type":"Feature","geometry":{"type":"Point","coordinates":[136.266,35.42]},"properties":{"Name":"虎姫高等学校　洪水時は２階以上に避難","Jusho":"滋賀県長浜市宮部町2410","kouzui":"○","gake":"○","takashio":"×","jishin":"○","tsunami":"×","kaji":"×","naisui":"○","kazan":"×"}}
,{"type":"Feature","geometry":{"type":"Point","coordinates":[136.232,35.419]},"properties":{"Name":"びわ中学校","Jusho":"滋賀県長浜市弓削町460","kouzui":"○","gake":"○","takashio":"×","jishin":"○","tsunami":"×","kaji":"×","naisui":"○","kazan":"×"}}
,{"type":"Feature","geometry":{"type":"Point","coordinates":[136.212,35.446]},"properties":{"Name":"朝日小学校","Jusho":"滋賀県長浜市湖北町山本1125","kouzui":"×","gake":"×","takashio":"×","jishin":"○","tsunami":"×","kaji":"×","naisui":"×","kazan":"×"}}
,{"type":"Feature","geometry":{"type":"Point","coordinates":[136.209,35.442]},"properties":{"Name":"山本山運動広場体育館","Jusho":"滋賀県長浜市湖北町山本2868","kouzui":"○","gake":"○","takashio":"×","jishin":"○","tsunami":"×","kaji":"×","naisui":"○","kazan":"×"}}
,{"type":"Feature","geometry":{"type":"Point","coordinates":[136.243,35.444]},"properties":{"Name":"湖北中学校","Jusho":"滋賀県長浜市湖北町速水1191","kouzui":"○","gake":"○","takashio":"×","jishin":"○","tsunami":"×","kaji":"×","naisui":"○","kazan":"×"}}
,{"type":"Feature","geometry":{"type":"Point","coordinates":[136.243,35.445]},"properties":{"Name":"湖北体育館","Jusho":"滋賀県長浜市湖北町速水1210","kouzui":"○","gake":"○","takashio":"×","jishin":"○","tsunami":"×","kaji":"×","naisui":"○","kazan":"×"}}
,{"type":"Feature","geometry":{"type":"Point","coordinates":[136.235,35.443]},"properties":{"Name":"速水小学校","Jusho":"滋賀県長浜市湖北町速水2561-1","kouzui":"○","gake":"○","takashio":"×","jishin":"○","tsunami":"×","kaji":"×","naisui":"○","kazan":"×"}}
,{"type":"Feature","geometry":{"type":"Point","coordinates":[136.243,35.446]},