var shizuoka={"type":"FeatureCollection","name":"shizuoka","features":[
{"type":"Feature","geometry":{"type":"Point","coordinates":[137.727,34.712]},"properties":{"Name":"元城小学校","Jusho":"静岡県浜松市中区元城町102-1","kouzui":"○","gake":"○","takashio":"×","jishin":"○","tsunami":"×","kaji":"○","naisui":"○","kazan":"×"}}
,{"type":"Feature","geometry":{"type":"Point","coordinates":[137.723,34.714]},"properties":{"Name":"中部中学校","Jusho":"静岡県浜松市中区松城町108-1","kouzui":"○","gake":"○","takashio":"×","jishin":"○","tsunami":"×","kaji":"○","naisui":"○","kazan":"×"}}
,{"type":"Feature","geometry":{"type":"Point","coordinates":[137.725,34.713]},"properties":{"Name":"浜松城公園","Jusho":"静岡県浜松市中区元城町100-2","kouzui":"×","gake":"×","takashio":"×","jishin":"○","tsunami":"×","kaji":"○","naisui":"×","kazan":"×"}}
,{"type":"Feature","geometry":{"type":"Point","coordinates":[137.726,34.711]},"properties":{"Name":"浜松市役所","Jusho":"静岡県浜松市中区元城町103ー2","kouzui":"×","gake":"×","takashio":"×","jishin":"○","tsunami":"×","kaji":"○","naisui":"×","kazan":"×"}}
,{"type":"Feature","geometry":{"type":"Point","coordinates":[137.738,34.712]},"properties":{"Name":"東小学校","Jusho":"静岡県浜松市中区中央2ー2ー1","kouzui":"○","gake":"○","takashio":"×","jishin":"○","tsunami":"×","kaji":"○","naisui":"○","kazan":"×"}}
,{"type":"Feature","geometry":{"type":"Point","coordinates":[137.741,34.719]},"properties":{"Name":"八幡中学校","Jusho":"静岡県浜松市中区野口町1533","kouzui":"○","gake":"○","takashio":"×","jishin":"○","tsunami":"×","kaji":"○","naisui":"○","kazan":"×"}}
,{"type":"Feature","geometry":{"type":"Point","coordinates":[137.744,34.718]},"properties":{"Name":"船越小学校","Jusho":"静岡県浜松市中区船越町29ー1","kouzui":"○","gake":"○","takashio":"×","jishin":"○","tsunami":"×","kaji":"○","naisui":"○","kazan":"×"}}
,{"type":"Feature","geometry":{"type":"Point","coordinates":[137.75,34.719]},"properties":{"Name":"船越公園","Jusho":"静岡県浜松市中区船越町49ー3","kouzui":"×","gake":"×","takashio":"×","jishin":"○","tsunami":"×","kaji":"○","naisui":"×","kazan":"×"}}
,{"type":"Feature","geometry":{"type":"Point","coordinates":[137.721,34.706]},"properties":{"Name":"西小学校","Jusho":"静岡県浜松市中区鴨江町70ー1","kouzui":"○","gake":"○","takashio":"×","jishin":"○","tsunami":"×","kaji":"○","naisui":"○","kazan":"×"}}
,{"type":"Feature","geometry":{"type":"Point","coordinates":[137.714,34.702]},"properties":{"Name":"西部中学校","Jusho":"静岡県浜松市中区鴨江2-17ー1","kouzui":"○","gake":"○","takashio":"×","jishin":"○","tsunami":"×","kaji":"○","naisui":"○","kazan":"×"}}
,{"type":"Feature","geometry":{"type":"Point","coordinates":[137.708,34.703]},"properties":{"Name":"鴨江小学校","Jusho":"静岡県浜松市中区西伊場町4ー1","kouzui":"○","gake":"○","takashio":"×","jishin":"○","tsunami":"×","kaji":"○","naisui":"○","kazan":"×"}}
,{"type":"Feature","geometry":{"type":"Point","coordinates":[137.71,34.702]},"properties":{"Name":"浜松西高校","Jusho":"静岡県浜松市中区西伊場町3ー1","kouzui":"×","gake":"×","takashio":"×","jishin":"○","tsunami":"×","kaji":"○","naisui":"×","kazan":"×"}}
,{"type":"Feature","geometry":{"type":"Point","coordinates":[137.721,34.699]},"properties":{"Name":"県居小学校","Jusho":"静岡県浜松市中区東伊場2-5-1","kouzui":"○","gake":"○","takashio":"×","jishin":"○","tsunami":"×","kaji":"○","naisui":"○","kazan":"×"}}
,{"type":"Feature","geometry":{"type":"Point","coordinates":[137.719,34.721]},"properties":{"Name":"追分小学校","Jusho":"静岡県浜松市中区布橋1-9-1","kouzui":"○","gake":"○","takashio":"×","jishin":"○","tsunami":"×","kaji":"○","naisui":"○","kazan":"×"}}
,{"type":"Feature","geometry":{"type":"Point","coordinates":[137.713,34.716]},"properties":{"Name":"広沢小学校","Jusho":"静岡県浜松市中区広沢2-51-1","kouzui":"○","gake":"○","takashio":"×","jishin":"○","tsunami":"×","kaji":"○","naisui":"○","kazan":"×"}}
,{"type":"Feature","geometry":{"type":"Point","coordinates":[137.714,34.727]},"properties":{"Name":"北部中学校","Jusho":"静岡県浜松市中区文丘町28ー1","kouzui":"○","gake":"○","takashio":"×","jishin":"○","tsunami":"×","kaji":"○","naisui":"○","kazan":"×"}}
,{"type":"Feature","geometry":{"type":"Point","coordinates":[137.709,34.713]},"properties":{"Name":"蜆塚中学校","Jusho":"静岡県浜松市中区蜆塚2-15ー1","kouzui":"○","gake":"○","takashio":"×","jishin":"○","tsunami":"×","kaji":"○","naisui":"○","kazan":"×"}}
,{"type":"Feature","geometry":{"type":"Point","coordinates":[137.717,34.718]},"properties":{"Name":"浜松北高校","Jusho":"静岡県浜松市中区広沢1-30ー1","kouzui":"×","gake":"×","takashio":"×","jishin":"○","tsunami":"×","kaji":"○","naisui":"×","kazan":"×"}}
,{"type":"Feature","geometry":{"type":"Point","coordinates":[137.717,34.716]},"properties":{"Name":"浜松市立高校","Jusho":"静岡県浜松市中区広沢1-21-1","kouzui":"×","gake":"×","takashio":"×","jishin":"○","tsunami":"×","kaji":"○","naisui":"×","kazan":"×"}}
,{"type":"Feature","geometry":{"type":"Point","coordinates":[137.718,34.728]},"properties":{"Name":"和地山公園","Jusho":"静岡県浜松市中区城北3-5-1","kouzui":"×","gake":"×","takashio":"×","jishin":"○","tsunami":"×","kaji":"○","naisui":"×","kazan":"×"}}
,{"type":"Feature","geometry":{"type":"Point","coordinates":[137.716,34.724]},"properties":{"Name":"静岡大学工学部","Jusho":"静岡県浜松市中区和地山3-10-1","kouzui":"×","gake":"×","takashio":"×","jishin":"○","tsunami":"×","kaji":"○","naisui":"×","kazan":"×"}}
,{"type":"Feature","geometry":{"type":"Point","coordinates":[137.74,34.701]},"properties":{"Name":"（旧）高砂小学校","Jusho":"静岡県浜松市中区寺島町450","kouzui":"○","gake":"○","takashio":"×","jishin":"○","tsunami":"×","kaji":"○","naisui":"○","kazan":"×"}}
,{"type":"Feature","geometry":{"type":"Point","coordinates":[137.743,34.698]},"properties":{"Name":"竜禅寺小学校","Jusho":"静岡県浜松市中区龍禅寺町844","kouzui":"○","gake":"○","takashio":"×","jishin":"○","tsunami":"×","kaji":"○","naisui":"○","kazan":"×"}}
,{"type":"Feature","geometry":{"type":"Point","coordinates":[137.738,34.694]},"properties":{"Name":"南部中学校","Jusho":"静岡県浜松市中区龍禅寺町706","kouzui":"○","gake":"○","takashio":"×","jishin":"○","tsunami":"×","kaji":"○","naisui":"○","kazan":"×"}}
,{"type":"Feature","geometry":{"type":"Point","coordinates":[137.732,34.7]},"properties":{"Name":"双葉小学校","Jusho":"静岡県浜松市中区海老塚2-5-1","kouzui":"○","gake":"○","takashio":"×","jishin":"○","tsunami":"×","kaji":"○","naisui":"○","kazan":"×"}}
,{"type":"Feature","geometry":{"type":"Point","coordinates":[137.727,34.692]},"properties":{"Name":"浅間小学校","Jusho":"静岡県浜松市中区西浅田2-12-1","kouzui":"○","gake":"○","takashio":"×","jishin":"○","tsunami":"×","kaji":"○","naisui":"○","kazan":"×"}}
,{"type":"Feature","geometry":{"type":"Point","coordinates":[137.726,34.688]},"properties":{"Name":"江西中学校","Jusho":"静岡県浜松市中区神田町123","kouzui":"○","gake":"○","takashio":"×","jishin":"○","tsunami":"×","kaji":"○","naisui":"○","kazan":"×"}}
,{"type":"Feature","geometry":{"type":"Point","coordinates":[137.73,34.718]},"properties":{"Name":"北小学校","Jusho":"静岡県浜松市中区山下町192","kouzui":"○","gake":"○","takashio":"×","jishin":"○","tsunami":"×","kaji":"○","naisui":"○","kazan":"×"}}
,{"type":"Feature","geometry":{"type":"Point","coordinates":[137.753,34.702]},"properties":{"Name":"相生小学校","Jusho":"静岡県浜松市中区向宿3-8-1","kouzui":"○","gake":"○","takashio":"×","jishin":"○","tsunami":"×","kaji":"○","naisui":"○","kazan":"×"}}
,{"type":"Feature","geometry":{"type":"Point","coordinates":[137.748,34.715]},"properties":{"Name":"佐藤小学校","Jusho":"静岡県浜松市中区佐藤2-32-1","kouzui":"○","gake":"○","takashio":"×","jishin":"○","tsunami":"×","kaji":"○","naisui":"○","kazan":"×"}}
,{"type":"Feature","geometry":{"type":"Point","coordinates":[137.749,34.707]},"properties":{"Name":"東部協働センター","Jusho":"静岡県浜松市中区相生町23-1","kouzui":"○","gake":"○","takashio":"×","jishin":"○","tsunami":"×","kaji":"○","naisui":"○","kazan":"×"}}
,{"type":"Feature","geometry":{"type":"Point","coordinates":[137.724,34.728]},"properties":{"Name":"城北小学校","Jusho":"静岡県浜松市中区住吉1-23-1","kouzui":"○","gake":"○","takashio":"×","jishin":"○","tsunami":"×","kaji":"○","naisui":"○","kazan":"×"}}
,{"type":"Feature","geometry":{"type":"Point","coordinates":[137.73,34.736]},"properties":{"Name":"高台中学校","Jusho":"静岡県浜松市中区住吉5-19-1","kouzui":"○","gake":"○","takashio":"×","jishin":"○","tsunami":"×","kaji":"○","naisui":"○","kazan":"×"}}
,{"type":"Feature","geometry":{"type":"Point","coordinates":[137.721,34.738]},"properties":{"Name":"泉小学校","Jusho":"静岡県浜松市中区泉1-16-1","kouzui":"○","gake":"○","takashio":"×","jishin":"○","tsunami":"×","kaji":"○","naisui":"○","kazan":"×"}}
,{"type":"Feature","geometry":{"type":"Point","coordinates":[137.726,34.746]},"properties":{"Name":"萩丘小学校","Jusho":"静岡県浜松市中区幸5-12-1","kouzui":"○","gake":"○","takashio":"×","jishin":"○","tsunami":"×","kaji":"○","naisui":"○","kazan":"×"}}
,{"type":"Feature","geometry":{"type":"Point","coordinates":[137.717,34.762]},"properties":{"Name":"葵が丘小学校","Jusho":"静岡県浜松市中区高丘東3-51-1","kouzui":"○","gake":"○","takashio":"×","jishin":"○","tsunami":"×","kaji":"○","naisui":"○","kazan":"×"}}
,{"type":"Feature","geometry":{"type":"Point","coordinates":[137.699,34.766]},"properties":{"Name":"瑞穂小学校","Jusho":"静岡県浜松市中区高丘北3-15-8","kouzui":"○","gake":"○","takashio":"×","jishin":"○","tsunami":"×","kaji":"○","naisui":"○","kazan":"×"}}
,{"type":"Feature","geometry":{"type":"Point","coordinates":[137.707,34.76]},"properties":{"Name":"開成中学校","Jusho":"静岡県浜松市中区高丘北1-15-20","kouzui":"○","gake":"○","takashio":"×","jishin":"○","tsunami":"×","kaji":"○","naisui":"○","kazan":"×"}}
,{"type":"Feature","geometry":{"type":"Point","coordinates":[137.711,34.769]},"properties":{"Name":"葵西小学校","Jusho":"静岡県浜松市中区葵西2-25-1","kouzui":"○","gake":"○","takashio":"×","jishin":"○","tsunami":"×","kaji":"○","naisui":"○","kazan":"×"}}
,{"type":"Feature","geometry":{"type":"Point","coordinates":[137.686,34.774]},"properties":{"Name":"花川小学校","Jusho":"静岡県浜松市中区花川町781","kouzui":"○","gake":"○","takashio":"×","jishin":"○","tsunami":"×","kaji":"○","naisui":"○","kazan":"×"}}
,{"type":"Feature","geometry":{"type":"Point","coordinates":[137.728,34.736]},"properties":{"Name":"浜松城北工業高校","Jusho":"静岡県浜松市中区住吉5-16-1","kouzui":"×","gake":"×","takashio":"×","jishin":"○","tsunami":"×","kaji":"○","naisui":"×","kazan":"×"}}
,{"type":"Feature","geometry":{"type":"Point","coordinates":[137.709,34.754]},"properties":{"Name":"高丘公園・高丘緑地","Jusho":"静岡県浜松市中区高丘東1-4-1","kouzui":"×","gake":"×","takashio":"×","jishin":"○","tsunami":"×","kaji":"○","naisui":"×","kazan":"×"}}
,{"type":"Feature","geometry":{"type":"Point","coordinates":[137.728,34.735]},"properties":{"Name":"浜松市上下水道部 住吉庁舎","Jusho":"静岡県浜松市中区住吉5-13-1","kouzui":"×","gake":"×","takashio":"×","jishin":"○","tsunami":"×","kaji":"○","naisui":"×","kazan":"×"}}
,{"type":"Feature","geometry":{"type":"Point","coordinates":[137.739,34.727]},"properties":{"Name":"曳馬小学校","Jusho":"静岡県浜松市中区曳馬1-1-35","kouzui":"○","gake":"○","takashio":"×","jishin":"○","tsunami":"×","kaji":"○","naisui":"○","kazan":"×"}}
,{"type":"Feature","geometry":{"type":"Point","coordinates":[137.742,34.736]},"properties":{"Name":"上島小学校","Jusho":"静岡県浜松市中区上島1-21-1","kouzui":"○","gake":"○","takashio":"×","jishin":"○","tsunami":"×","kaji":"○","naisui":"○","kazan":"×"}}
,{"type":"Feature","geometry":{"type":"Point","coordinates":[137.742,34.73]},"properties":{"Name":"曳馬中学校","Jusho":"静岡県浜松市中区曳馬4-2-15","kouzui":"○","gake":"○","takashio":"×","jishin":"○","tsunami":"×","kaji":"○","naisui":"○","kazan":"×"}}
,{"type":"Feature","geometry":{"type":"Point","coordinates":[137.736,34.744]},"properties":{"Name":"四ツ池公園","Jusho":"静岡県浜松市中区上島6-19-1","kouzui":"×","gake":"×","takashio":"×","jishin":"○","tsunami":"×","kaji":"○","naisui":"×","kazan":"×"}}
,{"type":"Feature","geometry":{"type":"Point","coordinates":[137.703,34.726]},"properties":{"Name":"富塚小学校","Jusho":"静岡県浜松市中区富塚町1803","kouzui":"○","gake":"○","takashio":"×","jishin":"○","tsunami":"×","kaji":"○","naisui":"○","kazan":"×"}}
,{"type":"Feature","geometry":{"type":"Point","coordinates":[137.7,34.728]},"properties":{"Name":"富塚西小学校","Jusho":"静岡県浜松市中区富塚町3541","kouzui":"○","gake":"○","takashio":"×","jishin":"○","tsunami":"×","kaji":"○","naisui":"○","kazan":"×"}}
,{"type":"Feature","geometry":{"type":"Point","coordinates":[137.702,34.722]},"properties":{"Name":"富塚中学校","Jusho":"静岡県浜松市中区富塚町460-1","kouzui":"○","gake":"○","takashio":"×","jishin":"○","tsunami":"×","kaji":"○","naisui":"○","kazan":"×"}}
,{"type":"Feature","geometry":{"type":"Point","coordinates":[137.697,34.706]},"properties":{"Name":"佐鳴台小学校","Jusho":"静岡県浜松市中区佐鳴台3-31-1","kouzui":"○","gake":"○","takashio":"×","jishin":"○","tsunami":"×","kaji":"○","naisui":"○","kazan":"×"}}
,{"type":"Feature","geometry":{"type":"Point","coordinates":[137.698,34.707]},"properties":{"Name":"佐鳴台中学校","Jusho":"静岡県浜松市中区佐鳴台3-32-1","kouzui":"○","gake":"○","takashio":"×","jishin":"○","tsunami":"×","kaji":"○","naisui":"○","kazan":"×"}}
,{"type":"Feature","geometry":{"type":"Point","coordinates":[137.795,34.772]},"properties":{"Name":"笠井小学校","Jusho":"静岡県浜松市東区笠井町1050","kouzui":"○","gake":"○","takashio":"×","jishin":"○","tsunami":"×","kaji":"○","naisui":"○","kazan":"×"}}
,{"type":"Feature","geometry":{"type":"Point","coordinates":[137.804,34.767]},"properties":{"Name":"豊西小学校","Jusho":"静岡県浜松市東区豊西町1551","kouzui":"○","gake":"○","takashio":"×","jishin":"○","tsunami":"×","kaji":"○","naisui":"○","kazan":"×"}}
,{"type":"Feature","geometry":{"type":"Point","coordinates":[137.793,34.771]},"properties":{"Name":"笠井中学校","Jusho":"静岡県浜松市東区笠井町1055","kouzui":"○","gake":"○","takashio":"×","jishin":"○","tsunami":"×","kaji":"○","naisui":"○","kazan":"×"}}
,{"type":"Feature","geometry":{"type":"Point","coordinates":[137.771,34.741]},"properties":{"Name":"与進小学校","Jusho":"静岡県浜松市東区天王町1351","kouzui":"○","gake":"○","takashio":"×","jishin":"○","tsunami":"×","kaji":"○","naisui":"○","kazan":"×"}}
,{"type":"Feature","geometry":{"type":"Point","coordinates":[137.777,34.743]},"properties":{"Name":"与進中学校","Jusho":"静岡県浜松市東区市野町1405ー1","kouzui":"○","gake":"○","takashio":"×","jishin":"○","tsunami":"×","kaji":"○","naisui":"○","kazan":"×"}}
,{"type":"Feature","geometry":{"type":"Point","coordinates":[137.766,34.746]},"properties":{"Name":"与進北小学校","Jusho":"静岡県浜松市東区市野町2715","kouzui":"○","gake":"○","takashio":"×","jishin":"○","tsunami":"×","kaji":"○","naisui":"○","kazan":"×"}}
,{"type":"Feature","geometry":{"type":"Point","coordinates":[137.783,34.725]},"properties":{"Name":"和田小学校","Jusho":"静岡県浜松市東区薬師町273ー2","kouzui":"○","gake":"○","takashio":"×","jishin":"○","tsunami":"×","kaji":"○","naisui":"○","kazan":"×"}}
,{"type":"Feature","geometry":{"type":"Point","coordinates":[137.788,34.722]},"properties":{"Name":"天竜中学校","Jusho":"静岡県浜松市東区龍光町43","kouzui":"○","gake":"○","takashio":"×","jishin":"○","tsunami":"×","kaji":"○","naisui":"○","kazan":"×"}}
,{"type":"Feature","geometry":{"type":"Point","coordinates":[137.789,34.721]},"properties":{"Name":"和田東小学校","Jusho":"静岡県浜松市東区安間町437ー2","kouzui":"○","gake":"○","takashio":"×","jishin":"○","tsunami":"×","kaji":"○","naisui":"○","kazan":"×"}}
,{"type":"Feature","geometry":{"type":"Point","coordinates":[137.786,34.73]},"properties":{"Name":"安間川公園","Jusho":"静岡県浜松市東区安新町181ー2","kouzui":"×","gake":"×","takashio":"×","jishin":"○","tsunami":"×","kaji":"○","naisui":"×","kazan":"×"}}
,{"type":"Feature","geometry":{"type":"Point","coordinates":[137.793,34.73]},"properties":{"Name":"中ノ町小学校","Jusho":"静岡県浜松市東区中野町427ー1","kouzui":"○","gake":"○","takashio":"×","jishin":"○","tsunami":"×","kaji":"○","naisui":"○","kazan":"×"}}
,{"type":"Feature","geometry":{"type":"Point","coordinates":[137.76,34.766]},"properties":{"Name":"積志小学校","Jusho":"静岡県浜松市東区積志町1497ー1","kouzui":"○","gake":"○","takashio":"×","jishin":"○","tsunami":"×","kaji":"○","naisui":"○","kazan":"×"}}
,{"type":"Feature","geometry":{"type":"Point","coordinates":[137.758,34.765]},"properties":{"Name":"積志中学校","Jusho":"静岡県浜松市東区有玉北町1200","kouzui":"○","gake":"○","takashio":"×","jishin":"○","tsunami":"×","kaji":"○","naisui":"○","kazan":"×"}}
,{"type":"Feature","geometry":{"type":"Point","coordinates":[137.775,34.77]},"properties":{"Name":"中郡小学校","Jusho":"静岡県浜松市東区中郡町915","kouzui":"○","gake":"○","takashio":"×","jishin":"○","tsunami":"×","kaji":"○","naisui":"○","kazan":"×"}}
,{"type":"Feature","geometry":{"type":"Point","coordinates":[137.773,34.757]},"properties":{"Name":"大瀬小学校","Jusho":"静岡県浜松市東区大瀬町2218","kouzui":"○","gake":"○","takashio":"×","jishin":"○","tsunami":"×","kaji":"○","naisui":"○","kazan":"×"}}
,{"type":"Feature","geometry":{"type":"Point","coordinates":[137.75,34.758]},"properties":{"Name":"有玉小学校","Jusho":"静岡県浜松市東区有玉南町614","kouzui":"○","gake":"○","takashio":"×","jishin":"○","tsunami":"×","kaji":"○","naisui":"○","kazan":"×"}}
,{"type":"Feature","geometry":{"type":"Point","coordinates":[137.775,34.768]},"properties":{"Name":"中郡中学校","Jusho":"静岡県浜松市東区中郡町897","kouzui":"○","gake":"○","takashio":"×","jishin":"○","tsunami":"×","kaji":"○","naisui":"○","kazan":"×"}}
,{"type":"Feature","geometry":{"type":"Point","coordinates":[137.758,34.717]},"properties":{"Name":"蒲小学校","Jusho":"静岡県浜松市東区神立町5","kouzui":"○","gake":"○","takashio":"×","jishin":"○","tsunami":"×","kaji":"○","naisui":"○","kazan":"×"}}
,{"type":"Feature","geometry":{"type":"Point","coordinates":[137.755,34.726]},"properties":{"Name":"丸塚中学校","Jusho":"静岡県浜松市東区丸塚町1050","kouzui":"○","gake":"○","takashio":"×","jishin":"○","tsunami":"×","kaji":"○","naisui":"○","kazan":"×"}}
,{"type":"Feature","geometry":{"type":"Point","coordinates":[137.67,34.727]},"properties":{"Name":"神久呂小学校","Jusho":"静岡県浜松市西区神ケ谷町3490","kouzui":"○","gake":"○","takashio":"×","jishin":"○","tsunami":"×","kaji":"○","naisui":"○","kazan":"×"}}
,{"type":"Feature","geometry":{"type":"Point","coordinates":[137.666,34.725]},"properties":{"Name":"神久呂中学校","Jusho":"静岡県浜松市西区大久保町6633","kouzui":"○","gake":"○","takashio":"×","jishin":"○","tsunami":"×","kaji":"○","naisui":"○","kazan":"×"}}
,{"type":"Feature","geometry":{"type":"Point","coordinates":[137.686,34.7]},"properties":{"Name":"入野小学校","Jusho":"静岡県浜松市西区入野町8757","kouzui":"○","gake":"○","takashio":"×","jishin":"○","tsunami":"×","kaji":"○","naisui":"○","kazan":"×"}}
,{"type":"Feature","geometry":{"type":"Point","coordinates":[137.677,34.703]},"properties":{"Name":"入野中学校","Jusho":"静岡県浜松市西区入野町17059","kouzui":"○","gake":"○","takashio":"×","jishin":"○","tsunami":"×","kaji":"○","naisui":"○","kazan":"×"}}
,{"type":"Feature","geometry":{"type":"Point","coordinates":[137.663,34.704]},"properties":{"Name":"西都台小学校","Jusho":"静岡県浜松市西区西鴨江町1106","kouzui":"○","gake":"○","takashio":"×","jishin":"○","tsunami":"×","kaji":"○","naisui":"○","kazan":"×"}}
,{"type":"Feature","geometry":{"type":"Point","coordinates":[137.681,34.714]},"properties":{"Name":"大平台小学校","Jusho":"静岡県浜松市西区大平台3-6-1","kouzui":"○","gake":"○","takashio":"×","jishin":"○","tsunami":"×","kaji":"○","naisui":"○","kazan":"×"}}
,{"type":"Feature","geometry":{"type":"Point","coordinates":[137.654,34.745]},"properties":{"Name":"伊佐見小学校","Jusho":"静岡県浜松市西区伊左地町5644","kouzui":"○","gake":"○","takashio":"×","jishin":"○","tsunami":"×","kaji":"○","naisui":"○","kazan":"×"}}
,{"type":"Feature","geometry":{"type":"Point","coordinates":[137.658,34.756]},"properties":{"Name":"湖東中学校","Jusho":"静岡県浜松市西区佐浜町4540","kouzui":"○","gake":"○","takashio":"×","jishin":"○","tsunami":"×","kaji":"○","naisui":"○","kazan":"×"}}
,{"type":"Feature","geometry":{"type":"Point","coordinates":[137.645,34.743]},"properties":{"Name":"佐浜会館","Jusho":"静岡県浜松市西区佐浜町1933-1","kouzui":"○","gake":"○","takashio":"×","jishin":"×","tsunami":"×","kaji":"×","naisui":"○","kazan":"×"}}
,{"type":"Feature","geometry":{"type":"Point","coordinates":[137.658,34.738]},"properties":{"Name":"はまゆう図書館","Jusho":"静岡県浜松市西区大人見町1750-394","kouzui":"○","gake":"○","takashio":"×","jishin":"○","tsunami":"×","kaji":"○","naisui":"○","kazan":"×"}}
,{"type":"Feature","geometry":{"type":"Point","coordinates":[137.667,34.766]},"properties":{"Name":"和地小学校","Jusho":"静岡県浜松市西区湖東町2005","kouzui":"○","gake":"○","takashio":"×","jishin":"○","tsunami":"×","kaji":"○","naisui":"○","kazan":"×"}}
,{"type":"Feature","geometry":{"type":"Point","coordinates":[137.656,34.684]},"properties":{"Name":"篠原小学校","Jusho":"静岡県浜松市西区篠原町10300","kouzui":"○","gake":"○","takashio":"×","jishin":"○","tsunami":"×","kaji":"○","naisui":"○","kazan":"×"}}
,{"type":"Feature","geometry":{"type":"Point","coordinates":[137.658,34.682]},"properties":{"Name":"篠原中学校","Jusho":"静岡県浜松市西区篠原町20200ー1","kouzui":"○","gake":"○","takashio":"×","jishin":"○","tsunami":"×","kaji":"○","naisui":"○","kazan":"×"}}
,{"type":"Feature","geometry":{"type":"Point","coordinates":[137.609,34.755]},"properties":{"Name":"庄内学園（小・中学校）","Jusho":"静岡県浜松市西区庄内町100","kouzui":"○","gake":"○","takashio":"×","jishin":"○","tsunami":"×","kaji":"○","naisui":"○","kazan":"×"}}
,{"type":"Feature","geometry":{"type":"Point","coordinates":[137.627,34.758]},"properties":{"Name":"(旧)北庄内小学校","Jusho":"静岡県浜松市西区白洲町295ー1","kouzui":"×","gake":"×","takashio":"×","jishin":"○","tsunami":"×","kaji":"○","naisui":"×","kazan":"×"}}
,{"type":"Feature","geometry":{"type":"Point","coordinates":[137.602,34.747]},"properties":{"Name":"(旧)南庄内小学校","Jusho":"静岡県浜松市西区庄和町108ー3","kouzui":"×","gake":"×","takashio":"×","jishin":"○","tsunami":"×","kaji":"○","naisui":"×","kazan":"×"}}
,{"type":"Feature","geometry":{"type":"Point","coordinates":[137.595,34.728]},"properties":{"Name":"村櫛小学校","Jusho":"静岡県浜松市西区村櫛町2551","kouzui":"○","gake":"○","takashio":"×","jishin":"○","tsunami":"×","kaji":"○","naisui":"○","kazan":"×"}}
,{"type":"Feature","geometry":{"type":"Point","coordinates":[137.624,34.735]},"properties":{"Name":"白洲公民館","Jusho":"静岡県浜松市西区白洲町3850-1","kouzui":"○","gake":"○","takashio":"×","jishin":"×","tsunami":"×","kaji":"×","naisui":"○","kazan":"×"}}
,{"type":"Feature","geometry":{"type":"Point","coordinates":[137.611,34.686]},"properties":{"Name":"舞阪小学校","Jusho":"静岡県浜松市西区舞阪町舞阪76","kouzui":"○","gake":"○","takashio":"×","jishin":"○","tsunami":"×","kaji":"○","naisui":"○","kazan":"×"}}
,{"type":"Feature","geometry":{"type":"Point","coordinates":[137.604,34.693]},"properties":{"Name":"舞阪第１保育園","Jusho":"静岡県浜松市西区舞阪町弁天島3885","kouzui":"○","gake":"○","takashio":"×","jishin":"○","tsunami":"×","kaji":"○","naisui":"○","kazan":"×"}}
,{"type":"Feature","geometry":{"type":"Point","coordinates":[137.614,34.683]},"properties":{"Name":"舞阪第２保育園","Jusho":"静岡県浜松市西区舞阪町舞阪2659ー3","kouzui":"○","gake":"○","takashio":"×","jishin":"○","tsunami":"×","kaji":"○","naisui":"○","kazan":"×"}}
,{"type":"Feature","geometry":{"type":"Point","coordinates":[137.61,34.68]},"properties":{"Name":"舞阪幼稚園","Jusho":"静岡県浜松市西区舞阪町舞阪2668ー33","kouzui":"○","gake":"○","takashio":"×","jishin":"○","tsunami":"×","kaji":"○","naisui":"○","kazan":"×"}}
,{"type":"Feature","geometry":{"type":"Point","coordinates":[137.616,34.679]},"properties":{"Name":"舞阪中学校","Jusho":"静岡県浜松市西区舞阪町舞阪4601","kouzui":"○","gake":"○","takashio":"×","jishin":"○","tsunami":"×","kaji":"○","naisui":"○","kazan":"×"}}
,{"type":"Feature","geometry":{"type":"Point","coordinates":[137.613,34.679]},"properties":{"Name":"舞阪総合体育館","Jusho":"静岡県浜松市西区舞阪町舞阪2623-32","kouzui":"○","gake":"○","takashio":"×","jishin":"×","tsunami":"×","kaji":"×","naisui":"○","kazan":"×"}}
,{"type":"Feature","geometry":{"type":"Point","coordinates":[137.606,34.697]},"properties":{"Name":"渚園","Jusho":"静岡県浜松市西区舞阪町弁天島5005-1","kouzui":"○","gake":"○","takashio":"×","jishin":"○","tsunami":"×","kaji":"○","naisui":"○","kazan":"×"}}
,{"type":"Feature","geometry":{"type":"Point","coordinates":[137.596,34.695]},"properties":{"Name":"乙女園グラウンド","Jusho":"静岡県浜松市西区舞阪町舞阪3481ー25","kouzui":"×","gake":"×","takashio":"×","jishin":"○","tsunami":"×","kaji":"○","naisui":"×","kazan":"×"}}
,{"type":"Feature","geometry":{"type":"Point","coordinates":[137.604,34.692]},"properties":{"Name":"舞阪西野島浦公園","Jusho":"静岡県浜松市西区舞阪町弁天島2658ー103","kouzui":"×","gake":"×","takashio":"×","jishin":"○","tsunami":"×","kaji":"○","naisui":"×","kazan":"×"}}
,{"type":"Feature","geometry":{"type":"Point","coordinates":[137.613,34.692]},"properties":{"Name":"舞阪吹上浄水場","Jusho":"静岡県浜松市西区舞阪町舞阪2600ー1","kouzui":"×","gake":"×","takashio":"×","jishin":"○","tsunami":"×","kaji":"○","naisui":"×","kazan":"×"}}
,{"type":"Feature","geometry":{"type":"Point","coordinates":[137.611,34.684]},"properties":{"Name":"舞阪岐佐神社","Jusho":"静岡県浜松市東区安新町181ー2","kouzui":"×","gake":"×","takashio":"×","jishin":"○","tsunami":"×","kaji":"○","naisui":"×","kazan":"×"}}
,{"type":"Feature","geometry":{"type":"Point","coordinates":[137.618,34.685]},"properties":{"Name":"稲荷山公園","Jusho":"静岡県浜松市西区舞阪町舞阪5167","kouzui":"×","gake":"×","takashio":"×","jishin":"○","tsunami":"×","kaji":"○","naisui":"×","kazan":"×"}}
,{"type":"Feature","geometry":{"type":"Point","coordinates":[137.603,34.69]},"properties":{"Name":"ＪＲ東海弁天島駅","Jusho":"静岡県浜松市西区舞阪町弁天島3285ー18","kouzui":"×","gake":"×","takashio":"×","jishin":"○","tsunami":"×","kaji":"○","naisui":"×","kazan":"×"}}
,{"type":"Feature","geometry":{"type":"Point","coordinates":[137.612,34.684]},"properties":{"Name":"舞阪養泉寺","Jusho":"静岡県浜松市西区舞阪町舞阪1907ー1","kouzui":"×","gake":"×","takashio":"×","jishin":"○","tsunami":"×","kaji":"○","naisui":"×","kazan":"×"}}
,{"type":"Feature","geometry":{"type":"Point","coordinates":[137.62,34.679]},"properties":{"Name":"舞阪表浜東公園","Jusho":"静岡県浜松市西区舞阪町舞阪2668ー25","kouzui":"×","gake":"×","takashio":"×","jishin":"○","tsunami":"×","kaji":"○","naisui":"×","kazan":"×"}}
,{"type":"Feature","geometry":{"type":"Point","coordinates":[137.623,34.685]},"properties":{"Name":"舞阪順愛保育園","Jusho":"静岡県浜松市西区舞阪町舞阪5372","kouzui":"×","gake":"×","takashio":"×","jishin":"○","tsunami":"×","kaji":"○","naisui":"×","kazan":"×"}}
,{"type":"Feature","geometry":{"type":"Point","coordinates":[137.623,34.686]},"properties":{"Name":"舞阪長池遊園地","Jusho":"静岡県浜松市西区西区舞阪町舞阪5375","kouzui":"×","gake":"×","takashio":"×","jishin":"○","tsunami":"×","kaji":"○","naisui":"×","kazan":"×"}}
,{"type":"Feature","geometry":{"type":"Point","coordinates":[137.603,34.696]},"properties":{"Name":"千鳥園ゲートボール場","Jusho":"静岡県浜松市西区舞阪町舞阪弁天島3212-10","kouzui":"×","gake":"×","takashio":"×","jishin":"○","tsunami":"×","kaji":"○","naisui":"×","kazan":"×"}}
,{"type":"Feature","geometry":{"type":"Point","coordinates":[137.6,34.697]},"properties":{"Name":"観月園児童遊園地","Jusho":"静岡県浜松市西区舞阪町弁天島3257-1","kouzui":"×","gake":"×","takashio":"×","jishin":"○","tsunami":"×","kaji":"○","naisui":"×","kazan":"×"}}
,{"type":"Feature","geometry":{"type":"Point","coordinates":[137.633,34.702]},"properties":{"Name":"雄踏小学校","Jusho":"静岡県浜松市西区雄踏町宇布見7997ー1","kouzui":"○","gake":"○","takashio":"×","jishin":"○","tsunami":"×","kaji":"○","naisui":"○","kazan":"×"}}
,{"type":"Feature","geometry":{"type":"Point","coordinates":[137.633,34.695]},"properties":{"Name":"雄踏中学校","Jusho":"静岡県浜松市西区雄踏町宇布見9595","kouzui":"○","gake":"○","takashio":"×","jishin":"○","tsunami":"×","kaji":"○","naisui":"○","kazan":"×"}}
,{"type":"Feature","geometry":{"type":"Point","coordinates":[137.635,34.702]},"properties":{"Name":"雄踏文化センター","Jusho":"静岡県浜松市西区雄踏町宇布見5427","kouzui":"○","gake":"○","takashio":"×","jishin":"×","tsunami":"×","kaji":"×","naisui":"○","kazan":"×"}}
,{"type":"Feature","geometry":{"type":"Point","coordinates":[137.617,34.703]},"properties":{"Name":"雄踏総合体育館","Jusho":"静岡県浜松市西区雄踏町宇布見9881-1","kouzui":"○","gake":"○","takashio":"×","jishin":"×","tsunami":"×","kaji":"×","naisui":"○","kazan":"×"}}
,{"type":"Feature","geometry":{"type":"Point","coordinates":[137.622,34.71]},"properties":{"Name":"雄踏山崎公民館","Jusho":"静岡県浜松市西区雄踏町山崎3549-1","kouzui":"×","gake":"×","takashio":"×","jishin":"○","tsunami":"×","kaji":"○","naisui":"×","kazan":"×"}}
,{"type":"Feature","geometry":{"type":"Point","coordinates":[137.745,34.682]},"properties":{"Name":"白脇小学校","Jusho":"静岡県浜松市南区寺脇町431","kouzui":"○","gake":"○","takashio":"×","jishin":"○","tsunami":"×","kaji":"○","naisui":"○","kazan":"×"}}
,{"type":"Feature","geometry":{"type":"Point","coordinates":[137.726,34.668]},"properties":{"Name":"砂丘小学校","Jusho":"静岡県浜松市南区白羽町2512","kouzui":"○","gake":"○","takashio":"×","jishin":"○","tsunami":"×","kaji":"○","naisui":"○","kazan":"×"}}
,{"type":"Feature","geometry":{"type":"Point","coordinates":[137.743,34.692]},"properties":{"Name":"三島楊子公園","Jusho":"静岡県浜松市南区楊子町549-1","kouzui":"×","gake":"×","takashio":"×","jishin":"○","tsunami":"×","kaji":"○","naisui":"×","kazan":"×"}}
,{"type":"Feature","geometry":{"type":"Point","coordinates":[137.703,34.683]},"properties":{"Name":"新津小学校","Jusho":"静岡県浜松市南区新橋町777","kouzui":"○","gake":"○","takashio":"×","jishin":"○","tsunami":"×","kaji":"○","naisui":"○","kazan":"×"}}
,{"type":"Feature","geometry":{"type":"Point","coordinates":[137.701,34.683]},"properties":{"Name":"新津中学校","Jusho":"静岡県浜松市南区新橋町748","kouzui":"○","gake":"○","takashio":"×","jishin":"○","tsunami":"×","kaji":"○","naisui":"○","kazan":"×"}}
,{"type":"Feature","geometry":{"type":"Point","coordinates":[137.716,34.683]},"properties":{"Name":"新橋体育センター","Jusho":"静岡県浜松市南区新橋町1-2","kouzui":"×","gake":"×","takashio":"×","jishin":"○","tsunami":"×","kaji":"○","naisui":"×","kazan":"×"}}
,{"type":"Feature","geometry":{"type":"Point","coordinates":[137.769,34.663]},"properties":{"Name":"南の星小学校","Jusho":"静岡県浜松市南区西島町1148-1","kouzui":"○","gake":"○","takashio":"×","jishin":"○","tsunami":"×","kaji":"○","naisui":"○","kazan":"×"}}
,{"type":"Feature","geometry":{"type":"Point","coordinates":[137.77,34.668]},"properties":{"Name":"(旧)五島小学校グラウンド","Jusho":"静岡県浜松市南区西島町510","kouzui":"×","gake":"×","takashio":"×","jishin":"○","tsunami":"×","kaji":"○","naisui":"×","kazan":"×"}}
,{"type":"Feature","geometry":{"type":"Point","coordinates":[137.768,34.658]},"properties":{"Name":"(旧)遠州浜小学校","Jusho":"静岡県浜松市南区遠州浜2-9-1","kouzui":"×","gake":"×","takashio":"×","jishin":"○","tsunami":"×","kaji":"○","naisui":"×","kazan":"×"}}
,{"type":"Feature","geometry":{"type":"Point","coordinates":[137.783,34.676]},"properties":{"Name":"河輪小学校","Jusho":"静岡県浜松市南区東町333","kouzui":"○","gake":"○","takashio":"×","jishin":"○","tsunami":"×","kaji":"○","naisui":"○","kazan":"×"}}
,{"type":"Feature","geometry":{"type":"Point","coordinates":[137.777,34.681]},"properties":{"Name":"東陽中学校","Jusho":"静岡県浜松市南区西町700","kouzui":"○","gake":"○","takashio":"×","jishin":"○","tsunami":"×","kaji":"○","naisui":"○","kazan":"×"}}
,{"type":"Feature","geometry":{"type":"Point","coordinates":[137.767,34.692]},"properties":{"Name":"芳川小学校","Jusho":"静岡県浜松市南区芳川町206ー1","kouzui":"○","gake":"○","takashio":"×","jishin":"○","tsunami":"×","kaji":"○","naisui":"○","kazan":"×"}}
,{"type":"Feature","geometry":{"type":"Point","coordinates":[137.765,34.694]},"properties":{"Name":"南陽中学校","Jusho":"静岡県浜松市南区芳川町80","kouzui":"○","gake":"○","takashio":"×","jishin":"○","tsunami":"×","kaji":"○","naisui":"○","kazan":"×"}}
,{"type":"Feature","geometry":{"type":"Point","coordinates":[137.761,34.699]},"properties":{"Name":"芳川北小学校","Jusho":"静岡県浜松市南区頭陀寺町1046ー1","kouzui":"○","gake":"○","takashio":"×","jishin":"○","tsunami":"×","kaji":"○","naisui":"○","kazan":"×"}}
,{"type":"Feature","geometry":{"type":"Point","coordinates":[137.764,34.695]},"properties":{"Name":"芳川公園","Jusho":"静岡県浜松市南区芳川町3093ー1","kouzui":"×","gake":"×","takashio":"×","jishin":"○","tsunami":"×","kaji":"○","naisui":"×","kazan":"×"}}
,{"type":"Feature","geometry":{"type":"Point","coordinates":[137.774,34.706]},"properties":{"Name":"飯田小学校","Jusho":"静岡県浜松市南区飯田町978","kouzui":"○","gake":"○","takashio":"×","jishin":"○","tsunami":"×","kaji":"○","naisui":"○","kazan":"×"}}
,{"type":"Feature","geometry":{"type":"Point","coordinates":[137.774,34.703]},"properties":{"Name":"東部中学校","Jusho":"静岡県浜松市南区飯田町1038","kouzui":"○","gake":"○","takashio":"×","jishin":"○","tsunami":"×","kaji":"○","naisui":"○","kazan":"×"}}
,{"type":"Feature","geometry":{"type":"Point","coordinates":[137.784,34.699]},"properties":{"Name":"飯田公園・大塚グラウンド","Jusho":"静岡県浜松市南区大塚町地内安間川河川敷","kouzui":"×","gake":"×","takashio":"×","jishin":"○","tsunami":"×","kaji":"○","naisui":"×","kazan":"×"}}
,{"type":"Feature","geometry":{"type":"Point","coordinates":[137.696,34.69]},"properties":{"Name":"可美小学校","Jusho":"静岡県浜松市南区若林町1748","kouzui":"○","gake":"○","takashio":"×","jishin":"○","tsunami":"×","kaji":"○","naisui":"○","kazan":"×"}}
,{"type":"Feature","geometry":{"type":"Point","coordinates":[137.691,34.688]},"properties":{"Name":"可美中学校","Jusho":"静岡県浜松市南区増楽町700","kouzui":"○","gake":"○","takashio":"×","jishin":"○","tsunami":"×","kaji":"○","naisui":"○","kazan":"×"}}
,{"type":"Feature","geometry":{"type":"Point","coordinates":[137.696,34.687]},"properties":{"Name":"可美公園","Jusho":"静岡県浜松市南区増楽町920ー2","kouzui":"×","gake":"×","takashio":"×","jishin":"○","tsunami":"×","kaji":"○","naisui":"×","kazan":"×"}}
,{"type":"Feature","geometry":{"type":"Point","coordinates":[137.713,34.778]},"properties":{"Name":"三方原小学校","Jusho":"静岡県浜松市北区三方原町682","kouzui":"○","gake":"○","takashio":"×","jishin":"○","tsunami":"×","kaji":"○","naisui":"○","kazan":"×"}}
,{"type":"Feature","geometry":{"type":"Point","coordinates":[137.721,34.787]},"properties":{"Name":"豊岡小学校","Jusho":"静岡県浜松市北区豊岡町22","kouzui":"○","gake":"○","takashio":"×","jishin":"○","tsunami":"×","kaji":"○","naisui":"○","kazan":"×"}}
,{"type":"Feature","geometry":{"type":"Point","coordinates":[137.715,34.77]},"properties":{"Name":"北星中学校","Jusho":"静岡県浜松市北区初生町1305ー1","kouzui":"○","gake":"○","takashio":"×","jishin":"○","tsunami":"×","kaji":"○","naisui":"○","kazan":"×"}}
,{"type":"Feature","geometry":{"type":"Point","coordinates":[137.728,34.769]},"properties":{"Name":"初生小学校","Jusho":"静岡県浜松市北区初生町1001ー2","kouzui":"○","gake":"○","takashio":"×","jishin":"○","tsunami":"×","kaji":"○","naisui":"○","kazan":"×"}}
,{"type":"Feature","geometry":{"type":"Point","coordinates":[137.72,34.789]},"properties":{"Name":"三方原中学校","Jusho":"静岡県浜松市北区豊岡町196","kouzui":"○","gake":"○","takashio":"×","jishin":"○","tsunami":"×","kaji":"○","naisui":"○","kazan":"×"}}
,{"type":"Feature","geometry":{"type":"Point","coordinates":[137.717,34.827]},"properties":{"Name":"都田小学校","Jusho":"静岡県浜松市北区都田町5609ー2","kouzui":"○","gake":"○","takashio":"×","jishin":"○","tsunami":"×","kaji":"○","naisui":"○","kazan":"×"}}
,{"type":"Feature","geometry":{"type":"Point","coordinates":[137.72,34.833]},"properties":{"Name":"都田中学校","Jusho":"静岡県浜松市北区都田町5824-18","kouzui":"○","gake":"○","takashio":"×","jishin":"○","tsunami":"×","kaji":"○","naisui":"○","kazan":"×"}}
,{"type":"Feature","geometry":{"type":"Point","coordinates":[137.737,34.812]},"properties":{"Name":"都田南小学校","Jusho":"静岡県浜松市北区都田町8756","kouzui":"○","gake":"○","takashio":"×","jishin":"○","tsunami":"×","kaji":"○","naisui":"○","kazan":"×"}}
,{"type":"Feature","geometry":{"type":"Point","coordinates":[137.718,34.858]},"properties":{"Name":"(旧)滝沢小学校","Jusho":"静岡県浜松市北区滝沢町1520","kouzui":"○","gake":"○","takashio":"×","jishin":"○","tsunami":"×","kaji":"○","naisui":"○","kazan":"×"}}
,{"type":"Feature","geometry":{"type":"Point","coordinates":[137.655,34.811]},"properties":{"Name":"気賀小学校","Jusho":"静岡県浜松市北区細江町気賀11529ー1","kouzui":"○","gake":"○","takashio":"×","jishin":"○","tsunami":"×","kaji":"○","naisui":"○","kazan":"×"}}
,{"type":"Feature","geometry":{"type":"Point","coordinates":[137.624,34.802]},"properties":{"Name":"西気賀小学校","Jusho":"静岡県浜松市北区細江町気賀9994ー1","kouzui":"○","gake":"○","takashio":"×","jishin":"○","tsunami":"×","kaji":"○","naisui":"○","kazan":"×"}}
,{"type":"Feature","geometry":{"type":"Point","coordinates":[137.643,34.787]},"properties":{"Name":"伊目小学校","Jusho":"静岡県浜松市北区細江町気賀3241","kouzui":"○","gake":"○","takashio":"×","jishin":"○","tsunami":"×","kaji":"○","naisui":"○","kazan":"×"}}
,{"type":"Feature","geometry":{"type":"Point","coordinates":[137.685,34.794]},"properties":{"Name":"高台幼稚園","Jusho":"静岡県浜松市北区細江町中川7172ー701","kouzui":"○","gake":"○","takashio":"×","jishin":"○","tsunami":"×","kaji":"○","naisui":"○","kazan":"×"}}
,{"type":"Feature","geometry":{"type":"Point","coordinates":[137.678,34.81]},"properties":{"Name":"中川小学校","Jusho":"静岡県浜松市北区細江町中川2553","kouzui":"×","gake":"×","takashio":"×","jishin":"○","tsunami":"×","kaji":"○","naisui":"×","kazan":"×"}}
,{"type":"Feature","geometry":{"type":"Point","coordinates":[137.648,34.808]},"properties":{"Name":"細江中学校","Jusho":"静岡県浜松市北区細江町気賀7300ー1","kouzui":"×","gake":"×","takashio":"×","jishin":"○","tsunami":"×","kaji":"○","naisui":"×","kazan":"×"}}
,{"type":"Feature","geometry":{"type":"Point","coordinates":[137.652,34.81]},"properties":{"Name":"上町地区コミュニティ防災センター","Jusho":"静岡県浜松市北区細江町気賀1007-2","kouzui":"×","gake":"×","takashio":"×","jishin":"○","tsunami":"×","kaji":"○","naisui":"×","kazan":"×"}}
,{"type":"Feature","geometry":{"type":"Point","coordinates":[137.657,34.809]},"properties":{"Name":"清水公民館","Jusho":"静岡県浜松市北区細江町気賀31ー2","kouzui":"×","gake":"×","takashio":"×","jishin":"○","tsunami":"×","kaji":"○","naisui":"×","kazan":"×"}}
,{"type":"Feature","geometry":{"type":"Point","coordinates":[137.662,34.82]},"properties":{"Name":"小野地区コミュニティ防災センター","Jusho":"静岡県浜松市北区細江町小野4ー8","kouzui":"×","gake":"×","takashio":"×","jishin":"○","tsunami":"×","kaji":"○","naisui":"×","kazan":"×"}}
,{"type":"Feature","geometry":{"type":"Point","coordinates":[137.654,34.802]},"properties":{"Name":"油田地区コミュニティ防災センター","Jusho":"静岡県浜松市北区細江町気賀1374ー2","kouzui":"×","gake":"×","takashio":"×","jishin":"○","tsunami":"×","kaji":"○","naisui":"×","kazan":"×"}}
,{"type":"Feature","geometry":{"type":"Point","coordinates":[137.629,34.801]},"properties":{"Name":"下村地区コミュニティ防災センター","Jusho":"静岡県浜松市北区細江町気賀9800ー1","kouzui":"×","gake":"×","takashio":"×","jishin":"○","tsunami":"×","kaji":"○","naisui":"×","kazan":"×"}}
,{"type":"Feature","geometry":{"type":"Point","coordinates":[137.62,34.802]},"properties":{"Name":"西気賀コミュニティセンター","Jusho":"静岡県浜松市北区細江町気賀10413ー6","kouzui":"×","gake":"×","takashio":"×","jishin":"○","tsunami":"×","kaji":"○","naisui":"×","kazan":"×"}}
,{"type":"Feature","geometry":{"type":"Point","coordinates":[137.613,34.79]},"properties":{"Name":"寸座地区コミュニティ防災センター","Jusho":"静岡県浜松市北区細江町気賀11100ー1","kouzui":"×","gake":"×","takashio":"×","jishin":"○","tsunami":"×","kaji":"○","naisui":"×","kazan":"×"}}
,{"type":"Feature","geometry":{"type":"Point","coordinates":[137.646,34.787]},"properties":{"Name":"伊目農業構造改善センター","Jusho":"静岡県浜松市北区細江町気賀3831-1","kouzui":"×","gake":"×","takashio":"×","jishin":"○","tsunami":"×","kaji":"○","naisui":"×","kazan":"×"}}
,{"type":"Feature","geometry":{"type":"Point","coordinates":[137.646,34.787]},"properties":{"Name":"老ケ谷農業構造改善センター","Jusho":"静岡県浜松市北区細江町気賀3831-4","kouzui":"×","gake":"×","takashio":"×","jishin":"○","tsunami":"×","kaji":"○","naisui":"×","kazan":"×"}}
,{"type":"Feature","geometry":{"type":"Point","coordinates":[137.68,34.792]},"properties":{"Name":"湖東公民館","Jusho":"静岡県浜松市北区細江町中川7171ー98","kouzui":"×","gake":"×","takashio":"×","jishin":"○","tsunami":"×","kaji":"○","naisui":"×","kazan":"×"}}
,{"type":"Feature","geometry":{"type":"Point","coordinates":[137.692,34.808]},"properties":{"Name":"細江１区地区コミュニティ防災センター","Jusho":"静岡県浜松市北区細江町中川899ー4","kouzui":"×","gake":"×","takashio":"×","jishin":"○","tsunami":"×","kaji":"○","naisui":"×","kazan":"×"}}
,{"type":"Feature","geometry":{"type":"Point","coordinates":[137.687,34.819]},"properties":{"Name":"石岡地区コミュニティ防災センター","Jusho":"静岡県浜松市北区細江町三和523ー2","kouzui":"×","gake":"×","takashio":"×","jishin":"○","tsunami":"×","kaji":"○","naisui":"×","kazan":"×"}}
,{"type":"Feature","geometry":{"type":"Point","coordinates":[137.688,34.806]},"properties":{"Name":"祝田地区コミュニティ防災センター","Jusho":"静岡県浜松市北区細江町中川6915","kouzui":"×","gake":"×","takashio":"×","jishin":"○","tsunami":"×","kaji":"○","naisui":"×","kazan":"×"}}
,{"type":"Feature","geometry":{"type":"Point","coordinates":[137.679,34.803]},"properties":{"Name":"刑部地区コミュニティ防災センター","Jusho":"静岡県浜松市北区細江町中川6700ー1","kouzui":"×","gake":"×","takashio":"×","jishin":"○","tsunami":"×","kaji":"○","naisui":"×","kazan":"×"}}
,{"type":"Feature","geometry":{"type":"Point","coordinates":[137.663,34.808]},"properties":{"Name":"細江８区地区コミュニティ防災センター","Jusho":"静岡県浜松市北区細江町中川4946ー3","kouzui":"×","gake":"×","takashio":"×","jishin":"○","tsunami":"×","kaji":"○","naisui":"×","kazan":"×"}}
,{"type":"Feature","geometry":{"type":"Point","coordinates":[137.662,34.802]},"properties":{"Name":"細江９区地区コミュニティ防災センター","Jusho":"静岡県浜松市北区細江町中川5540","kouzui":"×","gake":"×","takashio":"×","jishin":"○","tsunami":"×","kaji":"○","naisui":"×","kazan":"×"}}
,{"type":"Feature","geometry":{"type":"Point","coordinates":[137.66,34.814]},"properties":{"Name":"広岡地区コミュニティ防災センター","Jusho":"静岡県浜松市北区細江町広岡88ー1","kouzui":"×","gake":"×","takashio":"×","jishin":"○","tsunami":"×","kaji":"○","naisui":"×","kazan":"×"}}
,{"type":"Feature","geometry":{"type":"Point","coordinates":[137.643,34.808]},"properties":{"Name":"呉石地区コミュニティ防災センター","Jusho":"静岡県浜松市北区細江町気賀7684ー1","kouzui":"×","gake":"×","takashio":"×","jishin":"○","tsunami":"×","kaji":"○","naisui":"×","kazan":"×"}}
,{"type":"Feature","geometry":{"type":"Point","coordinates":[137.633,34.807]},"properties":{"Name":"跡川地区コミュニティ防災センター","Jusho":"静岡県浜松市北区細江町気賀8935","kouzui":"×","gake":"×","takashio":"×","jishin":"○","tsunami":"×","kaji":"○","naisui":"×","kazan":"×"}}
,{"type":"Feature","geometry":{"type":"Point","coordinates":[137.667,34.816]},"properties":{"Name":"７区地区コミュニティ防災センター","Jusho":"静岡県浜松市北区細江町三和2125ー1","kouzui":"×","gake":"×","takashio":"×","jishin":"○","tsunami":"×","kaji":"○","naisui":"×","kazan":"×"}}
,{"type":"Feature","geometry":{"type":"Point","coordinates":[137.673,34.832]},"properties":{"Name":"井伊谷小学校","Jusho":"静岡県浜松市北区引佐町井伊谷680","kouzui":"○","gake":"○","takashio":"×","jishin":"○","tsunami":"×","kaji":"○","naisui":"○","kazan":"×"}}
,{"type":"Feature","geometry":{"type":"Point","coordinates":[137.664,34.835]},"properties":{"Name":"引佐南部中学校","Jusho":"静岡県浜松市北区引佐町横尾426","kouzui":"○","gake":"○","takashio":"×","jishin":"○","tsunami":"×","kaji":"○","naisui":"○","kazan":"×"}}
,{"type":"Feature","geometry":{"type":"Point","coordinates":[137.678,34.822]},"properties":{"Name":"金指小学校","Jusho":"静岡県浜松市北区引佐町金指1369","kouzui":"○","gake":"○","takashio":"×","jishin":"○","tsunami":"×","kaji":"○","naisui":"○","kazan":"×"}}
,{"type":"Feature","geometry":{"type":"Point","coordinates":[137.677,34.819]},"properties":{"Name":"浜松湖北高校","Jusho":"静岡県浜松市北区引佐町金指1428","kouzui":"○","gake":"○","takashio":"×","jishin":"○","tsunami":"×","kaji":"○","naisui":"○","kazan":"×"}}
,{"type":"Feature","geometry":{"type":"Point","coordinates":[137.629,34.845]},"properties":{"Name":"奥山小学校","Jusho":"静岡県浜松市北区引佐町奥山1101ー1","kouzui":"○","gake":"○","takashio":"×","jishin":"○","tsunami":"×","kaji":"○","naisui":"○","kazan":"×"}}
,{"type":"Feature","geometry":{"type":"Point","coordinates":[137.623,34.849]},"properties":{"Name":"奥山体育センター","Jusho":"静岡県浜松市北区引佐町奥山1550-1","kouzui":"○","gake":"○","takashio":"×","jishin":"○","tsunami":"×","kaji":"○","naisui":"○","kazan":"×"}}
,{"type":"Feature","geometry":{"type":"Point","coordinates":[137.661,34.864]},"properties":{"Name":"(旧)伊平小学校","Jusho":"静岡県浜松市北区引佐町伊平580-2","kouzui":"○","gake":"○","takashio":"×","jishin":"○","tsunami":"×","kaji":"○","naisui":"○","kazan":"×"}}
,{"type":"Feature","geometry":{"type":"Point","coordinates":[137.702,34.87]},"properties":{"Name":"（旧）川名小学校","Jusho":"静岡県浜松市北区引佐町川名470-1","kouzui":"○","gake":"○","takashio":"×","jishin":"○","tsunami":"×","kaji":"○","naisui":"○","kazan":"×"}}
,{"type":"Feature","geometry":{"type":"Point","coordinates":[137.656,34.899]},"properties":{"Name":"引佐北部小中学校","Jusho":"静岡県浜松市北区引佐町四方浄134-6","kouzui":"○","gake":"○","takashio":"×","jishin":"○","tsunami":"×","kaji":"○","naisui":"○","kazan":"×"}}
,{"type":"Feature","geometry":{"type":"Point","coordinates":[137.689,34.925]},"properties":{"Name":"（旧）渋川小学校","Jusho":"静岡県浜松市北区引佐町渋川3484","kouzui":"○","gake":"○","takashio":"×","jishin":"○","tsunami":"×","kaji":"○","naisui":"○","kazan":"×"}}
,{"type":"Feature","geometry":{"type":"Point","coordinates":[137.698,34.903]},"properties":{"Name":"（旧）久留女木小学校","Jusho":"静岡県浜松市北区引佐町西久留女木63-4","kouzui":"○","gake":"○","takashio":"×","jishin":"○","tsunami":"×","kaji":"○","naisui":"○","kazan":"×"}}
,{"type":"Feature","geometry":{"type":"Point","coordinates":[137.678,34.826]},"properties":{"Name":"引佐５区コミュニティ防災センター","Jusho":"静岡県浜松市北区引佐町井伊谷3276ー2","kouzui":"×","gake":"×","takashio":"×","jishin":"○","tsunami":"×","kaji":"○","naisui":"×","kazan":"×"}}
,{"type":"Feature","geometry":{"type":"Point","coordinates":[137.667,34.827]},"properties":{"Name":"引佐６区コミュニティ防災センター","Jusho":"静岡県浜松市北区引佐町井伊谷1727ー1","kouzui":"×","gake":"×","takashio":"×","jishin":"○","tsunami":"×","kaji":"○","naisui":"×","kazan":"×"}}
,{"type":"Feature","geometry":{"type":"Point","coordinates":[137.648,34.84]},"properties":{"Name":"西四村コミュニティ防災センター","Jusho":"静岡県浜松市北区引佐町栃窪622ー6","kouzui":"×","gake":"×","takashio":"×","jishin":"○","tsunami":"×","kaji":"○","naisui":"×","kazan":"×"}}
,{"type":"Feature","geometry":{"type":"Point","coordinates":[137.679,34.819]},"properties":{"Name":"金指コミュニティ防災センター","Jusho":"静岡県浜松市北区引佐町金指1324ー2","kouzui":"×","gake":"×","takashio":"×","jishin":"○","tsunami":"×","kaji":"○","naisui":"×","kazan":"×"}}
,{"type":"Feature","geometry":{"type":"Point","coordinates":[137.582,34.793]},"properties":{"Name":"三ヶ日東小学校","Jusho":"静岡県浜松市北区三ヶ日町都筑2266ー2","kouzui":"○","gake":"○","takashio":"×","jishin":"○","tsunami":"×","kaji":"○","naisui":"○","kazan":"×"}}
,{"type":"Feature","geometry":{"type":"Point","coordinates":[137.554,34.809]},"properties":{"Name":"三ヶ日西小学校","Jusho":"静岡県浜松市北区三ヶ日町三ヶ日301ー1","kouzui":"○","gake":"○","takashio":"×","jishin":"○","tsunami":"×","kaji":"○","naisui":"○","kazan":"×"}}
,{"type":"Feature","geometry":{"type":"Point","coordinates":[137.538,34.785]},"properties":{"Name":"尾奈小学校","Jusho":"静岡県浜松市北区三ヶ日町下尾奈1431","kouzui":"○","gake":"○","takashio":"×","jishin":"○","tsunami":"×","kaji":"○","naisui":"○","kazan":"×"}}
,{"type":"Feature","geometry":{"type":"Point","coordinates":[137.537,34.824]},"properties":{"Name":"平山小学校","Jusho":"静岡県浜松市北区三ヶ日町平山200","kouzui":"○","gake":"○","takashio":"×","jishin":"○","tsunami":"×","kaji":"○","naisui":"○","kazan":"×"}}
,{"type":"Feature","geometry":{"type":"Point","coordinates":[137.556,34.803]},"properties":{"Name":"三ヶ日協働センター","Jusho":"静岡県浜松市北区三ヶ日町三ヶ日500-1","kouzui":"○","gake":"○","takashio":"×","jishin":"○","tsunami":"×","kaji":"○","naisui":"○","kazan":"×"}}
,{"type":"Feature","geometry":{"type":"Point","coordinates":[137.539,34.825]},"properties":{"Name":"長根地区コミュニティ防災センター","Jusho":"静岡県浜松市北区三ヶ日町福長1372ー9","kouzui":"×","gake":"×","takashio":"×","jishin":"○","tsunami":"×","kaji":"○","naisui":"×","kazan":"×"}}
,{"type":"Feature","geometry":{"type":"Point","coordinates":[137.778,34.791]},"properties":{"Name":"浜名中学校","Jusho":"静岡県浜松市浜北区小松467","kouzui":"○","gake":"○","takashio":"×","jishin":"○","tsunami":"×","kaji":"○","naisui":"○","kazan":"×"}}
,{"type":"Feature","geometry":{"type":"Point","coordinates":[137.768,34.789]},"properties":{"Name":"浜名小学校","Jusho":"静岡県浜松市浜北区小松1450","kouzui":"○","gake":"○","takashio":"×","jishin":"○","tsunami":"×","kaji":"○","naisui":"○","kazan":"×"}}
,{"type":"Feature","geometry":{"type":"Point","coordinates":[137.757,34.784]},"properties":{"Name":"内野小学校","Jusho":"静岡県浜松市浜北区内野1702","kouzui":"○","gake":"○","takashio":"×","jishin":"○","tsunami":"×","kaji":"○","naisui":"○","kazan":"×"}}
,{"type":"Feature","geometry":{"type":"Point","coordinates":[137.791,34.797]},"properties":{"Name":"北浜中学校","Jusho":"静岡県浜松市浜北区西美薗279ー2","kouzui":"○","gake":"○","takashio":"×","jishin":"○","tsunami":"×","kaji":"○","naisui":"○","kazan":"×"}}
,{"type":"Feature","geometry":{"type":"Point","coordinates":[137.808,34.799]},"properties":{"Name":"北浜東部中学校","Jusho":"静岡県浜松市浜北区上善地317","kouzui":"○","gake":"○","takashio":"×","jishin":"○","tsunami":"×","kaji":"○","naisui":"○","kazan":"×"}}
,{"type":"Feature","geometry":{"type":"Point","coordinates":[137.793,34.792]},"properties":{"Name":"北浜小学校","Jusho":"静岡県浜松市浜北区横須賀800","kouzui":"○","gake":"○","takashio":"×","jishin":"○","tsunami":"×","kaji":"○","naisui":"○","kazan":"×"}}
,{"type":"Feature","geometry":{"type":"Point","coordinates":[137.796,34.803]},"properties":{"Name":"北浜北小学校","Jusho":"静岡県浜松市浜北区西美薗1588","kouzui":"○","gake":"○","takashio":"×","jishin":"○","tsunami":"×","kaji":"○","naisui":"○","kazan":"×"}}
,{"type":"Feature","geometry":{"type":"Point","coordinates":[137.792,34.784]},"properties":{"Name":"北浜南小学校","Jusho":"静岡県浜松市浜北区寺島3010","kouzui":"○","gake":"○","takashio":"×","jishin":"○","tsunami":"×","kaji":"○","naisui":"○","kazan":"×"}}
,{"type":"Feature","geometry":{"type":"Point","coordinates":[137.784,34.801]},"properties":{"Name":"伎倍小学校","Jusho":"静岡県浜松市浜北区貴布祢2646","kouzui":"○","gake":"○","takashio":"×","jishin":"○","tsunami":"×","kaji":"○","naisui":"○","kazan":"×"}}
,{"type":"Feature","geometry":{"type":"Point","coordinates":[137.811,34.793]},"properties":{"Name":"北浜東小学校","Jusho":"静岡県浜松市浜北区善地1546","kouzui":"○","gake":"○","takashio":"×","jishin":"○","tsunami":"×","kaji":"○","naisui":"○","kazan":"×"}}
,{"type":"Feature","geometry":{"type":"Point","coordinates":[137.792,34.8]},"properties":{"Name":"美薗中央公園","Jusho":"静岡県浜松市浜北区西美薗733","kouzui":"×","gake":"×","takashio":"×","jishin":"○","tsunami":"×","kaji":"○","naisui":"×","kazan":"×"}}
,{"type":"Feature","geometry":{"type":"Point","coordinates":[137.811,34.824]},"properties":{"Name":"中瀬小学校","Jusho":"静岡県浜松市浜北区中瀬3648ー1","kouzui":"○","gake":"○","takashio":"×","jishin":"○","tsunami":"×","kaji":"○","naisui":"○","kazan":"×"}}
,{"type":"Feature","geometry":{"type":"Point","coordinates":[137.801,34.828]},"properties":{"Name":"浜北北部中学校","Jusho":"静岡県浜松市浜北区於呂2961","kouzui":"○","gake":"○","takashio":"×","jishin":"○","tsunami":"×","kaji":"○","naisui":"○","kazan":"×"}}
,{"type":"Feature","geometry":{"type":"Point","coordinates":[137.797,34.837]},"properties":{"Name":"赤佐小学校","Jusho":"静岡県浜松市浜北区於呂2790","kouzui":"○","gake":"○","takashio":"×","jishin":"○","tsunami":"×","kaji":"○","naisui":"○","kazan":"×"}}
,{"type":"Feature","geometry":{"type":"Point","coordinates":[137.769,34.834]},"properties":{"Name":"麁玉中学校","Jusho":"静岡県浜松市浜北区宮口4847","kouzui":"○","gake":"○","takashio":"×","jishin":"○","tsunami":"×","kaji":"○","naisui":"○","kazan":"×"}}
,{"type":"Feature","geometry":{"type":"Point","coordinates":[137.771,34.829]},"properties":{"Name":"麁玉小学校","Jusho":"静岡県浜松市浜北区宮口262","kouzui":"○","gake":"○","takashio":"×","jishin":"○","tsunami":"×","kaji":"○","naisui":"○","kazan":"×"}}
,{"type":"Feature","geometry":{"type":"Point","coordinates":[137.781,34.818]},"properties":{"Name":"新原小学校","Jusho":"静岡県浜松市浜北区新原2331","kouzui":"○","gake":"○","takashio":"×","jishin":"○","tsunami":"×","kaji":"○","naisui":"○","kazan":"×"}}
,{"type":"Feature","geometry":{"type":"Point","coordinates":[137.743,34.853]},"properties":{"Name":"（旧）大平小学校","Jusho":"静岡県浜松市浜北区大平686","kouzui":"○","gake":"○","takashio":"×","jishin":"○","tsunami":"×","kaji":"○","naisui":"○","kazan":"×"}}
,{"type":"Feature","geometry":{"type":"Point","coordinates":[137.733,34.961]},"properties":{"Name":"熊ふれあいセンター","Jusho":"静岡県浜松市天竜区熊1977-2","kouzui":"○","gake":"○","takashio":"×","jishin":"×","tsunami":"×","kaji":"×","naisui":"○","kazan":"×"}}
,{"type":"Feature","geometry":{"type":"Point","coordinates":[137.733,34.96]},"properties":{"Name":"熊小学校","Jusho":"静岡県浜松市天竜区熊2153","kouzui":"○","gake":"○","takashio":"×","jishin":"○","tsunami":"×","kaji":"○","naisui":"○","kazan":"×"}}
,{"type":"Feature","geometry":{"type":"Point","coordinates":[137.762,34.91]},"properties":{"Name":"上阿多古ふれあいセンター","Jusho":"静岡県浜松市天竜区西藤平1555","kouzui":"○","gake":"○","takashio":"×","jishin":"○","tsunami":"×","kaji":"○","naisui":"○","kazan":"×"}}
,{"type":"Feature","geometry":{"type":"Point","coordinates":[137.763,34.912]},"properties":{"Name":"上阿多古小学校","Jusho":"静岡県浜松市天竜区西藤平1318","kouzui":"○","gake":"○","takashio":"×","jishin":"○","tsunami":"×","kaji":"○","naisui":"○","kazan":"×"}}
,{"type":"Feature","geometry":{"type":"Point","coordinates":[137.787,34.889]},"properties":{"Name":"下阿多古ふれあいセンター","Jusho":"静岡県浜松市天竜区上野172ー3","kouzui":"○","gake":"○","takashio":"×","jishin":"×","tsunami":"×","kaji":"×","naisui":"○","kazan":"×"}}
,{"type":"Feature","geometry":{"type":"Point","coordinates":[137.791,34.882]},"properties":{"Name":"下阿多古小学校","Jusho":"静岡県浜松市天竜区両島762","kouzui":"×","gake":"×","takashio":"×","jishin":"○","tsunami":"×","kaji":"○","naisui":"×","kazan":"×"}}
,{"type":"Feature","geometry":{"type":"Point","coordinates":[137.781,34.89]},"properties":{"Name":"（旧）下阿多古中学校","Jusho":"静岡県浜松市天竜区上野948","kouzui":"○","gake":"○","takashio":"×","jishin":"×","tsunami":"×","kaji":"×","naisui":"○","kazan":"×"}}
,{"type":"Feature","geometry":{"type":"Point","coordinates":[137.781,34.89]},"properties":{"Name":"下阿多古運動場","Jusho":"静岡県浜松市天竜区上野948","kouzui":"×","gake":"×","takashio":"×","jishin":"○","tsunami":"×","kaji":"○","naisui":"×","kazan":"×"}}
,{"type":"Feature","geometry":{"type":"Point","coordinates":[137.798,34.857]},"properties":{"Name":"天竜特別支援学校","Jusho":"静岡県浜松市天竜区渡ケ島201-1","kouzui":"○","gake":"○","takashio":"×","jishin":"○","tsunami":"×","kaji":"○","naisui":"○","kazan":"×"}}
,{"type":"Feature","geometry":{"type":"Point","coordinates":[137.818,34.864]},"properties":{"Name":"二俣協働センター","Jusho":"静岡県浜松市天竜区二俣町二俣184ー32","kouzui":"○","gake":"○","takashio":"×","jishin":"×","tsunami":"×","kaji":"×","naisui":"○","kazan":"×"}}
,{"type":"Feature","geometry":{"type":"Point","coordinates":[137.812,34.864]},"properties":{"Name":"二俣小学校","Jusho":"静岡県浜松市天竜区二俣町二俣867ー1","kouzui":"○","gake":"○","takashio":"×","jishin":"○","tsunami":"×","kaji":"○","naisui":"○","kazan":"×"}}
,{"type":"Feature","geometry":{"type":"Point","coordinates":[137.81,34.85]},"properties":{"Name":"清竜中学校","Jusho":"静岡県浜松市天竜区二俣町鹿島525","kouzui":"○","gake":"○","takashio":"×","jishin":"○","tsunami":"×","kaji":"○","naisui":"○","kazan":"×"}}
,{"type":"Feature","geometry":{"type":"Point","coordinates":[137.813,34.871]},"properties":{"Name":"天竜高校","Jusho":"静岡県浜松市天竜区二俣町二俣601","kouzui":"○","gake":"○","takashio":"×","jishin":"○","tsunami":"×","kaji":"○","naisui":"○","kazan":"×"}}
,{"type":"Feature","geometry":{"type":"Point","coordinates":[137.819,34.86]},"properties":{"Name":"天竜二俣駅東西広場","Jusho":"静岡県浜松市天竜区二俣町阿蔵114ー2","kouzui":"×","gake":"×","takashio":"×","jishin":"○","tsunami":"×","kaji":"○","naisui":"×","kazan":"×"}}
,{"type":"Feature","geometry":{"type":"Point","coordinates":[137.816,34.859]},"properties":{"Name":"天竜壬生ホール","Jusho":"静岡県浜松市天竜区二俣町二俣20-2","kouzui":"○","gake":"○","takashio":"×","jishin":"○","tsunami":"×","kaji":"○","naisui":"○","kazan":"×"}}
,{"type":"Feature","geometry":{"type":"Point","coordinates":[137.83,34.879]},"properties":{"Name":"光明ふれあいセンター","Jusho":"静岡県浜松市天竜区山東2309-8","kouzui":"○","gake":"○","takashio":"×","jishin":"×","tsunami":"×","kaji":"×","naisui":"○","kazan":"×"}}
,{"type":"Feature","geometry":{"type":"Point","coordinates":[137.825,34.877]},"properties":{"Name":"光明小学校","Jusho":"静岡県浜松市天竜区山東2550","kouzui":"○","gake":"○","takashio":"×","jishin":"○","tsunami":"×","kaji":"○","naisui":"○","kazan":"×"}}
,{"type":"Feature","geometry":{"type":"Point","coordinates":[137.859,34.894]},"properties":{"Name":"鏡山小学校","Jusho":"静岡県浜松市天竜区只来97-3","kouzui":"○","gake":"○","takashio":"×","jishin":"○","tsunami":"×","kaji":"○","naisui":"○","kazan":"×"}}
,{"type":"Feature","geometry":{"type":"Point","coordinates":[137.823,34.876]},"properties":{"Name":"光が丘中学校","Jusho":"静岡県浜松市天竜区山東2701","kouzui":"○","gake":"○","takashio":"×","jishin":"○","tsunami":"×","kaji":"○","naisui":"○","kazan":"×"}}
,{"type":"Feature","geometry":{"type":"Point","coordinates":[137.814,34.89]},"properties":{"Name":"船明ダム運動公園","Jusho":"静岡県浜松市天竜区船明2660","kouzui":"×","gake":"×","takashio":"×","jishin":"○","tsunami":"×","kaji":"○","naisui":"×","kazan":"×"}}
,{"type":"Feature","geometry":{"type":"Point","coordinates":[137.816,34.943]},"properties":{"Name":"竜川ふれあいセンター","Jusho":"静岡県浜松市天竜区横山町772-1","kouzui":"○","gake":"○","takashio":"×","jishin":"×","tsunami":"×","kaji":"×","naisui":"○","kazan":"×"}}
,{"type":"Feature","geometry":{"type":"Point","coordinates":[137.818,34.942]},"properties":{"Name":"横山小学校","Jusho":"静岡県浜松市天竜区横山町547","kouzui":"○","gake":"○","takashio":"×","jishin":"○","tsunami":"×","kaji":"○","naisui":"○","kazan":"×"}}
,{"type":"Feature","geometry":{"type":"Point","coordinates":[137.818,34.941]},"properties":{"Name":"竜川運動場","Jusho":"静岡県浜松市天竜区横山町390","kouzui":"×","gake":"×","takashio":"×","jishin":"○","tsunami":"×","kaji":"○","naisui":"×","kazan":"×"}}
,{"type":"Feature","geometry":{"type":"Point","coordinates":[137.898,34.959]},"properties":{"Name":"犬居小学校","Jusho":"静岡県浜松市天竜区春野町堀之内993ー1","kouzui":"○","gake":"○","takashio":"×","jishin":"○","tsunami":"×","kaji":"○","naisui":"○","kazan":"×"}}
,{"type":"Feature","geometry":{"type":"Point","coordinates":[137.939,34.998]},"properties":{"Name":"（旧）熊切小学校","Jusho":"静岡県浜松市天竜区春野町石打松下211-1","kouzui":"○","gake":"○","takashio":"×","jishin":"○","tsunami":"×","kaji":"○","naisui":"○","kazan":"×"}}
,{"type":"Feature","geometry":{"type":"Point","coordinates":[137.981,35.031]},"properties":{"Name":"（旧）春野北小学校","Jusho":"静岡県浜松市天竜区春野町杉242-2","kouzui":"○","gake":"○","takashio":"×","jishin":"○","tsunami":"×","kaji":"○","naisui":"○","kazan":"×"}}
,{"type":"Feature","geometry":{"type":"Point","coordinates":[137.906,35.004]},"properties":{"Name":"気田小学校","Jusho":"静岡県浜松市天竜区春野町気田603ー1","kouzui":"○","gake":"○","takashio":"×","jishin":"○","tsunami":"×","kaji":"○","naisui":"○","kazan":"×"}}
,{"type":"Feature","geometry":{"type":"Point","coordinates":[137.906,35.002]},"properties":{"Name":"春野中学校","Jusho":"静岡県浜松市天竜区春野町気田380ー2","kouzui":"×","gake":"×","takashio":"×","jishin":"○","tsunami":"×","kaji":"○","naisui":"×","kazan":"×"}}
,{"type":"Feature","geometry":{"type":"Point","coordinates":[137.889,34.958]},"properties":{"Name":"天竜高校春野校舎","Jusho":"静岡県浜松市天竜区春野町堀之内284","kouzui":"○","gake":"○","takashio":"×","jishin":"○","tsunami":"×","kaji":"○","naisui":"○","kazan":"×"}}
,{"type":"Feature","geometry":{"type":"Point","coordinates":[137.897,34.981]},"properties":{"Name":"春野防災センター","Jusho":"静岡県浜松市天竜区春野町宮川1467-2","kouzui":"○","gake":"○","takashio":"×","jishin":"×","tsunami":"×","kaji":"×","naisui":"○","kazan":"×"}}
,{"type":"Feature","geometry":{"type":"Point","coordinates":[137.896,34.96]},"properties":{"Name":"春野犬居スポーツ広場","Jusho":"静岡県浜松市天竜区堀之内997","kouzui":"×","gake":"×","takashio":"×","jishin":"○","tsunami":"×","kaji":"○","naisui":"×","kazan":"×"}}
,{"type":"Feature","geometry":{"type":"Point","coordinates":[137.94,34.999]},"properties":{"Name":"春野熊切スポーツ広場","Jusho":"静岡県浜松市天竜区春野町石打松下223ー1","kouzui":"×","gake":"×","takashio":"×","jishin":"○","tsunami":"×","kaji":"○","naisui":"×","kazan":"×"}}
,{"type":"Feature","geometry":{"type":"Point","coordinates":[137.911,35.005]},"properties":{"Name":"春野気田スポーツ広場","Jusho":"静岡県浜松市天竜区春野町気田850-1","kouzui":"×","gake":"×","takashio":"×","jishin":"○","tsunami":"×","kaji":"○","naisui":"×","kazan":"×"}}
,{"type":"Feature","geometry":{"type":"Point","coordinates":[137.765,35.055]},"properties":{"Name":"浦川小学校","Jusho":"静岡県浜松市天竜区佐久間町浦川2819","kouzui":"○","gake":"○","takashio":"×","jishin":"○","tsunami":"×","kaji":"○","naisui":"○","kazan":"×"}}
,{"type":"Feature","geometry":{"type":"Point","coordinates":[137.762,35.052]},"properties":{"Name":"浦川ふれあいセンター","Jusho":"静岡県浜松市天竜区佐久間町浦川2794-1","kouzui":"○","gake":"○","takashio":"×","jishin":"○","tsunami":"×","kaji":"○","naisui":"○","kazan":"×"}}
,{"type":"Feature","geometry":{"type":"Point","coordinates":[137.81,35.091]},"properties":{"Name":"（旧）佐久間中学校","Jusho":"静岡県浜松市天竜区佐久間町佐久間2410","kouzui":"○","gake":"○","takashio":"×","jishin":"○","tsunami":"×","kaji":"○","naisui":"○","kazan":"×"}}
,{"type":"Feature","geometry":{"type":"Point","coordinates":[137.803,35.088]},"properties":{"Name":"佐久間小学校","Jusho":"静岡県浜松市天竜区佐久間町半場50ー1","kouzui":"○","gake":"○","takashio":"×","jishin":"○","tsunami":"×","kaji":"○","naisui":"○","kazan":"×"}}
,{"type":"Feature","geometry":{"type":"Point","coordinates":[137.814,35.092]},"properties":{"Name":"歴史と民話の郷会館","Jusho":"静岡県浜松市天竜区佐久間町佐久間429ー1","kouzui":"○","gake":"○","takashio":"×","jishin":"×","tsunami":"×","kaji":"×","naisui":"○","kazan":"×"}}
,{"type":"Feature","geometry":{"type":"Point","coordinates":[137.842,35.079]},"properties":{"Name":"山香ふれあいセンター","Jusho":"静岡県浜松市天竜区佐久間町大井2415-1","kouzui":"○","gake":"○","takashio":"×","jishin":"○","tsunami":"×","kaji":"○","naisui":"○","kazan":"×"}}
,{"type":"Feature","geometry":{"type":"Point","coordinates":[137.861,35.139]},"properties":{"Name":"城西小学校","Jusho":"静岡県浜松市天竜区佐久間町相月2874","kouzui":"○","gake":"○","takashio":"×","jishin":"○","tsunami":"×","kaji":"○","naisui":"○","kazan":"×"}}
,{"type":"Feature","geometry":{"type":"Point","coordinates":[137.861,35.14]},"properties":{"Name":"城西ふれあいセンター","Jusho":"静岡県浜松市天竜区佐久間町奥領家1528-4","kouzui":"○","gake":"○","takashio":"×","jishin":"×","tsunami":"×","kaji":"×","naisui":"○","kazan":"×"}}
,{"type":"Feature","geometry":{"type":"Point","coordinates":[137.795,35.08]},"properties":{"Name":"佐久間高校","Jusho":"静岡県浜松市天竜区佐久間町中部683-1","kouzui":"○","gake":"○","takashio":"×","jishin":"○","tsunami":"×","kaji":"○","naisui":"○","kazan":"×"}}
,{"type":"Feature","geometry":{"type":"Point","coordinates":[137.868,35.161]},"properties":{"Name":"水窪小学校","Jusho":"静岡県浜松市天竜区水窪町奥領家2697ー1","kouzui":"○","gake":"○","takashio":"×","jishin":"○","tsunami":"×","kaji":"○","naisui":"○","kazan":"×"}}
,{"type":"Feature","geometry":{"type":"Point","coordinates":[137.891,35.212]},"properties":{"Name":"（旧）西浦小学校","Jusho":"静岡県浜松市天竜区水窪町奥領家5296-18","kouzui":"○","gake":"○","takashio":"×","jishin":"○","tsunami":"×","kaji":"○","naisui":"○","kazan":"×"}}
,{"type":"Feature","geometry":{"type":"Point","coordinates":[137.87,35.154]},"properties":{"Name":"水窪中学校","Jusho":"静岡県浜松市天竜区水窪町地頭方366","kouzui":"○","gake":"○","takashio":"×","jishin":"○","tsunami":"×","kaji":"○","naisui":"○","kazan":"×"}}
,{"type":"Feature","geometry":{"type":"Point","coordinates":[137.869,35.166]},"properties":{"Name":"水窪文化会館","Jusho":"静岡県浜松市天竜区水窪町奥領家3274-1","kouzui":"○","gake":"○","takashio":"×","jishin":"○","tsunami":"×","kaji":"○","naisui":"○","kazan":"×"}}
,{"type":"Feature","geometry":{"type":"Point","coordinates":[137.869,35.155]},"properties":{"Name":"水窪総合体育館","Jusho":"静岡県浜松市天竜区水窪町地頭方241-3","kouzui":"×","gake":"×","takashio":"×","jishin":"○","tsunami":"×","kaji":"○","naisui":"×","kazan":"×"}}
,{"type":"Feature","geometry":{"type":"Point","coordinates":[137.825,34.97]},"properties":{"Name":"(旧)龍山第一小学校","Jusho":"静岡県浜松市天竜区龍山町大嶺565-5","kouzui":"○","gake":"○","takashio":"×","jishin":"○","tsunami":"×","kaji":"○","naisui":"○","kazan":"×"}}
,{"type":"Feature","geometry":{"type":"Point","coordinates":[137.783,34.991]},"properties":{"Name":"龍山高齢者コミュニティセンター","Jusho":"静岡県浜松市天竜区龍山町大嶺1279-3","kouzui":"○","gake":"○","takashio":"×","jishin":"○","tsunami":"×","kaji":"○","naisui":"○","kazan":"×"}}
,{"type":"Feature","geometry":{"type":"Point","coordinates":[137.837,34.967]},"properties":{"Name":"龍山健康増進センター","Jusho":"静岡県浜松市天竜区龍山町戸倉217-1","kouzui":"○","gake":"○","takashio":"×","jishin":"○","tsunami":"×","kaji":"○","naisui":"○","kazan":"×"}}
,{"type":"Feature","geometry":{"type":"Point","coordinates":[137.831,34.979]},"properties":{"Name":"龍山保健センター","Jusho":"静岡県浜松市天竜区龍山町戸倉711-2","kouzui":"○","gake":"○","takashio":"×","jishin":"○","tsunami":"×","kaji":"○","naisui":"○","kazan":"×"}}
,{"type":"Feature","geometry":{"type":"Point","coordinates":[137.841,35.009]},"properties":{"Name":"龍山老人福祉センター","Jusho":"静岡県浜松市天竜区龍山町下平山248-2","kouzui":"○","gake":"○","takashio":"×","jishin":"○","tsunami":"×","kaji":"○","naisui":"○","kazan":"×"}}
,{"type":"Feature","geometry":{"type":"Point","coordinates":[137.84,35.023]},"properties":{"Name":"龍山森林文化会館","Jusho":"静岡県浜松市天竜区龍山町瀬尻982-2","kouzui":"○","gake":"○","takashio":"×","jishin":"○","tsunami":"×","kaji":"○","naisui":"○","kazan":"×"}}
,{"type":"Feature","geometry":{"type":"Point","coordinates":[137.838,35.022]},"properties":{"Name":"(旧)龍山北小学校","Jusho":"静岡県浜松市天竜区龍山町瀬尻926ー37","kouzui":"○","gake":"○","takashio":"×","jishin":"○","tsunami":"×","kaji":"○","naisui":"○","kazan":"×"}}
,{"type":"Feature","geometry":{"type":"Point","coordinates":[138.847,35.114]},"properties":{"Name":"明電舎(株)","Jusho":"静岡県沼津市東間門 515","kouzui":"×","gake":"×","takashio":"×","jishin":"×","tsunami":"×","kaji":"○","naisui":"×","kazan":"×"}}
,{"type":"Feature","geometry":{"type":"Point","coordinates":[138.867,35.113]},"properties":{"Name":"高校学校群(市立高、加藤学園)","Jusho":"静岡県沼津市三枚橋字鐘突免 673","kouzui":"×","gake":"×","takashio":"×","jishin":"×","tsunami":"×","kaji":"○","naisui":"×","kazan":"×"}}
,{"type":"Feature","geometry":{"type":"Point","coordinates":[138.876,35.092]},"properties":{"Name":"香貫山公園","Jusho":"静岡県沼津市上香貫字物見山 2427","kouzui":"×","gake":"×","takashio":"×","jishin":"×","tsunami":"×","kaji":"○","naisui":"×","kazan":"×"}}
,{"type":"Feature","geometry":{"type":"Point","coordinates":[138.865,35.097]},"properties":{"Name":"香陵運動場及び第四小学校","Jusho":"静岡県沼津市御幸町 4-1","kouzui":"×","gake":"×","takashio":"×","jishin":"×","tsunami":"×","kaji":"○","naisui":"×","kazan":"×"}}
,{"type":"Feature","geometry":{"type":"Point","coordinates":[138.884,35.083]},"properties":{"Name":"香貫小周辺(香貫小、三中、沼工)","Jusho":"静岡県沼津市下香貫猪沼 986他","kouzui":"×","gake":"×","takashio":"×","jishin":"×","tsunami":"×","kaji":"○","naisui":"×","kazan":"×"}}
,{"type":"Feature","geometry":{"type":"Point","coordinates":[138.876,35.103]},"properties":{"Name":"大岡南小学校及び大岡公園","Jusho":"静岡県沼津市大岡字原田 1312他","kouzui":"×","gake":"×","takashio":"×","jishin":"×","tsunami":"×","kaji":"○","naisui":"×","kazan":"×"}}
,{"type":"Feature","geometry":{"type":"Point","coordinates":[138.862,35.075]},"properties":{"Name":"我入道公園","Jusho":"静岡県沼津市我入道林町地内","kouzui":"×","gake":"×","takashio":"×","jishin":"×","tsunami":"×","kaji":"○","naisui":"×","kazan":"×"}}
,{"type":"Feature","geometry":{"type":"Point","coordinates":[138.854,35.099]},"properties":{"Name":"第一小学校","Jusho":"静岡県沼津市八幡町 65-1","kouzui":"○","gake":"×","takashio":"×","jishin":"○","tsunami":"○","kaji":"○","naisui":"×","kazan":"○"}}
,{"type":"Feature","geometry":{"type":"Point","coordinates":[138.86,35.099]},"properties":{"Name":"中央公園","Jusho":"静岡県沼津市大手町４丁目185-4","kouzui":"×","gake":"×","takashio":"×","jishin":"○","tsunami":"○","kaji":"○","naisui":"×","kazan":"×"}}
,{"type":"Feature","geometry":{"type":"Point","coordinates":[138.849,35.104]},"properties":{"Name":"第一中学校","Jusho":"静岡県沼津市丸子町 692-1","kouzui":"○","gake":"×","takashio":"×","jishin":"○","tsunami":"○","kaji":"○","naisui":"×","kazan":"○"}}
,{"type":"Feature","geometry":{"type":"Point","coordinates":[138.855,35.095]},"properties":{"Name":"浅間神社","Jusho":"静岡県沼津市浅間町 225","kouzui":"○","gake":"×","takashio":"×","jishin":"○","tsunami":"○","kaji":"○","naisui":"×","kazan":"×"}}
,{"type":"Feature","geometry":{"type":"Point","coordinates":[138.848,35.096]},"properties":{"Name":"県立沼津西高校","Jusho":"静岡県沼津市本字千本 1910-9","kouzui":"○","gake":"×","takashio":"×","jishin":"○","tsunami":"○","kaji":"○","naisui":"×","kazan":"○"}}
,{"type":"Feature","geometry":{"type":"Point","coordinates":[138.846,35.097]},"properties":{"Name":"第二中学校","Jusho":"静岡県沼津市本字千本 1910-19","kouzui":"○","gake":"×","takashio":"×","jishin":"○","tsunami":"○","kaji":"○","naisui":"×","kazan":"○"}}
,{"type":"Feature","geometry":{"type":"Point","coordinates":[138.88,35.084]},"properties":{"Name":"第三中学校","Jusho":"静岡県沼津市下香貫木ノ宮 888","kouzui":"○","gake":"○","takashio":"×","jishin":"○","tsunami":"○","kaji":"○","naisui":"×","kazan":"○"}}
,{"type":"Feature","geometry":{"type":"Point","coordinates":[138.878,35.086]},"properties":{"Name":"県立沼津工業高校","Jusho":"静岡県沼津市下香貫八重129-1","kouzui":"○","gake":"○","takashio":"×","jishin":"○","tsunami":"○","kaji":"○","naisui":"×","kazan":"○"}}
,{"type":"Feature","geometry":{"type":"Point","coordinates":[138.884,35.082]},"properties":{"Name":"香貫小学校","Jusho":"静岡県沼津市下香貫猪沼 986","kouzui":"○","gake":"○","takashio":"×","jishin":"○","tsunami":"○","kaji":"○","naisui":"×","kazan":"○"}}
,{"type":"Feature","geometry":{"type":"Point","coordinates":[138.862,35.079]},"properties":{"Name":"我入道コミュニティ防災センター","Jusho":"静岡県沼津市我入道東町 175-1","kouzui":"○","gake":"×","takashio":"×","jishin":"○","tsunami":"○","kaji":"○","naisui":"×","kazan":"○"}}
,{"type":"Feature","geometry":{"type":"Point","coordinates":[138.862,35.075]},"properties":{"Name":"我入道公園","Jusho":"静岡県沼津市我入道林町地内","kouzui":"×","gake":"○","takashio":"×","jishin":"○","tsunami":"○","kaji":"○","naisui":"×","kazan":"×"}}
,{"type":"Feature","geometry":{"type":"Point","coordinates":[138.865,35.095]},"properties":{"Name":"香陵運動場","Jusho":"静岡県沼津市御幸町 15-1","kouzui":"×","gake":"×","takashio":"×","jishin":"○","tsunami":"○","kaji":"○","naisui":"×","kazan":"×"}}
,{"type":"Feature","geometry":{"type":"Point","coordinates":[138.865,35.097]},"properties":{"Name":"第四小学校","Jusho":"静岡県沼津市御幸町 4-1","kouzui":"○","gake":"○","takashio":"×","jishin":"○","tsunami":"○","kaji":"○","naisui":"×","kazan":"○"}}
,{"type":"Feature","geometry":{"type":"Point","coordinates":[138.868,35.101]},"properties":{"Name":"山王公園","Jusho":"静岡県沼津市平町 7-24","kouzui":"○","gake":"×","takashio":"×","jishin":"○","tsunami":"×","kaji":"○","naisui":"×","kazan":"×"}}
,{"type":"Feature","geometry":{"type":"Point","coordinates":[138.867,35.113]},"properties":{"Name":"市立高校・中等部","Jusho":"静岡県沼津市三枚橋字鐘突免 673","kouzui":"×","gake":"×","takashio":"×","jishin":"○","tsunami":"×","kaji":"○","naisui":"×","kazan":"○"}}
,{"type":"Feature","geometry":{"type":"Point","coordinates":[138.869,35.117]},"properties":{"Name":"加藤学園高校","Jusho":"静岡県沼津市大岡自由ケ丘 1979","kouzui":"×","gake":"×","takashio":"×","jishin":"○","tsunami":"×","kaji":"○","naisui":"×","kazan":"○"}}
,{"type":"Feature","geometry":{"type":"Point","coordinates":[138.864,35.114]},"properties":{"Name":"第五中学校","Jusho":"静岡県沼津市五月町 15-1","kouzui":"×","gake":"×","takashio":"×","jishin":"○","tsunami":"×","kaji":"○","naisui":"×","kazan":"○"}}
,{"type":"Feature","geometry":{"type":"Point","coordinates":[138.864,35.108]},"properties":{"Name":"第五小学校","Jusho":"静岡県沼津市米山町 9-1","kouzui":"×","gake":"×","takashio":"×","jishin":"○","tsunami":"×","kaji":"○","naisui":"×","kazan":"○"}}
,{"type":"Feature","geometry":{"type":"Point","coordinates":[138.854,35.108]},"properties":{"Name":"開北小学校","Jusho":"静岡県沼津市高沢町 17-1","kouzui":"○","gake":"×","takashio":"×","jishin":"○","tsunami":"×","kaji":"○","naisui":"×","kazan":"○"}}
,{"type":"Feature","geometry":{"type":"Point","coordinates":[138.85,35.113]},"properties":{"Name":"駿河グラウンド","Jusho":"静岡県沼津市沼北町２丁目1231-4","kouzui":"×","gake":"×","takashio":"×","jishin":"○","tsunami":"×","kaji":"○","naisui":"×","kazan":"×"}}
,{"type":"Feature","geometry":{"type":"Point","coordinates":[138.882,35.125]},"properties":{"Name":"門池小学校","Jusho":"静岡県沼津市岡一色 88-2","kouzui":"×","gake":"×","takashio":"×","jishin":"○","tsunami":"×","kaji":"○","naisui":"×","kazan":"○"}}
,{"type":"Feature","geometry":{"type":"Point","coordinates":[138.878,35.133]},"properties":{"Name":"門池中学校","Jusho":"静岡県沼津市岡一色 657-1","kouzui":"×","gake":"○","takashio":"×","jishin":"○","tsunami":"×","kaji":"○","naisui":"×","kazan":"○"}}
,{"type":"Feature","geometry":{"type":"Point","coordinates":[138.885,35.136]},"properties":{"Name":"沼津工業高等専門学校","Jusho":"静岡県沼津市大岡 3600","kouzui":"×","gake":"×","takashio":"×","jishin":"○","tsunami":"×","kaji":"○","naisui":"×","kazan":"○"}}
,{"type":"Feature","geometry":{"type":"Point","coordinates":[138.882,35.129]},"properties":{"Name":"門池公園","Jusho":"静岡県沼津市岡一色786-9","kouzui":"×","gake":"×","takashio":"×","jishin":"○","tsunami":"×","kaji":"○","naisui":"×","kazan":"×"}}
,{"type":"Feature","geometry":{"type":"Point","coordinates":[138.866,35.13]},"properties":{"Name":"県立沼津東高校","Jusho":"静岡県沼津市岡宮812","kouzui":"×","gake":"○","takashio":"×","jishin":"○","tsunami":"×","kaji":"○","naisui":"×","kazan":"○"}}
,{"type":"Feature","geometry":{"type":"Point","coordinates":[138.866,35.116]},"properties":{"Name":"金岡中学校","Jusho":"静岡県沼津市神田町 4-1","kouzui":"×","gake":"×","takashio":"×","jishin":"○","tsunami":"×","kaji":"○","naisui":"×","kazan":"○"}}
,{"type":"Feature","geometry":{"type":"Point","coordinates":[138.868,35.117]},"properties":{"Name":"飛龍高校","Jusho":"静岡県沼津市東熊堂 491","kouzui":"×","gake":"×","takashio":"×","jishin":"○","tsunami":"×","kaji":"○","naisui":"×","kazan":"○"}}
,{"type":"Feature","geometry":{"type":"Point","coordinates":[138.862,35.119]},"properties":{"Name":"金岡小学校","Jusho":"静岡県沼津市江原町 3-1","kouzui":"○","gake":"×","takashio":"×","jishin":"○","tsunami":"×","kaji":"○","naisui":"×","kazan":"○"}}
,{"type":"Feature","geometry":{"type":"Point","coordinates":[138.852,35.129]},"properties":{"Name":"沢田小学校","Jusho":"静岡県沼津市中沢田字円丸 715","kouzui":"○","gake":"○","takashio":"×","jishin":"○","tsunami":"×","kaji":"○","naisui":"×","kazan":"○"}}
,{"type":"Feature","geometry":{"type":"Point","coordinates":[138.86,35.128]},"properties":{"Name":"駿河台公園","Jusho":"静岡県沼津市駿河台 15","kouzui":"×","gake":"○","takashio":"×","jishin":"○","tsunami":"×","kaji":"○","naisui":"×","kazan":"×"}}
,{"type":"Feature","geometry":{"type":"Point","coordinates":[138.862,35.13]},"properties":{"Name":"豊町公園","Jusho":"静岡県沼津市豊町 7","kouzui":"×","gake":"○","takashio":"×","jishin":"○","tsunami":"×","kaji":"○","naisui":"×","kazan":"×"}}
,{"type":"Feature","geometry":{"type":"Point","coordinates":[138.88,35.113]},"properties":{"Name":"大岡小学校","Jusho":"静岡県沼津市大岡 2358","kouzui":"○","gake":"×","takashio":"×","jishin":"○","tsunami":"×","kaji":"○","naisui":"×","kazan":"○"}}
,{"type":"Feature","geometry":{"type":"Point","coordinates":[138.877,35.104]},"properties":{"Name":"大岡南小学校","Jusho":"静岡県沼津市大岡字原田 1312","kouzui":"○","gake":"×","takashio":"×","jishin":"○","tsunami":"×","kaji":"○","naisui":"×","kazan":"○"}}
,{"type":"Feature","geometry":{"type":"Point","coordinates":[138.874,35.115]},"properties":{"Name":"大岡中学校","Jusho":"静岡県沼津市大岡 2110","kouzui":"×","gake":"×","takashio":"×","jishin":"○","tsunami":"×","kaji":"○","naisui":"×","kazan":"○"}}
,{"type":"Feature","geometry":{"type":"Point","coordinates":[138.823,35.129]},"properties":{"Name":"愛鷹地区センター","Jusho":"静岡県沼津市東原字金山下 358-1","kouzui":"○","gake":"○","takashio":"×","jishin":"○","tsunami":"×","kaji":"○","naisui":"×","kazan":"○"}}
,{"type":"Feature","geometry":{"type":"Point","coordinates":[138.832,35.128]},"properties":{"Name":"西部市民運動場","Jusho":"静岡県沼津市東椎路字中尾1749-1","kouzui":"×","gake":"×","takashio":"×","jishin":"○","tsunami":"×","kaji":"○","naisui":"×","kazan":"×"}}
,{"type":"Feature","geometry":{"type":"Point","coordinates":[138.828,35.111]},"properties":{"Name":"片浜小学校","Jusho":"静岡県沼津市大諏訪 41","kouzui":"○","gake":"×","takashio":"×","jishin":"○","tsunami":"×","kaji":"○","naisui":"×","kazan":"○"}}
,{"type":"Feature","geometry":{"type":"Point","coordinates":[138.84,35.106]},"properties":{"Name":"片浜中学校","Jusho":"静岡県沼津市小諏訪 180","kouzui":"○","gake":"×","takashio":"×","jishin":"○","tsunami":"×","kaji":"○","naisui":"×","kazan":"○"}}
,{"type":"Feature","geometry":{"type":"Point","coordinates":[138.818,35.125]},"properties":{"Name":"今沢小学校","Jusho":"静岡県沼津市東原字榎田通 76-1","kouzui":"○","gake":"×","takashio":"×","jishin":"○","tsunami":"×","kaji":"○","naisui":"×","kazan":"○"}}
,{"type":"Feature","geometry":{"type":"Point","coordinates":[138.91,35.077]},"properties":{"Name":"大平小学校","Jusho":"静岡県沼津市大平字 2200","kouzui":"○","gake":"○","takashio":"×","jishin":"○","tsunami":"×","kaji":"○","naisui":"×","kazan":"○"}}
,{"type":"Feature","geometry":{"type":"Point","coordinates":[138.903,35.071]},"properties":{"Name":"大平中学校","Jusho":"静岡県沼津市大平 1144","kouzui":"○","gake":"○","takashio":"×","jishin":"○","tsunami":"×","kaji":"○","naisui":"×","kazan":"○"}}
,{"type":"Feature","geometry":{"type":"Point","coordinates":[138.884,35.064]},"properties":{"Name":"旧静浦西小学校","Jusho":"静岡県沼津市志下 530","kouzui":"○","gake":"○","takashio":"×","jishin":"○","tsunami":"○","kaji":"○","naisui":"×","kazan":"○"}}
,{"type":"Feature","geometry":{"type":"Point","coordinates":[138.889,35.049]},"properties":{"Name":"南部浄化センター","Jusho":"静岡県沼津市江浦7-3","kouzui":"×","gake":"×","takashio":"×","jishin":"○","tsunami":"○","kaji":"○","naisui":"×","kazan":"×"}}
,{"type":"Feature","geometry":{"type":"Point","coordinates":[138.903,35.025]},"properties":{"Name":"内浦小学校","Jusho":"静岡県沼津市内浦三津 410-1","kouzui":"×","gake":"○","takashio":"×","jishin":"○","tsunami":"○","kaji":"○","naisui":"×","kazan":"○"}}
,{"type":"Feature","geometry":{"type":"Point","coordinates":[138.883,35.022]},"properties":{"Name":"長井崎中学校","Jusho":"静岡県沼津市内浦重須 453","kouzui":"×","gake":"○","takashio":"×","jishin":"○","tsunami":"○","kaji":"○","naisui":"×","kazan":"○"}}
,{"type":"Feature","geometry":{"type":"Point","coordinates":[138.856,35.019]},"properties":{"Name":"西浦小学校","Jusho":"静岡県沼津市西浦平沢 255-2","kouzui":"×","gake":"○","takashio":"×","jishin":"○","tsunami":"○","kaji":"○","naisui":"×","kazan":"○"}}
,{"type":"Feature","geometry":{"type":"Point","coordinates":[138.793,35.128]},"properties":{"Name":"原小学校","Jusho":"静岡県沼津市原 1200","kouzui":"○","gake":"×","takashio":"×","jishin":"○","tsunami":"×","kaji":"○","naisui":"×","kazan":"○"}}
,{"type":"Feature","geometry":{"type":"Point","coordinates":[138.787,35.126]},"properties":{"Name":"原中学校","Jusho":"静岡県沼津市原 576","kouzui":"○","gake":"×","takashio":"×","jishin":"○","tsunami":"×","kaji":"○","naisui":"×","kazan":"○"}}
,{"type":"Feature","geometry":{"type":"Point","coordinates":[138.81,35.127]},"properties":{"Name":"原東小学校","Jusho":"静岡県沼津市大塚字雁作 814-1","kouzui":"○","gake":"×","takashio":"×","jishin":"○","tsunami":"×","kaji":"○","naisui":"×","kazan":"○"}}
,{"type":"Feature","geometry":{"type":"Point","coordinates":[138.784,35.147]},"properties":{"Name":"浮島小学校","Jusho":"静岡県沼津市平沼 811","kouzui":"○","gake":"○","takashio":"×","jishin":"○","tsunami":"×","kaji":"○","naisui":"×","kazan":"○"}}
,{"type":"Feature","geometry":{"type":"Point","coordinates":[138.783,34.999]},"properties":{"Name":"井田コミュニティ広場","Jusho":"静岡県沼津市井田字郷戸 8-1","kouzui":"×","gake":"○","takashio":"×","jishin":"○","tsunami":"○","kaji":"○","naisui":"×","kazan":"×"}}
,{"type":"Feature","geometry":{"type":"Point","coordinates":[138.786,34.971]},"properties":{"Name":"市道上野・平戸線","Jusho":"静岡県沼津市戸田 1259-1、1325-2","kouzui":"×","gake":"○","takashio":"×","jishin":"○","tsunami":"○","kaji":"○","naisui":"×","kazan":"×"}}
,{"type":"Feature","geometry":{"type":"Point","coordinates":[138.801,34.968]},"properties":{"Name":"戸田B&G海洋センター","Jusho":"静岡県沼津市戸田2053","kouzui":"×","gake":"×","takashio":"×","jishin":"○","tsunami":"○","kaji":"○","naisui":"×","kazan":"×"}}
,{"type":"Feature","geometry":{"type":"Point","coordinates":[138.777,34.949]},"properties":{"Name":"舟山ふれあい広場","Jusho":"静岡県沼津市戸田 2558-1","kouzui":"×","gake":"○","takashio":"×","jishin":"○","tsunami":"×","kaji":"○","naisui":"×","kazan":"×"}}
,{"type":"Feature","geometry":{"type":"Point","coordinates":[138.872,35.093]},"properties":{"Name":"第四中学校","Jusho":"静岡県沼津市本郷町24-1","kouzui":"○","gake":"×","takashio":"×","jishin":"×","tsunami":"×","kaji":"×","naisui":"×","kazan":"×"}}
,{"type":"Feature","geometry":{"type":"Point","coordinates":[138.863,35.1]},"properties":{"Name":"市立図書館","Jusho":"静岡県沼津市三枚橋町9-1","kouzui":"○","gake":"×","takashio":"×","jishin":"×","tsunami":"×","kaji":"×","naisui":"×","kazan":"×"}}
,{"type":"Feature","geometry":{"type":"Point","coordinates":[138.886,35.051]},"properties":{"Name":"静浦小中一貫学校","Jusho":"静岡県沼津市獅子浜17","kouzui":"×","gake":"○","takashio":"×","jishin":"×","tsunami":"○","kaji":"×","naisui":"×","kazan":"○"}}
,{"type":"Feature","geometry":{"type":"Point","coordinates":[138.855,35.09]},"properties":{"Name":"第二小学校","Jusho":"静岡県沼津市常磐町2丁目32","kouzui":"×","gake":"×","takashio":"×","jishin":"×","tsunami":"○","kaji":"×","naisui":"×","kazan":"×"}}
,{"type":"Feature","geometry":{"type":"Point","coordinates":[138.854,35.084]},"properties":{"Name":"中部浄化プラント（管理棟）","Jusho":"静岡県沼津市本字千本1905-4","kouzui":"×","gake":"×","takashio":"×","jishin":"×","tsunami":"○","kaji":"×","naisui":"×","kazan":"×"}}
,{"type":"Feature","geometry":{"type":"Point","coordinates":[138.852,35.095]},"properties":{"Name":"モン・ミュゼ沼津　沼津市庄司美術館","Jusho":"静岡県沼津市本字下一丁田900-1","kouzui":"×","gake":"×","takashio":"×","jishin":"×","tsunami":"○","kaji":"×","naisui":"×","kazan":"×"}}
,{"type":"Feature","geometry":{"type":"Point","coordinates":[138.848,35.097]},"properties":{"Name":"千本小学校","Jusho":"静岡県沼津市本字千本1910-19","kouzui":"×","gake":"×","takashio":"×","jishin":"×","tsunami":"○","kaji":"×","naisui":"×","kazan":"×"}}
,{"type":"Feature","geometry":{"type":"Point","coordinates":[138.869,35.08]},"properties":{"Name":"第三小学校","Jusho":"静岡県沼津市下香貫下障子3157-2","kouzui":"×","gake":"×","takashio":"×","jishin":"×","tsunami":"○","kaji":"×","naisui":"×","kazan":"×"}}
,{"type":"Feature","geometry":{"type":"Point","coordinates":[138.864,35.096]},"properties":{"Name":"沼津市役所","Jusho":"静岡県沼津市御幸町16-1","kouzui":"×","gake":"×","takashio":"×","jishin":"×","tsunami":"○","kaji":"×","naisui":"×","kazan":"×"}}
,{"type":"Feature","geometry":{"type":"Point","coordinates":[138.866,35.095]},"properties":{"Name":"沼津市民文化センター","Jusho":"静岡県沼津市御幸町15-1","kouzui":"×","gake":"×","takashio":"×","jishin":"×","tsunami":"○","kaji":"×","naisui":"×","kazan":"×"}}
,{"type":"Feature","geometry":{"type":"Point","coordinates":[138.863,35.091]},"properties":{"Name":"第四地区センター","Jusho":"静岡県沼津市吉田町20-1","kouzui":"×","gake":"×","takashio":"×","jishin":"×","tsunami":"○","kaji":"×","naisui":"×","kazan":"×"}}
,{"type":"Feature","geometry":{"type":"Point","coordinates":[138.89,35.049]},"properties":{"Name":"南部浄化センター(管理棟)","Jusho":"静岡県沼津市江浦7-3","kouzui":"×","gake":"×","takashio":"×","jishin":"×","tsunami":"○","kaji":"×","naisui":"×","kazan":"×"}}
,{"type":"Feature","geometry":{"type":"Point","coordinates":[138.898,35.051]},"properties":{"Name":"津波避難マウント（多比）","Jusho":"静岡県沼津市多比1-1他","kouzui":"×","gake":"×","takashio":"×","jishin":"×","tsunami":"○","kaji":"×","naisui":"×","kazan":"×"}}
,{"type":"Feature","geometry":{"type":"Point","coordinates":[138.886,35.018]},"properties":{"Name":"津波避難タワー（内浦重須）","Jusho":"静岡県沼津市内浦重須 304-81地先","kouzui":"×","gake":"×","takashio":"×","jishin":"×","tsunami":"○","kaji":"×","naisui":"×","kazan":"×"}}
,{"type":"Feature","geometry":{"type":"Point","coordinates":[138.878,35.02]},"properties":{"Name":"津波避難タワー（西浦木負）","Jusho":"静岡県沼津市西浦木負216-128地先","kouzui":"×","gake":"×","takashio":"×","jishin":"×","tsunami":"○","kaji":"×","naisui":"×","kazan":"×"}}
,{"type":"Feature","geometry":{"type":"Point","coordinates":[138.779,34.972]},"properties":{"Name":"戸田小学校","Jusho":"静岡県沼津市戸田883","kouzui":"×","gake":"×","takashio":"×","jishin":"×","tsunami":"○","kaji":"×","naisui":"×","kazan":"×"}}
,{"type":"Feature","geometry":{"type":"Point","coordinates":[138.78,34.972]},"properties":{"Name":"戸田中学校","Jusho":"静岡県沼津市戸田875","kouzui":"×","gake":"×","takashio":"×","jishin":"×","tsunami":"○","kaji":"×","naisui":"×","kazan":"×"}}
,{"type":"Feature","geometry":{"type":"Point","coordinates":[138.781,34.974]},"properties":{"Name":"保健センター戸田分館","Jusho":"静岡県沼津市戸田916-2","kouzui":"×","gake":"×","takashio":"×","jishin":"×","tsunami":"○","kaji":"×","naisui":"×","kazan":"×"}}
,{"type":"Feature","geometry":{"type":"Point","coordinates":[138.779,34.974]},"properties":{"Name":"津波避難タワー（戸田）","Jusho":"静岡県沼津市戸田235","kouzui":"×","gake":"×","takashio":"×","jishin":"×","tsunami":"○","kaji":"×","naisui":"×","kazan":"×"}}
,{"type":"Feature","geometry":{"type":"Point","coordinates":[139.071,35.097]},"properties":{"Name":"上宿町市有地","Jusho":"静岡県熱海市上宿町785","kouzui":"×","gake":"×","takashio":"×","jishin":"×","tsunami":"○","kaji":"×","naisui":"×","kazan":"×"}}
,{"type":"Feature","geometry":{"type":"Point","coordinates":[139.07,35.063]},"properties":{"Name":"上多賀幼稚園（園庭）","Jusho":"静岡県熱海市上多賀730-2","kouzui":"×","gake":"×","takashio":"×","jishin":"×","tsunami":"○","kaji":"×","naisui":"×","kazan":"×"}}
,{"type":"Feature","geometry":{"type":"Point","coordinates":[139.07,35.049]},"properties":{"Name":"多賀小学校 （グラウンド）","Jusho":"静岡県熱海市下多賀920-1","kouzui":"×","gake":"×","takashio":"×","jishin":"×","tsunami":"○","kaji":"×","naisui":"×","kazan":"×"}}
,{"type":"Feature","geometry":{"type":"Point","coordinates":[139.081,35.043]},"properties":{"Name":"白銅跡地","Jusho":"静岡県熱海市下多賀184-1","kouzui":"×","gake":"×","takashio":"×","jishin":"×","tsunami":"○","kaji":"×","naisui":"×","kazan":"×"}}
,{"type":"Feature","geometry":{"type":"Point","coordinates":[139.092,35.047]},"properties":{"Name":"網代公民館（屋上）","Jusho":"静岡県熱海市網代181","kouzui":"×","gake":"×","takashio":"×","jishin":"×","tsunami":"○","kaji":"×","naisui":"×","kazan":"×"}}
,{"type":"Feature","geometry":{"type":"Point","coordinates":[139.17,35.04]},"properties":{"Name":"初島公園","Jusho":"静岡県熱海市初島572","kouzui":"×","gake":"×","takashio":"×","jishin":"×","tsunami":"○","kaji":"×","naisui":"×","kazan":"×"}}
,{"type":"Feature","geometry":{"type":"Point","coordinates":[138.925,35.118]},"properties":{"Name":"東小学校","Jusho":"静岡県三島市東町10-1","kouzui":"×","gake":"○","takashio":"×","jishin":"○","tsunami":"×","kaji":"○","naisui":"×","kazan":"×"}}
,{"type":"Feature","geometry":{"type":"Point","coordinates":[138.909,35.116]},"properties":{"Name":"西小学校","Jusho":"静岡県三島市緑町7-7","kouzui":"×","gake":"×","takashio":"×","jishin":"○","tsunami":"×","kaji":"○","naisui":"×","kazan":"×"}}
,{"type":"Feature","geometry":{"type":"Point","coordinates":[138.918,35.11]},"properties":{"Name":"南小学校","Jusho":"静岡県三島市富田町6-1","kouzui":"×","gake":"×","takashio":"×","jishin":"○","tsunami":"×","kaji":"○","naisui":"×","kazan":"×"}}
,{"type":"Feature","geometry":{"type":"Point","coordinates":[138.913,35.131]},"properties":{"Name":"北小学校","Jusho":"静岡県三島市文教町1-4-8","kouzui":"×","gake":"×","takashio":"×","jishin":"○","tsunami":"×","kaji":"○","naisui":"×","kazan":"×"}}
,{"type":"Feature","geometry":{"type":"Point","coordinates":[138.937,35.113]},"properties":{"Name":"錦田小学校","Jusho":"静岡県三島市谷田966","kouzui":"×","gake":"○","takashio":"×","jishin":"○","tsunami":"×","kaji":"○","naisui":"×","kazan":"×"}}
,{"type":"Feature","geometry":{"type":"Point","coordinates":[138.938,35.105]},"properties":{"Name":"向山小学校","Jusho":"静岡県三島市谷田1946","kouzui":"○","gake":"○","takashio":"×","jishin":"○","tsunami":"×","kaji":"○","naisui":"○","kazan":"×"}}
,{"type":"Feature","geometry":{"type":"Point","coordinates":[138.934,35.133]},"properties":{"Name":"山田小学校","Jusho":"静岡県三島市川原ヶ谷812","kouzui":"×","gake":"○","takashio":"×","jishin":"○","tsunami":"×","kaji":"○","naisui":"×","kazan":"×"}}
,{"type":"Feature","geometry":{"type":"Point","coordinates":[138.962,35.137]},"properties":{"Name":"坂小学校","Jusho":"静岡県三島市市山新田163-2","kouzui":"×","gake":"○","takashio":"×","jishin":"○","tsunami":"×","kaji":"○","naisui":"×","kazan":"×"}}
,{"type":"Feature","geometry":{"type":"Point","coordinates":[138.913,35.142]},"properties":{"Name":"徳倉小学校","Jusho":"静岡県三島市徳倉4-1-45","kouzui":"×","gake":"○","takashio":"×","jishin":"○","tsunami":"×","kaji":"○","naisui":"×","kazan":"×"}}
,{"type":"Feature","geometry":{"type":"Point","coordinates":[138.927,35.14]},"properties":{"Name":"沢地小学校","Jusho":"静岡県三島市沢地127-1","kouzui":"×","gake":"○","takashio":"×","jishin":"○","tsunami":"×","kaji":"○","naisui":"×","kazan":"×"}}
,{"type":"Feature","geometry":{"type":"Point","coordinates":[138.913,35.149]},"properties":{"Name":"北上小学校","Jusho":"静岡県三島市徳倉844-1","kouzui":"○","gake":"○","takashio":"×","jishin":"○","tsunami":"×","kaji":"○","naisui":"○","kazan":"×"}}
,{"type":"Feature","geometry":{"type":"Point","coordinates":[138.924,35.169]},"properties":{"Name":"佐野小学校","Jusho":"静岡県三島市佐野238","kouzui":"○","gake":"○","takashio":"×","jishin":"○","tsunami":"×","kaji":"○","naisui":"○","kazan":"×"}}
,{"type":"Feature","geometry":{"type":"Point","coordinates":[138.928,35.095]},"properties":{"Name":"中郷小学校","Jusho":"静岡県三島市梅名453","kouzui":"○","gake":"×","takashio":"×","jishin":"○","tsunami":"×","kaji":"○","naisui":"○","kazan":"×"}}
,{"type":"Feature","geometry":{"type":"Point","coordinates":[138.915,35.085]},"properties":{"Name":"長伏小学校","Jusho":"静岡県三島市長伏226-5","kouzui":"○","gake":"×","takashio":"×","jishin":"○","tsunami":"×","kaji":"○","naisui":"○","kazan":"×"}}
,{"type":"Feature","geometry":{"type":"Point","coordinates":[138.938,35.122]},"properties":{"Name":"錦田中学校","Jusho":"静岡県三島市谷田1505","kouzui":"×","gake":"○","takashio":"×","jishin":"○","tsunami":"×","kaji":"○","naisui":"×","kazan":"×"}}
,{"type":"Feature","geometry":{"type":"Point","coordinates":[138.918,35.109]},"properties":{"Name":"南中学校","Jusho":"静岡県三島市富田町6-18","kouzui":"×","gake":"×","takashio":"×","jishin":"○","tsunami":"×","kaji":"○","naisui":"×","kazan":"×"}}
,{"type":"Feature","geometry":{"type":"Point","coordinates":[138.915,35.131]},"properties":{"Name":"北中学校","Jusho":"静岡県三島市文教町2-32-60","kouzui":"×","gake":"○","takashio":"×","jishin":"○","tsunami":"×","kaji":"○","naisui":"×","kazan":"×"}}
,{"type":"Feature","geometry":{"type":"Point","coordinates":[138.917,35.153]},"properties":{"Name":"北上中学校","Jusho":"静岡県三島市徳倉767-2","kouzui":"×","gake":"×","takashio":"×","jishin":"○","tsunami":"×","kaji":"○","naisui":"×","kazan":"×"}}
,{"type":"Feature","geometry":{"type":"Point","coordinates":[138.936,35.094]},"properties":{"Name":"中郷中学校","Jusho":"静岡県三島市大場250-1","kouzui":"×","gake":"×","takashio":"×","jishin":"○","tsunami":"×","kaji":"○","naisui":"×","kazan":"×"}}
,{"type":"Feature","geometry":{"type":"Point","coordinates":[138.923,35.09]},"properties":{"Name":"中郷西中学校","Jusho":"静岡県三島市梅名854-1","kouzui":"○","gake":"×","takashio":"×","jishin":"○","tsunami":"×","kaji":"○","naisui":"○","kazan":"×"}}
,{"type":"Feature","geometry":{"type":"Point","coordinates":[138.936,35.135]},"properties":{"Name":"山田中学校","Jusho":"静岡県三島市川原ヶ谷842-4","kouzui":"×","gake":"○","takashio":"×","jishin":"○","tsunami":"×","kaji":"○","naisui":"×","kazan":"×"}}
,{"type":"Feature","geometry":{"type":"Point","coordinates":[138.913,35.13]},"properties":{"Name":"三島北高等学校","Jusho":"静岡県三島市文教町1-3-18","kouzui":"×","gake":"○","takashio":"×","jishin":"○","tsunami":"×","kaji":"○","naisui":"×","kazan":"×"}}
,{"type":"Feature","geometry":{"type":"Point","coordinates":[138.945,35.095]},"properties":{"Name":"三島南高等学校","Jusho":"静岡県三島市大場608","kouzui":"○","gake":"○","takashio":"×","jishin":"○","tsunami":"×","kaji":"○","naisui":"○","kazan":"×"}}
,{"type":"Feature","geometry":{"type":"Point","coordinates":[138.912,35.129]},"properties":{"Name":"三島長陵高等学校","Jusho":"静岡県三島市文教町1-3-93","kouzui":"×","gake":"×","takashio":"×","jishin":"○","tsunami":"×","kaji":"○","naisui":"×","kazan":"×"}}
,{"type":"Feature","geometry":{"type":"Point","coordinates":[138.913,35.124]},"properties":{"Name":"楽寿園","Jusho":"静岡県三島市一番町19-3","kouzui":"×","gake":"×","takashio":"×","jishin":"○","tsunami":"×","kaji":"○","naisui":"×","kazan":"×"}}
,{"type":"Feature","geometry":{"type":"Point","coordinates":[138.931,35.13]},"properties":{"Name":"旭ヶ丘集会所","Jusho":"静岡県三島市旭ヶ丘404-25","kouzui":"×","gake":"○","takashio":"×","jishin":"×","tsunami":"×","kaji":"×","naisui":"×","kazan":"×"}}
,{"type":"Feature","geometry":{"type":"Point","coordinates":[138.921,35.128]},"properties":{"Name":"加茂川町1区集会所","Jusho":"静岡県三島市加茂川町3941-1","kouzui":"×","gake":"○","takashio":"×","jishin":"×","tsunami":"×","kaji":"×","naisui":"×","kazan":"×"}}
,{"type":"Feature","geometry":{"type":"Point","coordinates":[138.92,35.127]},"properties":{"Name":"加茂川町2区自治会館","Jusho":"静岡県三島市加茂川町18-4","kouzui":"×","gake":"○","takashio":"×","jishin":"×","tsunami":"×","kaji":"×","naisui":"×","kazan":"×"}}
,{"type":"Feature","geometry":{"type":"Point","coordinates":[138.92,35.123]},"properties":{"Name":"大宮町2丁目公民館","Jusho":"静岡県三島市大宮町211-10","kouzui":"×","gake":"○","takashio":"×","jishin":"×","tsunami":"×","kaji":"×","naisui":"×","kazan":"×"}}
,{"type":"Feature","geometry":{"type":"Point","coordinates":[138.918,35.125]},"properties":{"Name":"大宮町3丁目集会所","Jusho":"静岡県三島市大宮町33561-4","kouzui":"×","gake":"○","takashio":"×","jishin":"×","tsunami":"×","kaji":"×","naisui":"×","kazan":"×"}}
,{"type":"Feature","geometry":{"type":"Point","coordinates":[138.92,35.131]},"properties":{"Name":"壱町田公民館","Jusho":"静岡県三島市壱町田101-1","kouzui":"×","gake":"○","takashio":"×","jishin":"×","tsunami":"×","kaji":"×","naisui":"×","kazan":"×"}}
,{"type":"Feature","geometry":{"type":"Point","coordinates":[138.929,35.133]},"properties":{"Name":"加茂集会所","Jusho":"静岡県三島市加茂6-2","kouzui":"○","gake":"○","takashio":"×","jishin":"×","tsunami":"×","kaji":"×","naisui":"×","kazan":"×"}}
,{"type":"Feature","geometry":{"type":"Point","coordinates":[138.911,35.147]},"properties":{"Name":"県営北上団地","Jusho":"静岡県三島市徳倉1016-3","kouzui":"×","gake":"○","takashio":"×","jishin":"×","tsunami":"×","kaji":"×","naisui":"×","kazan":"×"}}
,{"type":"Feature","geometry":{"type":"Point","coordinates":[138.926,35.135]},"properties":{"Name":"光ヶ丘公民館","Jusho":"静岡県三島市光ヶ丘219-5","kouzui":"×","gake":"○","takashio":"×","jishin":"×","tsunami":"×","kaji":"×","naisui":"×","kazan":"×"}}
,{"type":"Feature","geometry":{"type":"Point","coordinates":[138.921,35.138]},"properties":{"Name":"千枚原集会所","Jusho":"静岡県三島市千枚原10-6","kouzui":"×","gake":"○","takashio":"×","jishin":"×","tsunami":"×","kaji":"×","naisui":"×","kazan":"×"}}
,{"type":"Feature","geometry":{"type":"Point","coordinates":[138.928,35.144]},"properties":{"Name":"沢地公民館","Jusho":"静岡県三島市沢地280-5","kouzui":"×","gake":"○","takashio":"×","jishin":"×","tsunami":"×","kaji":"×","naisui":"×","kazan":"×"}}
,{"type":"Feature","geometry":{"type":"Point","coordinates":[138.909,35.151]},"properties":{"Name":"萩公民館","Jusho":"静岡県三島市萩160-2","kouzui":"○","gake":"○","takashio":"×","jishin":"×","tsunami":"×","kaji":"×","naisui":"×","kazan":"×"}}
,{"type":"Feature","geometry":{"type":"Point","coordinates":[138.922,35.14]},"properties":{"Name":"富士ビレッジ集会所","Jusho":"静岡県三島市徳倉3316-2","kouzui":"×","gake":"○","takashio":"×","jishin":"×","tsunami":"×","kaji":"×","naisui":"×","kazan":"×"}}
,{"type":"Feature","geometry":{"type":"Point","coordinates":[138.937,35.127]},"properties":{"Name":"うぐいす会館","Jusho":"静岡県三島市初音台24-1","kouzui":"×","gake":"○","takashio":"×","jishin":"×","tsunami":"×","kaji":"×","naisui":"×","kazan":"×"}}
,{"type":"Feature","geometry":{"type":"Point","coordinates":[138.933,35.12]},"properties":{"Name":"押切公民館","Jusho":"静岡県三島市谷田天台1336-10","kouzui":"×","gake":"○","takashio":"×","jishin":"×","tsunami":"×","kaji":"×","naisui":"×","kazan":"×"}}
,{"type":"Feature","geometry":{"type":"Point","coordinates":[138.937,35.11]},"properties":{"Name":"夏梅木公民館","Jusho":"静岡県三島市谷田549-5","kouzui":"×","gake":"○","takashio":"×","jishin":"×","tsunami":"×","kaji":"×","naisui":"×","kazan":"×"}}
,{"type":"Feature","geometry":{"type":"Point","coordinates":[138.953,35.122]},"properties":{"Name":"静岡県総合健康センター","Jusho":"静岡県三島市谷田2276","kouzui":"×","gake":"○","takashio":"×","jishin":"×","tsunami":"×","kaji":"×","naisui":"×","kazan":"×"}}
,{"type":"Feature","geometry":{"type":"Point","coordinates":[138.962,35.138]},"properties":{"Name":"坂公民館","Jusho":"静岡県三島市三谷新田125","kouzui":"×","gake":"○","takashio":"×","jishin":"×","tsunami":"×","kaji":"×","naisui":"×","kazan":"×"}}
,{"type":"Feature","geometry":{"type":"Point","coordinates":[138.936,35.119]},"properties":{"Name":"桜ヶ丘公民館","Jusho":"静岡県三島市谷田（五反田）1398-1","kouzui":"×","gake":"○","takashio":"×","jishin":"×","tsunami":"×","kaji":"×","naisui":"×","kazan":"×"}}
,{"type":"Feature","geometry":{"type":"Point","coordinates":[138.979,35.147]},"properties":{"Name":"笹原出荷場","Jusho":"静岡県三島市笹原新田","kouzui":"×","gake":"○","takashio":"×","jishin":"×","tsunami":"×","kaji":"×","naisui":"×","kazan":"×"}}
,{"type":"Feature","geometry":{"type":"Point","coordinates":[138.977,35.146]},"properties":{"Name":"笹原会館","Jusho":"静岡県三島市笹原新田191","kouzui":"×","gake":"○","takashio":"×","jishin":"×","tsunami":"×","kaji":"×","naisui":"×","kazan":"×"}}
,{"type":"Feature","geometry":{"type":"Point","coordinates":[138.995,35.155]},"properties":{"Name":"山中公民館","Jusho":"静岡県三島市山中新田95-2","kouzui":"×","gake":"○","takashio":"×","jishin":"×","tsunami":"×","kaji":"×","naisui":"×","kazan":"×"}}
,{"type":"Feature","geometry":{"type":"Point","coordinates":[138.935,35.131]},"properties":{"Name":"山田公民館","Jusho":"静岡県三島市川原ヶ谷764-1","kouzui":"×","gake":"○","takashio":"×","jishin":"×","tsunami":"×","kaji":"×","naisui":"×","kazan":"×"}}
,{"type":"Feature","geometry":{"type":"Point","coordinates":[138.932,35.118]},"properties":{"Name":"小山中島公民館","Jusho":"静岡県三島市谷田1240-1","kouzui":"×","gake":"○","takashio":"×","jishin":"×","tsunami":"×","kaji":"×","naisui":"×","kazan":"×"}}
,{"type":"Feature","geometry":{"type":"Point","coordinates":[138.927,35.123]},"properties":{"Name":"川原ヶ谷公民館","Jusho":"静岡県三島市川原ヶ谷85-4","kouzui":"×","gake":"○","takashio":"×","jishin":"×","tsunami":"×","kaji":"×","naisui":"×","kazan":"×"}}
,{"type":"Feature","geometry":{"type":"Point","coordinates":[138.94,35.125]},"properties":{"Name":"塚の台集会所","Jusho":"静岡県三島市谷田陣場1637-16","kouzui":"×","gake":"○","takashio":"×","jishin":"×","tsunami":"×","kaji":"×","naisui":"×","kazan":"×"}}
,{"type":"Feature","geometry":{"type":"Point","coordinates":[138.948,35.133]},"properties":{"Name":"塚原公民館","Jusho":"静岡県三島市塚原新田14-1","kouzui":"×","gake":"○","takashio":"×","jishin":"×","tsunami":"×","kaji":"×","naisui":"×","kazan":"×"}}
,{"type":"Feature","geometry":{"type":"Point","coordinates":[138.933,35.114]},"properties":{"Name":"東富士見公民館","Jusho":"静岡県三島市谷田258-9","kouzui":"×","gake":"○","takashio":"×","jishin":"×","tsunami":"×","kaji":"×","naisui":"×","kazan":"×"}}
,{"type":"Feature","geometry":{"type":"Point","coordinates":[138.941,35.12]},"properties":{"Name":"柳郷地集会所","Jusho":"静岡県三島市柳郷地135","kouzui":"×","gake":"○","takashio":"×","jishin":"×","tsunami":"×","kaji":"×","naisui":"×","kazan":"×"}}
,{"type":"Feature","geometry":{"type":"Point","coordinates":[138.945,35.099]},"properties":{"Name":"赤王集会所","Jusho":"静岡県三島市大場833-13","kouzui":"×","gake":"○","takashio":"×","jishin":"×","tsunami":"×","kaji":"×","naisui":"×","kazan":"×"}}
,{"type":"Feature","geometry":{"type":"Point","coordinates":[138.938,35.098]},"properties":{"Name":"多呂公民館","Jusho":"静岡県三島市多呂274","kouzui":"○","gake":"○","takashio":"×","jishin":"×","tsunami":"×","kaji":"×","naisui":"×","kazan":"×"}}
,{"type":"Feature","geometry":{"type":"Point","coordinates":[138.936,35.1]},"properties":{"Name":"北沢公民館","Jusho":"静岡県三島市北沢27-1","kouzui":"○","gake":"○","takashio":"×","jishin":"×","tsunami":"×","kaji":"×","naisui":"×","kazan":"×"}}
,{"type":"Feature","geometry":{"type":"Point","coordinates":[138.913,35.088]},"properties":{"Name":"長伏公民館","Jusho":"静岡県三島市長伏619","kouzui":"○","gake":"×","takashio":"×","jishin":"×","tsunami":"×","kaji":"×","naisui":"○","kazan":"×"}}
,{"type":"Feature","geometry":{"type":"Point","coordinates":[138.916,35.093]},"properties":{"Name":"松本公民館","Jusho":"静岡県三島市松本295-6","kouzui":"○","gake":"×","takashio":"×","jishin":"×","tsunami":"×","kaji":"×","naisui":"○","kazan":"×"}}
,{"type":"Feature","geometry":{"type":"Point","coordinates":[138.932,35.087]},"properties":{"Name":"安久公民館","Jusho":"静岡県三島市安久285-2","kouzui":"○","gake":"×","takashio":"×","jishin":"×","tsunami":"×","kaji":"×","naisui":"○","kazan":"×"}}
,{"type":"Feature","geometry":{"type":"Point","coordinates":[138.936,35.092]},"properties":{"Name":"大場公会堂","Jusho":"静岡県三島市大場20","kouzui":"○","gake":"×","takashio":"×","jishin":"×","tsunami":"×","kaji":"×","naisui":"○","kazan":"×"}}
,{"type":"Feature","geometry":{"type":"Point","coordinates":[138.933,35.094]},"properties":{"Name":"中島公民館","Jusho":"静岡県三島市中島310-2","kouzui":"○","gake":"×","takashio":"×","jishin":"×","tsunami":"×","kaji":"×","naisui":"○","kazan":"×"}}
,{"type":"Feature","geometry":{"type":"Point","coordinates":[138.932,35.092]},"properties":{"Name":"梅名自治会館","Jusho":"静岡県三島市梅名230-1","kouzui":"○","gake":"×","takashio":"×","jishin":"×","tsunami":"×","kaji":"×","naisui":"○","kazan":"×"}}
,{"type":"Feature","geometry":{"type":"Point","coordinates":[138.621,35.225]},"properties":{"Name":"東小学校","Jusho":"静岡県富士宮市矢立町２２７","kouzui":"×","gake":"×","takashio":"×","jishin":"○","tsunami":"×","kaji":"×","naisui":"×","kazan":"×"}}
,{"type":"Feature","geometry":{"type":"Point","coordinates":[138.624,35.226]},"properties":{"Name":"第一中学校","Jusho":"静岡県富士宮市矢立町８１４","kouzui":"×","gake":"×","takashio":"×","jishin":"○","tsunami":"×","kaji":"×","naisui":"×","kazan":"×"}}
,{"type":"Feature","geometry":{"type":"Point","coordinates":[138.614,35.231]},"properties":{"Name":"第二中学校","Jusho":"静岡県富士宮市豊町１７−１","kouzui":"×","gake":"×","takashio":"×","jishin":"○","tsunami":"×","kaji":"○","naisui":"×","kazan":"×"}}
,{"type":"Feature","geometry":{"type":"Point","coordinates":[138.614,35.23]},"properties":{"Name":"城山公園","Jusho":"静岡県富士宮市元城町１６８９","kouzui":"×","gake":"×","takashio":"×","jishin":"○","tsunami":"×","kaji":"○","naisui":"×","kazan":"×"}}
,{"type":"Feature","geometry":{"type":"Point","coordinates":[138.613,35.226]},"properties":{"Name":"大宮小学校","Jusho":"静岡県富士宮市元城町２−１","kouzui":"×","gake":"×","takashio":"×","jishin":"○","tsunami":"×","kaji":"×","naisui":"×","kazan":"×"}}
,{"type":"Feature","geometry":{"type":"Point","coordinates":[138.607,35.228]},"properties":{"Name":"市民文化会館","Jusho":"静岡県富士宮市宮町１４−２","kouzui":"×","gake":"×","takashio":"×","jishin":"○","tsunami":"×","kaji":"×","naisui":"×","kazan":"×"}}
,{"type":"Feature","geometry":{"type":"Point","coordinates":[138.611,35.226]},