var tiba={"type":"FeatureCollection","name":"tiba","features":[
{"type":"Feature","geometry":{"type":"Point","coordinates":[140.114,35.608]},"properties":{"Name":"新宿小学校","Jusho":"千葉県千葉市中央区新宿2-15-1","kouzui":"○","gake":"○","takashio":"○","jishin":"○","tsunami":"○","kaji":"×","naisui":"○","kazan":"×"}}
,{"type":"Feature","geometry":{"type":"Point","coordinates":[140.128,35.609]},"properties":{"Name":"本町小学校","Jusho":"千葉県千葉市中央区本町2-6-23","kouzui":"○","gake":"○","takashio":"○","jishin":"○","tsunami":"○","kaji":"×","naisui":"○","kazan":"×"}}
,{"type":"Feature","geometry":{"type":"Point","coordinates":[140.122,35.597]},"properties":{"Name":"寒川小学校","Jusho":"千葉県千葉市中央区寒川町1-205","kouzui":"○","gake":"○","takashio":"○","jishin":"○","tsunami":"○","kaji":"×","naisui":"○","kazan":"×"}}
,{"type":"Feature","geometry":{"type":"Point","coordinates":[140.108,35.612]},"properties":{"Name":"登戸小学校","Jusho":"千葉県千葉市中央区登戸2-11-1","kouzui":"○","gake":"○","takashio":"○","jishin":"○","tsunami":"○","kaji":"×","naisui":"○","kazan":"×"}}
,{"type":"Feature","geometry":{"type":"Point","coordinates":[140.126,35.616]},"properties":{"Name":"院内小学校","Jusho":"千葉県千葉市中央区祐光1-25-3","kouzui":"○","gake":"○","takashio":"○","jishin":"○","tsunami":"○","kaji":"×","naisui":"○","kazan":"×"}}
,{"type":"Feature","geometry":{"type":"Point","coordinates":[140.131,35.578]},"properties":{"Name":"蘇我小学校","Jusho":"千葉県千葉市中央区今井3-15-32","kouzui":"○","gake":"○","takashio":"○","jishin":"○","tsunami":"○","kaji":"×","naisui":"○","kazan":"×"}}
,{"type":"Feature","geometry":{"type":"Point","coordinates":[140.145,35.613]},"properties":{"Name":"都小学校","Jusho":"千葉県千葉市中央区都町1129","kouzui":"○","gake":"○","takashio":"○","jishin":"○","tsunami":"○","kaji":"×","naisui":"○","kazan":"×"}}
,{"type":"Feature","geometry":{"type":"Point","coordinates":[140.144,35.581]},"properties":{"Name":"大森小学校","Jusho":"千葉県千葉市中央区大森町268","kouzui":"○","gake":"○","takashio":"○","jishin":"○","tsunami":"○","kaji":"×","naisui":"○","kazan":"×"}}
,{"type":"Feature","geometry":{"type":"Point","coordinates":[140.141,35.559]},"properties":{"Name":"生浜小学校","Jusho":"千葉県千葉市中央区浜野町1335","kouzui":"○","gake":"○","takashio":"○","jishin":"○","tsunami":"○","kaji":"×","naisui":"○","kazan":"×"}}
,{"type":"Feature","geometry":{"type":"Point","coordinates":[140.134,35.61]},"properties":{"Name":"鶴沢小学校","Jusho":"千葉県千葉市中央区鶴沢町21-1","kouzui":"○","gake":"○","takashio":"○","jishin":"○","tsunami":"○","kaji":"×","naisui":"○","kazan":"×"}}
,{"type":"Feature","geometry":{"type":"Point","coordinates":[140.155,35.586]},"properties":{"Name":"松ヶ丘小学校","Jusho":"千葉県千葉市中央区松ヶ丘町580","kouzui":"○","gake":"○","takashio":"○","jishin":"○","tsunami":"○","kaji":"×","naisui":"○","kazan":"×"}}
,{"type":"Feature","geometry":{"type":"Point","coordinates":[140.137,35.584]},"properties":{"Name":"宮崎小学校","Jusho":"千葉県千葉市中央区宮崎2-3-13","kouzui":"○","gake":"○","takashio":"○","jishin":"○","tsunami":"○","kaji":"×","naisui":"○","kazan":"×"}}
,{"type":"Feature","geometry":{"type":"Point","coordinates":[140.168,35.585]},"properties":{"Name":"川戸小学校","Jusho":"千葉県千葉市中央区川戸町450","kouzui":"○","gake":"○","takashio":"○","jishin":"○","tsunami":"○","kaji":"×","naisui":"○","kazan":"×"}}
,{"type":"Feature","geometry":{"type":"Point","coordinates":[140.147,35.597]},"properties":{"Name":"星久喜小学校","Jusho":"千葉県千葉市中央区星久喜町1060","kouzui":"○","gake":"○","takashio":"○","jishin":"○","tsunami":"○","kaji":"×","naisui":"○","kazan":"×"}}
,{"type":"Feature","geometry":{"type":"Point","coordinates":[140.113,35.616]},"properties":{"Name":"弁天小学校","Jusho":"千葉県千葉市中央区弁天1-21-2","kouzui":"○","gake":"○","takashio":"○","jishin":"○","tsunami":"○","kaji":"×","naisui":"○","kazan":"×"}}
,{"type":"Feature","geometry":{"type":"Point","coordinates":[140.131,35.559]},"properties":{"Name":"生浜西小学校","Jusho":"千葉県千葉市中央区塩田町316-1","kouzui":"○","gake":"○","takashio":"○","jishin":"○","tsunami":"○","kaji":"×","naisui":"○","kazan":"×"}}
,{"type":"Feature","geometry":{"type":"Point","coordinates":[140.159,35.593]},"properties":{"Name":"仁戸名小学校","Jusho":"千葉県千葉市中央区仁戸名町380","kouzui":"○","gake":"○","takashio":"○","jishin":"○","tsunami":"○","kaji":"×","naisui":"○","kazan":"×"}}
,{"type":"Feature","geometry":{"type":"Point","coordinates":[140.149,35.573]},"properties":{"Name":"大巌寺小学校","Jusho":"千葉県千葉市中央区大巌寺町375","kouzui":"○","gake":"○","takashio":"○","jishin":"○","tsunami":"○","kaji":"×","naisui":"○","kazan":"×"}}
,{"type":"Feature","geometry":{"type":"Point","coordinates":[140.148,35.56]},"properties":{"Name":"生浜東小学校","Jusho":"千葉県千葉市中央区生実町1928","kouzui":"○","gake":"○","takashio":"○","jishin":"○","tsunami":"○","kaji":"×","naisui":"○","kazan":"×"}}
,{"type":"Feature","geometry":{"type":"Point","coordinates":[140.127,35.597]},"properties":{"Name":"末広中学校","Jusho":"千葉県千葉市中央区末広2-10-1","kouzui":"○","gake":"○","takashio":"○","jishin":"○","tsunami":"○","kaji":"×","naisui":"○","kazan":"×"}}
,{"type":"Feature","geometry":{"type":"Point","coordinates":[140.131,35.601]},"properties":{"Name":"葛城中学校","Jusho":"千葉県千葉市中央区葛城2-9-1","kouzui":"○","gake":"○","takashio":"○","jishin":"○","tsunami":"○","kaji":"×","naisui":"○","kazan":"×"}}
,{"type":"Feature","geometry":{"type":"Point","coordinates":[140.121,35.622]},"properties":{"Name":"椿森中学校","Jusho":"千葉県千葉市中央区椿森4-1-1","kouzui":"○","gake":"○","takashio":"○","jishin":"○","tsunami":"○","kaji":"×","naisui":"○","kazan":"×"}}
,{"type":"Feature","geometry":{"type":"Point","coordinates":[140.109,35.604]},"properties":{"Name":"新宿中学校","Jusho":"千葉県千葉市中央区問屋町1-73","kouzui":"○","gake":"○","takashio":"○","jishin":"○","tsunami":"○","kaji":"×","naisui":"○","kazan":"×"}}
,{"type":"Feature","geometry":{"type":"Point","coordinates":[140.138,35.577]},"properties":{"Name":"蘇我中学校","Jusho":"千葉県千葉市中央区白旗1-5-3","kouzui":"○","gake":"○","takashio":"○","jishin":"○","tsunami":"○","kaji":"×","naisui":"○","kazan":"×"}}
,{"type":"Feature","geometry":{"type":"Point","coordinates":[140.144,35.557]},"properties":{"Name":"生浜中学校","Jusho":"千葉県千葉市中央区南生実町258","kouzui":"○","gake":"○","takashio":"○","jishin":"○","tsunami":"○","kaji":"×","naisui":"○","kazan":"×"}}
,{"type":"Feature","geometry":{"type":"Point","coordinates":[140.152,35.588]},"properties":{"Name":"松ヶ丘中学校","Jusho":"千葉県千葉市中央区松ヶ丘町440","kouzui":"○","gake":"○","takashio":"○","jishin":"○","tsunami":"○","kaji":"×","naisui":"○","kazan":"×"}}
,{"type":"Feature","geometry":{"type":"Point","coordinates":[140.168,35.584]},"properties":{"Name":"川戸中学校","Jusho":"千葉県千葉市中央区川戸町443","kouzui":"○","gake":"○","takashio":"○","jishin":"○","tsunami":"○","kaji":"×","naisui":"○","kazan":"×"}}
,{"type":"Feature","geometry":{"type":"Point","coordinates":[140.152,35.601]},"properties":{"Name":"星久喜中学校","Jusho":"千葉県千葉市中央区星久喜町823","kouzui":"○","gake":"○","takashio":"○","jishin":"○","tsunami":"○","kaji":"×","naisui":"○","kazan":"×"}}
,{"type":"Feature","geometry":{"type":"Point","coordinates":[140.13,35.561]},"properties":{"Name":"県立生浜高等学校","Jusho":"千葉県千葉市中央区塩田町372","kouzui":"○","gake":"○","takashio":"○","jishin":"○","tsunami":"○","kaji":"×","naisui":"○","kazan":"×"}}
,{"type":"Feature","geometry":{"type":"Point","coordinates":[140.128,35.6]},"properties":{"Name":"県立千葉高等学校","Jusho":"千葉県千葉市中央区葛城1-5-2","kouzui":"○","gake":"○","takashio":"○","jishin":"○","tsunami":"○","kaji":"×","naisui":"○","kazan":"×"}}
,{"type":"Feature","geometry":{"type":"Point","coordinates":[140.108,35.621]},"properties":{"Name":"県立千葉商業高等学校","Jusho":"千葉県千葉市中央区松波2-22-48","kouzui":"○","gake":"○","takashio":"○","jishin":"○","tsunami":"○","kaji":"×","naisui":"○","kazan":"×"}}
,{"type":"Feature","geometry":{"type":"Point","coordinates":[140.141,35.572]},"properties":{"Name":"県立千葉工業高等学校","Jusho":"千葉県千葉市中央区今井町1478","kouzui":"○","gake":"○","takashio":"○","jishin":"○","tsunami":"○","kaji":"×","naisui":"○","kazan":"×"}}
,{"type":"Feature","geometry":{"type":"Point","coordinates":[140.164,35.577]},"properties":{"Name":"県立千葉南高等学校","Jusho":"千葉県千葉市中央区花輪町45-3","kouzui":"○","gake":"○","takashio":"○","jishin":"○","tsunami":"○","kaji":"×","naisui":"○","kazan":"×"}}
,{"type":"Feature","geometry":{"type":"Point","coordinates":[140.155,35.561]},"properties":{"Name":"千葉明徳学園","Jusho":"千葉県千葉市中央区南生実町1412","kouzui":"○","gake":"○","takashio":"○","jishin":"○","tsunami":"○","kaji":"○","naisui":"○","kazan":"×"}}
,{"type":"Feature","geometry":{"type":"Point","coordinates":[140.152,35.588]},"properties":{"Name":"松ヶ丘公民館","Jusho":"千葉県千葉市中央区松ヶ丘町257-2","kouzui":"○","gake":"○","takashio":"○","jishin":"○","tsunami":"○","kaji":"×","naisui":"○","kazan":"×"}}
,{"type":"Feature","geometry":{"type":"Point","coordinates":[140.142,35.56]},"properties":{"Name":"生浜公民館","Jusho":"千葉県千葉市中央区生実町67-1","kouzui":"○","gake":"○","takashio":"○","jishin":"○","tsunami":"○","kaji":"×","naisui":"○","kazan":"×"}}
,{"type":"Feature","geometry":{"type":"Point","coordinates":[140.114,35.607]},"properties":{"Name":"新宿公民館","Jusho":"千葉県千葉市中央区新宿2-16-14","kouzui":"○","gake":"○","takashio":"○","jishin":"○","tsunami":"○","kaji":"×","naisui":"○","kazan":"×"}}
,{"type":"Feature","geometry":{"type":"Point","coordinates":[140.137,35.581]},"properties":{"Name":"宮崎公民館","Jusho":"千葉県千葉市中央区宮崎2-5-22","kouzui":"○","gake":"○","takashio":"○","jishin":"○","tsunami":"○","kaji":"×","naisui":"○","kazan":"×"}}
,{"type":"Feature","geometry":{"type":"Point","coordinates":[140.131,35.6]},"properties":{"Name":"葛城公民館","Jusho":"千葉県千葉市中央区葛城2-9-2","kouzui":"○","gake":"○","takashio":"○","jishin":"○","tsunami":"○","kaji":"×","naisui":"○","kazan":"×"}}
,{"type":"Feature","geometry":{"type":"Point","coordinates":[140.125,35.594]},"properties":{"Name":"末広公民館","Jusho":"千葉県千葉市中央区末広3-2-2","kouzui":"○","gake":"○","takashio":"×","jishin":"○","tsunami":"○","kaji":"×","naisui":"○","kazan":"×"}}
,{"type":"Feature","geometry":{"type":"Point","coordinates":[140.124,35.62]},"properties":{"Name":"椿森公民館","Jusho":"千葉県千葉市中央区椿森6-1-11","kouzui":"○","gake":"○","takashio":"○","jishin":"○","tsunami":"○","kaji":"×","naisui":"○","kazan":"×"}}
,{"type":"Feature","geometry":{"type":"Point","coordinates":[140.167,35.582]},"properties":{"Name":"川戸公民館","Jusho":"千葉県千葉市中央区川戸町403-1","kouzui":"○","gake":"○","takashio":"○","jishin":"○","tsunami":"○","kaji":"×","naisui":"○","kazan":"×"}}
,{"type":"Feature","geometry":{"type":"Point","coordinates":[140.151,35.598]},"properties":{"Name":"星久喜公民館","Jusho":"千葉県千葉市中央区星久喜町615-7","kouzui":"○","gake":"○","takashio":"○","jishin":"○","tsunami":"○","kaji":"×","naisui":"○","kazan":"×"}}
,{"type":"Feature","geometry":{"type":"Point","coordinates":[140.129,35.584]},"properties":{"Name":"蘇我コミュニティセンター","Jusho":"千葉県千葉市中央区今井1-14-43 ","kouzui":"○","gake":"○","takashio":"○","jishin":"○","tsunami":"○","kaji":"×","naisui":"○","kazan":"×"}}
,{"type":"Feature","geometry":{"type":"Point","coordinates":[140.139,35.579]},"properties":{"Name":"南部青少年センター","Jusho":"千葉県千葉市中央区白旗1-3-16","kouzui":"○","gake":"○","takashio":"○","jishin":"○","tsunami":"○","kaji":"×","naisui":"○","kazan":"×"}}
,{"type":"Feature","geometry":{"type":"Point","coordinates":[140.112,35.603]},"properties":{"Name":"千葉ポートアリーナ","Jusho":"千葉県千葉市中央区問屋町1-20","kouzui":"○","gake":"○","takashio":"×","jishin":"○","tsunami":"○","kaji":"×","naisui":"○","kazan":"×"}}
,{"type":"Feature","geometry":{"type":"Point","coordinates":[140.135,35.595]},"properties":{"Name":"ハーモニープラザ","Jusho":"千葉県千葉市中央区千葉寺町1208-2","kouzui":"○","gake":"○","takashio":"○","jishin":"○","tsunami":"○","kaji":"×","naisui":"○","kazan":"×"}}
,{"type":"Feature","geometry":{"type":"Point","coordinates":[140.12,35.615]},"properties":{"Name":"市民会館","Jusho":"千葉県千葉市中央区要町1-1","kouzui":"○","gake":"○","takashio":"○","jishin":"○","tsunami":"○","kaji":"×","naisui":"○","kazan":"×"}}
,{"type":"Feature","geometry":{"type":"Point","coordinates":[140.123,35.607]},"properties":{"Name":"子ども交流館","Jusho":"千葉県千葉市中央区中央4-5-1","kouzui":"○","gake":"○","takashio":"○","jishin":"○","tsunami":"○","kaji":"×","naisui":"○","kazan":"×"}}
,{"type":"Feature","geometry":{"type":"Point","coordinates":[140.123,35.607]},"properties":{"Name":"科学館","Jusho":"千葉県千葉市中央区中央4-5-1","kouzui":"○","gake":"○","takashio":"○","jishin":"○","tsunami":"○","kaji":"×","naisui":"○","kazan":"×"}}
,{"type":"Feature","geometry":{"type":"Point","coordinates":[140.123,35.607]},"properties":{"Name":"子育て支援館","Jusho":"千葉県千葉市中央区中央4-5-1","kouzui":"○","gake":"○","takashio":"○","jishin":"○","tsunami":"○","kaji":"×","naisui":"○","kazan":"×"}}
,{"type":"Feature","geometry":{"type":"Point","coordinates":[140.139,35.598]},"properties":{"Name":"青葉の森公園芸術文化ホール","Jusho":"千葉県千葉市中央区青葉町977-1","kouzui":"○","gake":"○","takashio":"○","jishin":"○","tsunami":"○","kaji":"×","naisui":"○","kazan":"×"}}
,{"type":"Feature","geometry":{"type":"Point","coordinates":[140.152,35.602]},"properties":{"Name":"都市緑化植物園","Jusho":"千葉県千葉市中央区星久喜町278","kouzui":"○","gake":"○","takashio":"○","jishin":"○","tsunami":"○","kaji":"×","naisui":"○","kazan":"×"}}
,{"type":"Feature","geometry":{"type":"Point","coordinates":[140.123,35.604]},"properties":{"Name":"羽衣公園","Jusho":"千葉県千葉市中央区市場町1-1","kouzui":"○","gake":"○","takashio":"×","jishin":"○","tsunami":"○","kaji":"×","naisui":"○","kazan":"×"}}
,{"type":"Feature","geometry":{"type":"Point","coordinates":[140.135,35.583]},"properties":{"Name":"菰池公園","Jusho":"千葉県千葉市中央区宮崎2-4","kouzui":"○","gake":"○","takashio":"○","jishin":"○","tsunami":"○","kaji":"×","naisui":"○","kazan":"×"}}
,{"type":"Feature","geometry":{"type":"Point","coordinates":[140.135,35.571]},"properties":{"Name":"そが野ふれあい公園","Jusho":"千葉県千葉市中央区蘇我2","kouzui":"○","gake":"○","takashio":"○","jishin":"○","tsunami":"○","kaji":"×","naisui":"○","kazan":"×"}}
,{"type":"Feature","geometry":{"type":"Point","coordinates":[140.139,35.611]},"properties":{"Name":"都公園","Jusho":"千葉県千葉市中央区都町2-14","kouzui":"○","gake":"○","takashio":"×","jishin":"○","tsunami":"○","kaji":"×","naisui":"○","kazan":"×"}}
,{"type":"Feature","geometry":{"type":"Point","coordinates":[140.114,35.6]},"properties":{"Name":"千葉職業能力開発短期大学校","Jusho":"千葉県千葉市中央区問屋町2-25","kouzui":"×","gake":"×","takashio":"×","jishin":"×","tsunami":"○","kaji":"×","naisui":"×","kazan":"×"}}
,{"type":"Feature","geometry":{"type":"Point","coordinates":[140.111,35.603]},"properties":{"Name":"千葉ポートスクエア","Jusho":"千葉県千葉市中央区問屋町1-35","kouzui":"×","gake":"×","takashio":"×","jishin":"×","tsunami":"○","kaji":"×","naisui":"×","kazan":"×"}}
,{"type":"Feature","geometry":{"type":"Point","coordinates":[140.122,35.577]},"properties":{"Name":"フクダ電子アリーナ","Jusho":"千葉県千葉市中央区川崎町1-20","kouzui":"×","gake":"×","takashio":"×","jishin":"×","tsunami":"○","kaji":"×","naisui":"×","kazan":"×"}}
,{"type":"Feature","geometry":{"type":"Point","coordinates":[140.116,35.621]},"properties":{"Name":"千葉公園（※建物を含まない）","Jusho":"千葉県千葉市中央区弁天3-1他","kouzui":"○","gake":"○","takashio":"○","jishin":"○","tsunami":"○","kaji":"○","naisui":"○","kazan":"×"}}
,{"type":"Feature","geometry":{"type":"Point","coordinates":[140.105,35.607]},"properties":{"Name":"みなと公園","Jusho":"千葉県千葉市中央区千葉港6","kouzui":"○","gake":"○","takashio":"×","jishin":"○","tsunami":"○","kaji":"○","naisui":"○","kazan":"×"}}
,{"type":"Feature","geometry":{"type":"Point","coordinates":[140.14,35.597]},"properties":{"Name":"青葉の森公園","Jusho":"千葉県千葉市中央区青葉町654","kouzui":"○","gake":"○","takashio":"○","jishin":"○","tsunami":"○","kaji":"○","naisui":"○","kazan":"×"}}
,{"type":"Feature","geometry":{"type":"Point","coordinates":[140.132,35.585]},"properties":{"Name":"ＪＦＥ千葉体育館一帯（※建物を含まない）","Jusho":"千葉県千葉市中央区南町1-3-1","kouzui":"○","gake":"○","takashio":"×","jishin":"○","tsunami":"○","kaji":"○","naisui":"○","kazan":"×"}}
,{"type":"Feature","geometry":{"type":"Point","coordinates":[140.163,35.579]},"properties":{"Name":"ニューサンピア千葉一帯（※建物を含まない）","Jusho":"千葉県千葉市中央区仁戸名町705他","kouzui":"○","gake":"○","takashio":"○","jishin":"○","tsunami":"○","kaji":"○","naisui":"○","kazan":"×"}}
,{"type":"Feature","geometry":{"type":"Point","coordinates":[140.141,35.572]},"properties":{"Name":"県立千葉工業高等学校一帯","Jusho":"千葉県千葉市中央区今井町1478他","kouzui":"○","gake":"○","takashio":"○","jishin":"○","tsunami":"○","kaji":"○","naisui":"○","kazan":"×"}}
,{"type":"Feature","geometry":{"type":"Point","coordinates":[140.069,35.649]},"properties":{"Name":"検見川小学校","Jusho":"千葉県千葉市花見川区検見川町3-322-23","kouzui":"○","gake":"○","takashio":"○","jishin":"○","tsunami":"○","kaji":"×","naisui":"○","kazan":"×"}}
,{"type":"Feature","geometry":{"type":"Point","coordinates":[140.079,35.665]},"properties":{"Name":"畑小学校","Jusho":"千葉県千葉市花見川区畑町1385-1","kouzui":"○","gake":"○","takashio":"○","jishin":"○","tsunami":"○","kaji":"×","naisui":"○","kazan":"×"}}
,{"type":"Feature","geometry":{"type":"Point","coordinates":[140.074,35.656]},"properties":{"Name":"花園小学校","Jusho":"千葉県千葉市花見川区花園4-1-2","kouzui":"○","gake":"○","takashio":"○","jishin":"○","tsunami":"○","kaji":"×","naisui":"○","kazan":"×"}}
,{"type":"Feature","geometry":{"type":"Point","coordinates":[140.108,35.673]},"properties":{"Name":"犢橋小学校","Jusho":"千葉県千葉市花見川区犢橋町774","kouzui":"○","gake":"○","takashio":"○","jishin":"○","tsunami":"○","kaji":"×","naisui":"○","kazan":"×"}}
,{"type":"Feature","geometry":{"type":"Point","coordinates":[140.12,35.696]},"properties":{"Name":"横戸小学校","Jusho":"千葉県千葉市花見川区横戸町1005","kouzui":"○","gake":"○","takashio":"○","jishin":"○","tsunami":"○","kaji":"×","naisui":"○","kazan":"×"}}
,{"type":"Feature","geometry":{"type":"Point","coordinates":[140.054,35.662]},"properties":{"Name":"幕張小学校","Jusho":"千葉県千葉市花見川区幕張町4-781","kouzui":"○","gake":"○","takashio":"○","jishin":"○","tsunami":"○","kaji":"×","naisui":"○","kazan":"×"}}
,{"type":"Feature","geometry":{"type":"Point","coordinates":[140.074,35.684]},"properties":{"Name":"長作小学校","Jusho":"千葉県千葉市花見川区長作町1273","kouzui":"○","gake":"○","takashio":"○","jishin":"○","tsunami":"○","kaji":"×","naisui":"○","kazan":"×"}}
,{"type":"Feature","geometry":{"type":"Point","coordinates":[140.058,35.665]},"properties":{"Name":"幕張東小学校","Jusho":"千葉県千葉市花見川区幕張町4-681","kouzui":"○","gake":"○","takashio":"○","jishin":"○","tsunami":"○","kaji":"×","naisui":"○","kazan":"×"}}
,{"type":"Feature","geometry":{"type":"Point","coordinates":[140.123,35.688]},"properties":{"Name":"こてはし台小学校","Jusho":"千葉県千葉市花見川区こてはし台2-28-1","kouzui":"○","gake":"○","takashio":"○","jishin":"○","tsunami":"○","kaji":"×","naisui":"○","kazan":"×"}}
,{"type":"Feature","geometry":{"type":"Point","coordinates":[140.089,35.685]},"properties":{"Name":"花見川第三小学校","Jusho":"千葉県千葉市花見川区花見川1-1","kouzui":"○","gake":"○","takashio":"○","jishin":"○","tsunami":"○","kaji":"×","naisui":"○","kazan":"×"}}
,{"type":"Feature","geometry":{"type":"Point","coordinates":[140.086,35.651]},"properties":{"Name":"西小中台小学校","Jusho":"千葉県千葉市花見川区西小中台3-1","kouzui":"○","gake":"○","takashio":"○","jishin":"○","tsunami":"○","kaji":"×","naisui":"○","kazan":"×"}}
,{"type":"Feature","geometry":{"type":"Point","coordinates":[140.099,35.664]},"properties":{"Name":"さつきが丘東小学校","Jusho":"千葉県千葉市花見川区さつきが丘1-7","kouzui":"○","gake":"○","takashio":"○","jishin":"○","tsunami":"○","kaji":"×","naisui":"○","kazan":"×"}}
,{"type":"Feature","geometry":{"type":"Point","coordinates":[140.091,35.668]},"properties":{"Name":"さつきが丘西小学校","Jusho":"千葉県千葉市花見川区さつきが丘2-14","kouzui":"○","gake":"○","takashio":"○","jishin":"○","tsunami":"○","kaji":"×","naisui":"○","kazan":"×"}}
,{"type":"Feature","geometry":{"type":"Point","coordinates":[140.084,35.688]},"properties":{"Name":"作新小学校","Jusho":"千葉県千葉市花見川区作新台7-2-1","kouzui":"○","gake":"○","takashio":"○","jishin":"○","tsunami":"○","kaji":"×","naisui":"○","kazan":"×"}}
,{"type":"Feature","geometry":{"type":"Point","coordinates":[140.106,35.709]},"properties":{"Name":"柏井小学校","Jusho":"千葉県千葉市花見川区柏井4-48-1","kouzui":"○","gake":"○","takashio":"○","jishin":"○","tsunami":"○","kaji":"×","naisui":"○","kazan":"×"}}
,{"type":"Feature","geometry":{"type":"Point","coordinates":[140.047,35.657]},"properties":{"Name":"幕張南小学校","Jusho":"千葉県千葉市花見川区幕張町3-7718","kouzui":"○","gake":"○","takashio":"○","jishin":"○","tsunami":"○","kaji":"×","naisui":"○","kazan":"×"}}
,{"type":"Feature","geometry":{"type":"Point","coordinates":[140.05,35.668]},"properties":{"Name":"上の台小学校","Jusho":"千葉県千葉市花見川区幕張本郷4-8-1","kouzui":"○","gake":"○","takashio":"○","jishin":"○","tsunami":"○","kaji":"×","naisui":"○","kazan":"×"}}
,{"type":"Feature","geometry":{"type":"Point","coordinates":[140.086,35.659]},"properties":{"Name":"朝日ヶ丘小学校","Jusho":"千葉県千葉市花見川区朝日ヶ丘2-6-1","kouzui":"○","gake":"○","takashio":"○","jishin":"○","tsunami":"○","kaji":"×","naisui":"○","kazan":"×"}}
,{"type":"Feature","geometry":{"type":"Point","coordinates":[140.046,35.666]},"properties":{"Name":"西の谷小学校","Jusho":"千葉県千葉市花見川区幕張本郷3-22-6","kouzui":"○","gake":"○","takashio":"○","jishin":"○","tsunami":"○","kaji":"×","naisui":"○","kazan":"×"}}
,{"type":"Feature","geometry":{"type":"Point","coordinates":[140.069,35.664]},"properties":{"Name":"瑞穂小学校","Jusho":"千葉県千葉市花見川区瑞穂1-2","kouzui":"○","gake":"○","takashio":"○","jishin":"○","tsunami":"○","kaji":"×","naisui":"○","kazan":"×"}}
,{"type":"Feature","geometry":{"type":"Point","coordinates":[140.096,35.684]},"properties":{"Name":"花島小学校","Jusho":"千葉県千葉市花見川区花見川8-1","kouzui":"○","gake":"○","takashio":"○","jishin":"○","tsunami":"○","kaji":"×","naisui":"○","kazan":"×"}}
,{"type":"Feature","geometry":{"type":"Point","coordinates":[140.098,35.694]},"properties":{"Name":"花見川小学校","Jusho":"千葉県千葉市花見川区花見川4-1","kouzui":"○","gake":"○","takashio":"○","jishin":"○","tsunami":"○","kaji":"×","naisui":"○","kazan":"×"}}
,{"type":"Feature","geometry":{"type":"Point","coordinates":[140.101,35.689]},"properties":{"Name":"旧花見川第二小学校（跡施設）","Jusho":"千葉県千葉市花見川区花見川6-1","kouzui":"○","gake":"○","takashio":"○","jishin":"○","tsunami":"○","kaji":"×","naisui":"○","kazan":"×"}}
,{"type":"Feature","geometry":{"type":"Point","coordinates":[140.074,35.655]},"properties":{"Name":"花園中学校","Jusho":"千葉県千葉市花見川区花園4-1-1","kouzui":"○","gake":"○","takashio":"○","jishin":"○","tsunami":"○","kaji":"×","naisui":"○","kazan":"×"}}
,{"type":"Feature","geometry":{"type":"Point","coordinates":[140.117,35.678]},"properties":{"Name":"犢橋中学校","Jusho":"千葉県千葉市花見川区三角町656-2","kouzui":"○","gake":"○","takashio":"○","jishin":"○","tsunami":"○","kaji":"×","naisui":"○","kazan":"×"}}
,{"type":"Feature","geometry":{"type":"Point","coordinates":[140.059,35.663]},"properties":{"Name":"幕張中学校","Jusho":"千葉県千葉市花見川区幕張町4-45","kouzui":"○","gake":"○","takashio":"○","jishin":"○","tsunami":"○","kaji":"×","naisui":"○","kazan":"×"}}
,{"type":"Feature","geometry":{"type":"Point","coordinates":[140.119,35.692]},"properties":{"Name":"こてはし台中学校","Jusho":"千葉県千葉市花見川区こてはし台5-15-1","kouzui":"○","gake":"○","takashio":"○","jishin":"○","tsunami":"○","kaji":"×","naisui":"○","kazan":"×"}}
,{"type":"Feature","geometry":{"type":"Point","coordinates":[140.091,35.668]},"properties":{"Name":"さつきが丘中学校","Jusho":"千葉県千葉市花見川区さつきが丘2-15","kouzui":"○","gake":"○","takashio":"○","jishin":"○","tsunami":"○","kaji":"×","naisui":"○","kazan":"×"}}
,{"type":"Feature","geometry":{"type":"Point","coordinates":[140.111,35.664]},"properties":{"Name":"緑が丘中学校","Jusho":"千葉県千葉市花見川区犢橋町213-4","kouzui":"○","gake":"○","takashio":"○","jishin":"○","tsunami":"○","kaji":"×","naisui":"○","kazan":"×"}}
,{"type":"Feature","geometry":{"type":"Point","coordinates":[140.087,35.681]},"properties":{"Name":"天戸中学校","Jusho":"千葉県千葉市花見川区天戸町1429","kouzui":"○","gake":"○","takashio":"○","jishin":"○","tsunami":"○","kaji":"×","naisui":"○","kazan":"×"}}
,{"type":"Feature","geometry":{"type":"Point","coordinates":[140.088,35.656]},"properties":{"Name":"朝日ヶ丘中学校","Jusho":"千葉県千葉市花見川区朝日ヶ丘2-4-1","kouzui":"○","gake":"○","takashio":"○","jishin":"○","tsunami":"○","kaji":"×","naisui":"○","kazan":"×"}}
,{"type":"Feature","geometry":{"type":"Point","coordinates":[140.048,35.672]},"properties":{"Name":"幕張本郷中学校","Jusho":"千葉県千葉市花見川区幕張本郷5-18-1","kouzui":"○","gake":"○","takashio":"○","jishin":"○","tsunami":"○","kaji":"×","naisui":"○","kazan":"×"}}
,{"type":"Feature","geometry":{"type":"Point","coordinates":[140.103,35.689]},"properties":{"Name":"花見川中学校","Jusho":"千葉県千葉市花見川区花見川6-2","kouzui":"○","gake":"○","takashio":"○","jishin":"○","tsunami":"○","kaji":"×","naisui":"○","kazan":"×"}}
,{"type":"Feature","geometry":{"type":"Point","coordinates":[140.088,35.683]},"properties":{"Name":"旧花見川第二中学校（跡施設）","Jusho":"千葉県千葉市花見川区天戸町1428-1","kouzui":"○","gake":"○","takashio":"○","jishin":"○","tsunami":"○","kaji":"×","naisui":"○","kazan":"×"}}
,{"type":"Feature","geometry":{"type":"Point","coordinates":[140.107,35.698]},"properties":{"Name":"県立柏井高等学校","Jusho":"千葉県千葉市花見川区柏井町1452","kouzui":"○","gake":"○","takashio":"○","jishin":"○","tsunami":"○","kaji":"×","naisui":"○","kazan":"×"}}
,{"type":"Feature","geometry":{"type":"Point","coordinates":[140.121,35.678]},"properties":{"Name":"県立犢橋高等学校","Jusho":"千葉県千葉市花見川区千種町381-1","kouzui":"○","gake":"○","takashio":"○","jishin":"○","tsunami":"○","kaji":"×","naisui":"○","kazan":"×"}}
,{"type":"Feature","geometry":{"type":"Point","coordinates":[140.055,35.66]},"properties":{"Name":"幕張公民館","Jusho":"千葉県千葉市花見川区幕張町4-602","kouzui":"○","gake":"○","takashio":"○","jishin":"○","tsunami":"○","kaji":"×","naisui":"○","kazan":"×"}}
,{"type":"Feature","geometry":{"type":"Point","coordinates":[140.07,35.658]},"properties":{"Name":"花園公民館","Jusho":"千葉県千葉市花見川区花園3-12-8","kouzui":"○","gake":"○","takashio":"○","jishin":"○","tsunami":"○","kaji":"×","naisui":"○","kazan":"×"}}
,{"type":"Feature","geometry":{"type":"Point","coordinates":[140.114,35.667]},"properties":{"Name":"犢橋公民館","Jusho":"千葉県千葉市花見川区犢橋町162-1","kouzui":"○","gake":"○","takashio":"○","jishin":"○","tsunami":"○","kaji":"×","naisui":"○","kazan":"×"}}
,{"type":"Feature","geometry":{"type":"Point","coordinates":[140.067,35.649]},"properties":{"Name":"検見川公民館","Jusho":"千葉県千葉市花見川区検見川町3-322-25","kouzui":"○","gake":"○","takashio":"○","jishin":"○","tsunami":"○","kaji":"×","naisui":"○","kazan":"×"}}
,{"type":"Feature","geometry":{"type":"Point","coordinates":[140.1,35.696]},"properties":{"Name":"花見川公民館","Jusho":"千葉県千葉市花見川区柏井町1590-8","kouzui":"○","gake":"○","takashio":"○","jishin":"○","tsunami":"○","kaji":"×","naisui":"○","kazan":"×"}}
,{"type":"Feature","geometry":{"type":"Point","coordinates":[140.097,35.665]},"properties":{"Name":"さつきが丘公民館","Jusho":"千葉県千葉市花見川区さつきが丘1-32-4","kouzui":"○","gake":"○","takashio":"○","jishin":"○","tsunami":"○","kaji":"×","naisui":"○","kazan":"×"}}
,{"type":"Feature","geometry":{"type":"Point","coordinates":[140.121,35.693]},"properties":{"Name":"こてはし台公民館","Jusho":"千葉県千葉市花見川区横戸町861-4","kouzui":"○","gake":"○","takashio":"○","jishin":"○","tsunami":"○","kaji":"×","naisui":"○","kazan":"×"}}
,{"type":"Feature","geometry":{"type":"Point","coordinates":[140.079,35.68]},"properties":{"Name":"長作公民館","Jusho":"千葉県千葉市花見川区長作町1722-1","kouzui":"○","gake":"○","takashio":"○","jishin":"○","tsunami":"○","kaji":"×","naisui":"○","kazan":"×"}}
,{"type":"Feature","geometry":{"type":"Point","coordinates":[140.089,35.656]},"properties":{"Name":"朝日ヶ丘公民館","Jusho":"千葉県千葉市花見川区朝日ヶ丘1-1-30","kouzui":"○","gake":"○","takashio":"○","jishin":"○","tsunami":"○","kaji":"×","naisui":"○","kazan":"×"}}
,{"type":"Feature","geometry":{"type":"Point","coordinates":[140.039,35.668]},"properties":{"Name":"幕張本郷公民館","Jusho":"千葉県千葉市花見川区幕張本郷2-19-33","kouzui":"○","gake":"○","takashio":"○","jishin":"○","tsunami":"○","kaji":"×","naisui":"○","kazan":"×"}}
,{"type":"Feature","geometry":{"type":"Point","coordinates":[140.079,35.667]},"properties":{"Name":"畑コミュニティセンター","Jusho":"千葉県千葉市花見川区畑町1336-2","kouzui":"○","gake":"○","takashio":"○","jishin":"○","tsunami":"○","kaji":"×","naisui":"○","kazan":"×"}}
,{"type":"Feature","geometry":{"type":"Point","coordinates":[140.048,35.657]},"properties":{"Name":"幕張コミュニティセンター","Jusho":"千葉県千葉市花見川区幕張町3-7730-4","kouzui":"○","gake":"○","takashio":"○","jishin":"○","tsunami":"○","kaji":"×","naisui":"○","kazan":"×"}}
,{"type":"Feature","geometry":{"type":"Point","coordinates":[140.097,35.681]},"properties":{"Name":"花島コミュニティセンター","Jusho":"千葉県千葉市花見川区花島町308","kouzui":"○","gake":"○","takashio":"○","jishin":"○","tsunami":"○","kaji":"×","naisui":"○","kazan":"×"}}
,{"type":"Feature","geometry":{"type":"Point","coordinates":[140.042,35.669]},"properties":{"Name":"一本松公園","Jusho":"千葉県千葉市花見川区幕張本郷2-33","kouzui":"○","gake":"○","takashio":"○","jishin":"○","tsunami":"○","kaji":"×","naisui":"○","kazan":"×"}}
,{"type":"Feature","geometry":{"type":"Point","coordinates":[140.138,35.692]},"properties":{"Name":"宇那谷み春野公園","Jusho":"千葉県千葉市花見川区宇那谷町2115","kouzui":"○","gake":"○","takashio":"○","jishin":"○","tsunami":"○","kaji":"×","naisui":"○","kazan":"×"}}
,{"type":"Feature","geometry":{"type":"Point","coordinates":[140.09,35.67]},"properties":{"Name":"神場公園","Jusho":"千葉県千葉市花見川区さつきが丘2","kouzui":"○","gake":"○","takashio":"○","jishin":"○","tsunami":"○","kaji":"×","naisui":"○","kazan":"×"}}
,{"type":"Feature","geometry":{"type":"Point","coordinates":[140.096,35.664]},"properties":{"Name":"犢橋貝塚公園","Jusho":"千葉県千葉市花見川区さつきが丘1-18","kouzui":"○","gake":"○","takashio":"○","jishin":"○","tsunami":"○","kaji":"×","naisui":"○","kazan":"×"}}
,{"type":"Feature","geometry":{"type":"Point","coordinates":[140.12,35.688]},"properties":{"Name":"こてはし台公園","Jusho":"千葉県千葉市花見川区こてはし台4-21","kouzui":"○","gake":"○","takashio":"○","jishin":"○","tsunami":"○","kaji":"×","naisui":"○","kazan":"×"}}
,{"type":"Feature","geometry":{"type":"Point","coordinates":[140.097,35.683]},"properties":{"Name":"花島公園","Jusho":"千葉県千葉市花見川区花島町493-1","kouzui":"○","gake":"○","takashio":"○","jishin":"○","tsunami":"○","kaji":"×","naisui":"○","kazan":"×"}}
,{"type":"Feature","geometry":{"type":"Point","coordinates":[140.049,35.675]},"properties":{"Name":"幕張台公園","Jusho":"千葉県千葉市花見川区幕張本郷7-23","kouzui":"○","gake":"○","takashio":"○","jishin":"○","tsunami":"○","kaji":"×","naisui":"○","kazan":"×"}}
,{"type":"Feature","geometry":{"type":"Point","coordinates":[140.049,35.658]},"properties":{"Name":"幕張舟溜跡公園","Jusho":"千葉県千葉市花見川区幕張町3","kouzui":"○","gake":"○","takashio":"×","jishin":"○","tsunami":"○","kaji":"×","naisui":"○","kazan":"×"}}
,{"type":"Feature","geometry":{"type":"Point","coordinates":[140.075,35.66]},"properties":{"Name":"東大検見川総合運動場","Jusho":"千葉県千葉市花見川区朝日ヶ丘町他","kouzui":"○","gake":"○","takashio":"○","jishin":"○","tsunami":"○","kaji":"○","naisui":"○","kazan":"×"}}
,{"type":"Feature","geometry":{"type":"Point","coordinates":[140.11,35.705]},"properties":{"Name":"鷹之台カンツリー倶楽部（※建物を含まない）","Jusho":"千葉県千葉市花見川区柏井町他","kouzui":"○","gake":"○","takashio":"○","jishin":"○","tsunami":"○","kaji":"○","naisui":"○","kazan":"×"}}
,{"type":"Feature","geometry":{"type":"Point","coordinates":[140.115,35.679]},"properties":{"Name":"千葉工業大学グラウンド一帯","Jusho":"千葉県千葉市花見川区千種町300他","kouzui":"○","gake":"○","takashio":"○","jishin":"○","tsunami":"○","kaji":"○","naisui":"○","kazan":"×"}}
,{"type":"Feature","geometry":{"type":"Point","coordinates":[140.103,35.689]},"properties":{"Name":"花見川中学校一帯","Jusho":"千葉県千葉市花見川区花見川6-1他","kouzui":"○","gake":"○","takashio":"○","jishin":"○","tsunami":"○","kaji":"○","naisui":"○","kazan":"×"}}
,{"type":"Feature","geometry":{"type":"Point","coordinates":[140.12,35.629]},"properties":{"Name":"都賀小学校","Jusho":"千葉県千葉市稲毛区作草部町938","kouzui":"○","gake":"○","takashio":"○","jishin":"○","tsunami":"○","kaji":"×","naisui":"○","kazan":"×"}}
,{"type":"Feature","geometry":{"type":"Point","coordinates":[140.083,35.641]},"properties":{"Name":"稲毛小学校","Jusho":"千葉県千葉市稲毛区稲毛町5-534-5","kouzui":"×","gake":"○","takashio":"○","jishin":"○","tsunami":"○","kaji":"×","naisui":"×","kazan":"×"}}
,{"type":"Feature","geometry":{"type":"Point","coordinates":[140.098,35.647]},"properties":{"Name":"園生小学校","Jusho":"千葉県千葉市稲毛区小仲台9-30-1","kouzui":"○","gake":"○","takashio":"○","jishin":"○","tsunami":"○","kaji":"×","naisui":"○","kazan":"×"}}
,{"type":"Feature","geometry":{"type":"Point","coordinates":[140.088,35.633]},"properties":{"Name":"稲丘小学校","Jusho":"千葉県千葉市稲毛区稲丘町19-30","kouzui":"○","gake":"○","takashio":"○","jishin":"○","tsunami":"○","kaji":"×","naisui":"○","kazan":"×"}}
,{"type":"Feature","geometry":{"type":"Point","coordinates":[140.101,35.626]},"properties":{"Name":"弥生小学校","Jusho":"千葉県千葉市稲毛区弥生町3-18","kouzui":"○","gake":"○","takashio":"○","jishin":"○","tsunami":"○","kaji":"×","naisui":"○","kazan":"×"}}
,{"type":"Feature","geometry":{"type":"Point","coordinates":[140.108,35.63]},"properties":{"Name":"轟町小学校","Jusho":"千葉県千葉市稲毛区轟町3-4-30","kouzui":"○","gake":"○","takashio":"○","jishin":"○","tsunami":"○","kaji":"×","naisui":"○","kazan":"×"}}
,{"type":"Feature","geometry":{"type":"Point","coordinates":[140.098,35.623]},"properties":{"Name":"緑町小学校","Jusho":"千葉県千葉市稲毛区緑町2-13-1","kouzui":"○","gake":"○","takashio":"○","jishin":"○","tsunami":"○","kaji":"×","naisui":"○","kazan":"×"}}
,{"type":"Feature","geometry":{"type":"Point","coordinates":[140.143,35.665]},"properties":{"Name":"山王小学校","Jusho":"千葉県千葉市稲毛区山王町121","kouzui":"○","gake":"○","takashio":"○","jishin":"○","tsunami":"○","kaji":"×","naisui":"○","kazan":"×"}}
,{"type":"Feature","geometry":{"type":"Point","coordinates":[140.096,35.64]},"properties":{"Name":"小中台小学校","Jusho":"千葉県千葉市稲毛区小仲台6-34-1","kouzui":"○","gake":"○","takashio":"○","jishin":"○","tsunami":"○","kaji":"×","naisui":"○","kazan":"×"}}
,{"type":"Feature","geometry":{"type":"Point","coordinates":[140.116,35.638]},"properties":{"Name":"千草台小学校","Jusho":"千葉県千葉市稲毛区天台5-11-1","kouzui":"○","gake":"○","takashio":"○","jishin":"○","tsunami":"○","kaji":"×","naisui":"○","kazan":"×"}}
,{"type":"Feature","geometry":{"type":"Point","coordinates":[140.116,35.647]},"properties":{"Name":"あやめ台小学校","Jusho":"千葉県千葉市稲毛区園生町446-1","kouzui":"○","gake":"○","takashio":"○","jishin":"○","tsunami":"○","kaji":"×","naisui":"○","kazan":"×"}}
,{"type":"Feature","geometry":{"type":"Point","coordinates":[140.11,35.659]},"properties":{"Name":"宮野木小学校","Jusho":"千葉県千葉市稲毛区宮野木町2100","kouzui":"○","gake":"○","takashio":"○","jishin":"○","tsunami":"○","kaji":"×","naisui":"○","kazan":"×"}}
,{"type":"Feature","geometry":{"type":"Point","coordinates":[140.126,35.653]},"properties":{"Name":"草野小学校","Jusho":"千葉県千葉市稲毛区園生町1385","kouzui":"○","gake":"○","takashio":"○","jishin":"○","tsunami":"○","kaji":"×","naisui":"○","kazan":"×"}}
,{"type":"Feature","geometry":{"type":"Point","coordinates":[140.107,35.649]},"properties":{"Name":"柏台小学校","Jusho":"千葉県千葉市稲毛区園生町588","kouzui":"○","gake":"○","takashio":"○","jishin":"○","tsunami":"○","kaji":"×","naisui":"○","kazan":"×"}}
,{"type":"Feature","geometry":{"type":"Point","coordinates":[140.089,35.647]},"properties":{"Name":"小中台南小学校","Jusho":"千葉県千葉市稲毛区小仲台8-15-1","kouzui":"○","gake":"○","takashio":"○","jishin":"○","tsunami":"○","kaji":"×","naisui":"○","kazan":"×"}}
,{"type":"Feature","geometry":{"type":"Point","coordinates":[140.123,35.632]},"properties":{"Name":"千草台東小学校","Jusho":"千葉県千葉市稲毛区作草部町1298-1","kouzui":"○","gake":"○","takashio":"○","jishin":"○","tsunami":"○","kaji":"×","naisui":"○","kazan":"×"}}
,{"type":"Feature","geometry":{"type":"Point","coordinates":[140.109,35.632]},"properties":{"Name":"市立第二養護学校","Jusho":"千葉県千葉市稲毛区轟町3-6-25","kouzui":"○","gake":"○","takashio":"○","jishin":"○","tsunami":"○","kaji":"×","naisui":"○","kazan":"×"}}
,{"type":"Feature","geometry":{"type":"Point","coordinates":[140.097,35.622]},"properties":{"Name":"緑町中学校","Jusho":"千葉県千葉市稲毛区緑町2-3-1","kouzui":"○","gake":"○","takashio":"○","jishin":"○","tsunami":"○","kaji":"×","naisui":"○","kazan":"×"}}
,{"type":"Feature","geometry":{"type":"Point","coordinates":[140.099,35.646]},"properties":{"Name":"小中台中学校","Jusho":"千葉県千葉市稲毛区小仲台9-46-2","kouzui":"○","gake":"○","takashio":"○","jishin":"○","tsunami":"○","kaji":"×","naisui":"○","kazan":"×"}}
,{"type":"Feature","geometry":{"type":"Point","coordinates":[140.108,35.631]},"properties":{"Name":"轟町中学校","Jusho":"千葉県千葉市稲毛区轟町3-5-14","kouzui":"○","gake":"○","takashio":"○","jishin":"○","tsunami":"○","kaji":"×","naisui":"○","kazan":"×"}}
,{"type":"Feature","geometry":{"type":"Point","coordinates":[140.082,35.644]},"properties":{"Name":"稲毛中学校","Jusho":"千葉県千葉市稲毛区稲毛町5-120","kouzui":"○","gake":"○","takashio":"○","jishin":"○","tsunami":"○","kaji":"×","naisui":"○","kazan":"×"}}
,{"type":"Feature","geometry":{"type":"Point","coordinates":[140.118,35.637]},"properties":{"Name":"千草台中学校","Jusho":"千葉県千葉市稲毛区千草台2-3-1","kouzui":"○","gake":"○","takashio":"○","jishin":"○","tsunami":"○","kaji":"×","naisui":"○","kazan":"×"}}
,{"type":"Feature","geometry":{"type":"Point","coordinates":[140.127,35.652]},"properties":{"Name":"草野中学校","Jusho":"千葉県千葉市稲毛区園生町1397","kouzui":"○","gake":"○","takashio":"○","jishin":"○","tsunami":"○","kaji":"×","naisui":"○","kazan":"×"}}
,{"type":"Feature","geometry":{"type":"Point","coordinates":[140.123,35.631]},"properties":{"Name":"都賀中学校","Jusho":"千葉県千葉市稲毛区作草部町1306-1","kouzui":"○","gake":"○","takashio":"○","jishin":"○","tsunami":"○","kaji":"×","naisui":"○","kazan":"×"}}
,{"type":"Feature","geometry":{"type":"Point","coordinates":[140.099,35.644]},"properties":{"Name":"市立千葉高等学校","Jusho":"千葉県千葉市稲毛区小仲台9-46-1","kouzui":"○","gake":"○","takashio":"○","jishin":"○","tsunami":"○","kaji":"×","naisui":"○","kazan":"×"}}
,{"type":"Feature","geometry":{"type":"Point","coordinates":[140.1,35.642]},"properties":{"Name":"県立千葉女子高等学校","Jusho":"千葉県千葉市稲毛区小仲台5-10-1","kouzui":"○","gake":"○","takashio":"○","jishin":"○","tsunami":"○","kaji":"×","naisui":"○","kazan":"×"}}
,{"type":"Feature","geometry":{"type":"Point","coordinates":[140.111,35.626]},"properties":{"Name":"県立千葉東高等学校","Jusho":"千葉県千葉市稲毛区轟町1-18-52","kouzui":"○","gake":"○","takashio":"○","jishin":"○","tsunami":"○","kaji":"×","naisui":"○","kazan":"×"}}
,{"type":"Feature","geometry":{"type":"Point","coordinates":[140.105,35.638]},"properties":{"Name":"県立京葉工業高等学校","Jusho":"千葉県千葉市稲毛区穴川4-11-32","kouzui":"○","gake":"○","takashio":"○","jishin":"○","tsunami":"○","kaji":"×","naisui":"○","kazan":"×"}}
,{"type":"Feature","geometry":{"type":"Point","coordinates":[140.114,35.662]},"properties":{"Name":"県立千葉北高等学校","Jusho":"千葉県千葉市稲毛区長沼町153","kouzui":"○","gake":"○","takashio":"○","jishin":"○","tsunami":"○","kaji":"×","naisui":"○","kazan":"×"}}
,{"type":"Feature","geometry":{"type":"Point","coordinates":[140.099,35.639]},"properties":{"Name":"小中台公民館","Jusho":"千葉県千葉市稲毛区小仲台5-7-1","kouzui":"○","gake":"○","takashio":"○","jishin":"○","tsunami":"○","kaji":"×","naisui":"○","kazan":"×"}}
,{"type":"Feature","geometry":{"type":"Point","coordinates":[140.094,35.626]},"properties":{"Name":"黒砂公民館","Jusho":"千葉県千葉市稲毛区黒砂2-4-18","kouzui":"○","gake":"○","takashio":"○","jishin":"○","tsunami":"○","kaji":"×","naisui":"○","kazan":"×"}}
,{"type":"Feature","geometry":{"type":"Point","coordinates":[140.11,35.625]},"properties":{"Name":"轟公民館","Jusho":"千葉県千葉市稲毛区轟町1-12-3","kouzui":"○","gake":"○","takashio":"○","jishin":"○","tsunami":"○","kaji":"×","naisui":"○","kazan":"×"}}
,{"type":"Feature","geometry":{"type":"Point","coordinates":[140.083,35.637]},"properties":{"Name":"稲毛公民館","Jusho":"千葉県千葉市稲毛区稲毛1-10-17","kouzui":"○","gake":"○","takashio":"○","jishin":"○","tsunami":"○","kaji":"×","naisui":"○","kazan":"×"}}
,{"type":"Feature","geometry":{"type":"Point","coordinates":[140.117,35.634]},"properties":{"Name":"千草台公民館","Jusho":"千葉県千葉市稲毛区天台3-16-5","kouzui":"○","gake":"○","takashio":"○","jishin":"○","tsunami":"○","kaji":"×","naisui":"○","kazan":"×"}}
,{"type":"Feature","geometry":{"type":"Point","coordinates":[140.12,35.654]},"properties":{"Name":"草野公民館","Jusho":"千葉県千葉市稲毛区園生町384-93","kouzui":"○","gake":"○","takashio":"○","jishin":"○","tsunami":"○","kaji":"×","naisui":"○","kazan":"×"}}
,{"type":"Feature","geometry":{"type":"Point","coordinates":[140.146,35.658]},"properties":{"Name":"山王公民館","Jusho":"千葉県千葉市稲毛区六方町55-29","kouzui":"○","gake":"○","takashio":"○","jishin":"○","tsunami":"○","kaji":"×","naisui":"○","kazan":"×"}}
,{"type":"Feature","geometry":{"type":"Point","coordinates":[140.118,35.625]},"properties":{"Name":"都賀公民館","Jusho":"千葉県千葉市稲毛区作草部2-8-53","kouzui":"○","gake":"○","takashio":"○","jishin":"○","tsunami":"○","kaji":"×","naisui":"○","kazan":"×"}}
,{"type":"Feature","geometry":{"type":"Point","coordinates":[140.107,35.658]},"properties":{"Name":"緑が丘公民館","Jusho":"千葉県千葉市稲毛区宮野木町1807-3","kouzui":"○","gake":"○","takashio":"○","jishin":"○","tsunami":"○","kaji":"×","naisui":"○","kazan":"×"}}
,{"type":"Feature","geometry":{"type":"Point","coordinates":[140.106,35.636]},"properties":{"Name":"穴川コミュニティセンター","Jusho":"千葉県千葉市稲毛区穴川4-12-3","kouzui":"○","gake":"○","takashio":"○","jishin":"○","tsunami":"○","kaji":"×","naisui":"○","kazan":"×"}}
,{"type":"Feature","geometry":{"type":"Point","coordinates":[140.126,35.663]},"properties":{"Name":"長沼コミュニティセンター","Jusho":"千葉県千葉市稲毛区長沼町461-8","kouzui":"○","gake":"○","takashio":"○","jishin":"○","tsunami":"○","kaji":"×","naisui":"○","kazan":"×"}}
,{"type":"Feature","geometry":{"type":"Point","coordinates":[140.106,35.663]},"properties":{"Name":"宮野木スポーツセンター体育館","Jusho":"千葉県千葉市稲毛区宮野木町2150-4","kouzui":"○","gake":"○","takashio":"○","jishin":"○","tsunami":"○","kaji":"×","naisui":"○","kazan":"×"}}
,{"type":"Feature","geometry":{"type":"Point","coordinates":[140.13,35.668]},"properties":{"Name":"長沼原勤労市民プラザ","Jusho":"千葉県千葉市稲毛区長沼原町304-1","kouzui":"○","gake":"○","takashio":"○","jishin":"○","tsunami":"○","kaji":"×","naisui":"○","kazan":"×"}}
,{"type":"Feature","geometry":{"type":"Point","coordinates":[140.083,35.636]},"properties":{"Name":"稲毛公園","Jusho":"千葉県千葉市稲毛区稲毛1-10","kouzui":"○","gake":"○","takashio":"○","jishin":"○","tsunami":"○","kaji":"×","naisui":"○","kazan":"×"}}
,{"type":"Feature","geometry":{"type":"Point","coordinates":[140.087,35.642]},"properties":{"Name":"稲毛東公園","Jusho":"千葉県千葉市稲毛区稲毛東5-8","kouzui":"○","gake":"○","takashio":"○","jishin":"○","tsunami":"○","kaji":"×","naisui":"○","kazan":"×"}}
,{"type":"Feature","geometry":{"type":"Point","coordinates":[140.102,35.638]},"properties":{"Name":"小園公園","Jusho":"千葉県千葉市稲毛区小仲台4-2","kouzui":"○","gake":"○","takashio":"○","jishin":"○","tsunami":"○","kaji":"×","naisui":"○","kazan":"×"}}
,{"type":"Feature","geometry":{"type":"Point","coordinates":[140.092,35.652]},"properties":{"Name":"小中台西公園","Jusho":"千葉県千葉市稲毛区小中台町400-1","kouzui":"○","gake":"○","takashio":"○","jishin":"○","tsunami":"○","kaji":"×","naisui":"○","kazan":"×"}}
,{"type":"Feature","geometry":{"type":"Point","coordinates":[140.137,35.664]},"properties":{"Name":"山王ふれあい公園","Jusho":"千葉県千葉市稲毛区山王町182他","kouzui":"○","gake":"○","takashio":"○","jishin":"○","tsunami":"○","kaji":"×","naisui":"○","kazan":"×"}}
,{"type":"Feature","geometry":{"type":"Point","coordinates":[140.113,35.657]},"properties":{"Name":"長沼町公園","Jusho":"千葉県千葉市稲毛区長沼町255-1","kouzui":"○","gake":"○","takashio":"○","jishin":"○","tsunami":"○","kaji":"×","naisui":"○","kazan":"×"}}
,{"type":"Feature","geometry":{"type":"Point","coordinates":[140.098,35.639]},"properties":{"Name":"仲よし公園","Jusho":"千葉県千葉市稲毛区小仲台5-1","kouzui":"○","gake":"○","takashio":"○","jishin":"○","tsunami":"○","kaji":"×","naisui":"○","kazan":"×"}}
,{"type":"Feature","geometry":{"type":"Point","coordinates":[140.098,35.63]},"properties":{"Name":"西千葉公園","Jusho":"千葉県千葉市稲毛区黒砂台3-1","kouzui":"○","gake":"○","takashio":"○","jishin":"○","tsunami":"○","kaji":"×","naisui":"○","kazan":"×"}}
,{"type":"Feature","geometry":{"type":"Point","coordinates":[140.131,35.666]},"properties":{"Name":"スマートコミュニティ稲毛グラウンド","Jusho":"千葉県千葉市稲毛区長沼原町882-1","kouzui":"○","gake":"○","takashio":"○","jishin":"○","tsunami":"○","kaji":"○","naisui":"○","kazan":"×"}}
,{"type":"Feature","geometry":{"type":"Point","coordinates":[140.12,35.649]},"properties":{"Name":"千葉県総合スポーツセンター","Jusho":"千葉県千葉市稲毛区天台町323","kouzui":"○","gake":"○","takashio":"○","jishin":"○","tsunami":"○","kaji":"○","naisui":"○","kazan":"×"}}
,{"type":"Feature","geometry":{"type":"Point","coordinates":[140.103,35.627]},"properties":{"Name":"千葉大学構内（※建物を含まない）","Jusho":"千葉県千葉市稲毛区弥生町1-33","kouzui":"○","gake":"○","takashio":"○","jishin":"○","tsunami":"○","kaji":"○","naisui":"○","kazan":"×"}}
,{"type":"Feature","geometry":{"type":"Point","coordinates":[140.169,35.6]},"properties":{"Name":"千城小学校","Jusho":"千葉県千葉市若葉区大宮町2655","kouzui":"○","gake":"○","takashio":"○","jishin":"○","tsunami":"○","kaji":"×","naisui":"○","kazan":"×"}}
,{"type":"Feature","geometry":{"type":"Point","coordinates":[140.168,35.641]},"properties":{"Name":"若松小学校","Jusho":"千葉県千葉市若葉区若松町360-1","kouzui":"○","gake":"○","takashio":"○","jishin":"○","tsunami":"○","kaji":"×","naisui":"○","kazan":"×"}}
,{"type":"Feature","geometry":{"type":"Point","coordinates":[140.182,35.612]},"properties":{"Name":"坂月小学校","Jusho":"千葉県千葉市若葉区坂月町298","kouzui":"○","gake":"○","takashio":"○","jishin":"○","tsunami":"○","kaji":"×","naisui":"○","kazan":"×"}}
,{"type":"Feature","geometry":{"type":"Point","coordinates":[140.231,35.581]},"properties":{"Name":"白井小学校","Jusho":"千葉県千葉市若葉区野呂町215","kouzui":"○","gake":"○","takashio":"○","jishin":"○","tsunami":"○","kaji":"×","naisui":"○","kazan":"×"}}
,{"type":"Feature","geometry":{"type":"Point","coordinates":[140.228,35.619]},"properties":{"Name":"更科小学校","Jusho":"千葉県千葉市若葉区更科町2073","kouzui":"○","gake":"○","takashio":"○","jishin":"○","tsunami":"○","kaji":"×","naisui":"○","kazan":"×"}}
,{"type":"Feature","geometry":{"type":"Point","coordinates":[140.238,35.6]},"properties":{"Name":"更科小学校富田分校","Jusho":"千葉県千葉市若葉区富田町83","kouzui":"○","gake":"○","takashio":"○","jishin":"○","tsunami":"○","kaji":"×","naisui":"○","kazan":"×"}}
,{"type":"Feature","geometry":{"type":"Point","coordinates":[140.215,35.64]},"properties":{"Name":"旧更科小学校下田分校（跡施設）","Jusho":"千葉県千葉市若葉区下田町573","kouzui":"○","gake":"○","takashio":"○","jishin":"○","tsunami":"○","kaji":"×","naisui":"○","kazan":"×"}}
,{"type":"Feature","geometry":{"type":"Point","coordinates":[140.182,35.596]},"properties":{"Name":"大宮小学校","Jusho":"千葉県千葉市若葉区大宮台7-8-1","kouzui":"○","gake":"○","takashio":"○","jishin":"○","tsunami":"○","kaji":"×","naisui":"○","kazan":"×"}}
,{"type":"Feature","geometry":{"type":"Point","coordinates":[140.173,35.632]},"properties":{"Name":"小倉小学校","Jusho":"千葉県千葉市若葉区小倉台5-1-1","kouzui":"○","gake":"○","takashio":"○","jishin":"○","tsunami":"○","kaji":"×","naisui":"○","kazan":"×"}}
,{"type":"Feature","geometry":{"type":"Point","coordinates":[140.16,35.621]},"properties":{"Name":"桜木小学校","Jusho":"千葉県千葉市若葉区桜木3-26-1","kouzui":"○","gake":"○","takashio":"○","jishin":"○","tsunami":"○","kaji":"×","naisui":"○","kazan":"×"}}
,{"type":"Feature","geometry":{"type":"Point","coordinates":[140.184,35.629]},"properties":{"Name":"千城台北小学校","Jusho":"千葉県千葉市若葉区千城台北1-4-1","kouzui":"○","gake":"○","takashio":"○","jishin":"○","tsunami":"○","kaji":"×","naisui":"○","kazan":"×"}}
,{"type":"Feature","geometry":{"type":"Point","coordinates":[140.183,35.623]},"properties":{"Name":"千城台西小学校","Jusho":"千葉県千葉市若葉区千城台西2-21-1","kouzui":"○","gake":"○","takashio":"○","jishin":"○","tsunami":"○","kaji":"×","naisui":"○","kazan":"×"}}
,{"type":"Feature","geometry":{"type":"Point","coordinates":[140.145,35.629]},"properties":{"Name":"北貝塚小学校","Jusho":"千葉県千葉市若葉区貝塚町1093","kouzui":"○","gake":"○","takashio":"○","jishin":"○","tsunami":"○","kaji":"×","naisui":"○","kazan":"×"}}
,{"type":"Feature","geometry":{"type":"Point","coordinates":[140.186,35.585]},"properties":{"Name":"大宮台小学校","Jusho":"千葉県千葉市若葉区大宮町2082","kouzui":"○","gake":"○","takashio":"○","jishin":"○","tsunami":"○","kaji":"×","naisui":"○","kazan":"×"}}
,{"type":"Feature","geometry":{"type":"Point","coordinates":[140.192,35.622]},"properties":{"Name":"千城台東小学校","Jusho":"千葉県千葉市若葉区千城台東1-15-1","kouzui":"○","gake":"○","takashio":"○","jishin":"○","tsunami":"○","kaji":"×","naisui":"○","kazan":"×"}}
,{"type":"Feature","geometry":{"type":"Point","coordinates":[140.189,35.618]},"properties":{"Name":"千城台南小学校","Jusho":"千葉県千葉市若葉区千城台南1-19-1","kouzui":"○","gake":"○","takashio":"○","jishin":"○","tsunami":"○","kaji":"×","naisui":"○","kazan":"×"}}
,{"type":"Feature","geometry":{"type":"Point","coordinates":[140.138,35.642]},"properties":{"Name":"みつわ台北小学校","Jusho":"千葉県千葉市若葉区みつわ台3-5-1","kouzui":"○","gake":"○","takashio":"○","jishin":"○","tsunami":"○","kaji":"×","naisui":"○","kazan":"×"}}
,{"type":"Feature","geometry":{"type":"Point","coordinates":[140.196,35.617]},"properties":{"Name":"千城台旭小学校","Jusho":"千葉県千葉市若葉区千城台東3-18-1","kouzui":"○","gake":"○","takashio":"○","jishin":"○","tsunami":"○","kaji":"×","naisui":"○","kazan":"×"}}
,{"type":"Feature","geometry":{"type":"Point","coordinates":[140.131,35.635]},"properties":{"Name":"みつわ台南小学校","Jusho":"千葉県千葉市若葉区みつわ台1-17-1","kouzui":"○","gake":"○","takashio":"○","jishin":"○","tsunami":"○","kaji":"×","naisui":"○","kazan":"×"}}
,{"type":"Feature","geometry":{"type":"Point","coordinates":[140.172,35.65]},"properties":{"Name":"若松台小学校","Jusho":"千葉県千葉市若葉区若松台2-25-1","kouzui":"○","gake":"○","takashio":"○","jishin":"○","tsunami":"○","kaji":"×","naisui":"○","kazan":"×"}}
,{"type":"Feature","geometry":{"type":"Point","coordinates":[140.142,35.644]},"properties":{"Name":"都賀の台小学校","Jusho":"千葉県千葉市若葉区都賀の台2-13-1","kouzui":"○","gake":"○","takashio":"○","jishin":"○","tsunami":"○","kaji":"×","naisui":"○","kazan":"×"}}
,{"type":"Feature","geometry":{"type":"Point","coordinates":[140.132,35.649]},"properties":{"Name":"源小学校","Jusho":"千葉県千葉市若葉区源町541-6","kouzui":"○","gake":"○","takashio":"○","jishin":"○","tsunami":"○","kaji":"×","naisui":"○","kazan":"×"}}
,{"type":"Feature","geometry":{"type":"Point","coordinates":[140.158,35.614]},"properties":{"Name":"加曽利中学校","Jusho":"千葉県千葉市若葉区加曽利町961-5","kouzui":"○","gake":"○","takashio":"○","jishin":"○","tsunami":"○","kaji":"×","naisui":"○","kazan":"×"}}
,{"type":"Feature","geometry":{"type":"Point","coordinates":[140.226,35.588]},"properties":{"Name":"白井中学校","Jusho":"千葉県千葉市若葉区野呂町623","kouzui":"○","gake":"○","takashio":"○","jishin":"○","tsunami":"○","kaji":"×","naisui":"○","kazan":"×"}}
,{"type":"Feature","geometry":{"type":"Point","coordinates":[140.226,35.618]},"properties":{"Name":"更科中学校","Jusho":"千葉県千葉市若葉区更科町2112","kouzui":"○","gake":"○","takashio":"○","jishin":"○","tsunami":"○","kaji":"×","naisui":"○","kazan":"×"}}
,{"type":"Feature","geometry":{"type":"Point","coordinates":[140.185,35.622]},"properties":{"Name":"千城台西中学校","Jusho":"千葉県千葉市若葉区千城台西2-20-1","kouzui":"○","gake":"○","takashio":"○","jishin":"○","tsunami":"○","kaji":"×","naisui":"○","kazan":"×"}}
,{"type":"Feature","geometry":{"type":"Point","coordinates":[140.187,35.586]},"properties":{"Name":"大宮中学校","Jusho":"千葉県千葉市若葉区大宮町2077","kouzui":"○","gake":"○","takashio":"○","jishin":"○","tsunami":"○","kaji":"×","naisui":"○","kazan":"×"}}
,{"type":"Feature","geometry":{"type":"Point","coordinates":[140.191,35.619]},"properties":{"Name":"千城台南中学校","Jusho":"千葉県千葉市若葉区千城台南1-20-1","kouzui":"○","gake":"○","takashio":"○","jishin":"○","tsunami":"○","kaji":"×","naisui":"○","kazan":"×"}}
,{"type":"Feature","geometry":{"type":"Point","coordinates":[140.131,35.635]},"properties":{"Name":"みつわ台中学校","Jusho":"千葉県千葉市若葉区みつわ台2-41-1","kouzui":"○","gake":"○","takashio":"○","jishin":"○","tsunami":"○","kaji":"×","naisui":"○","kazan":"×"}}
,{"type":"Feature","geometry":{"type":"Point","coordinates":[140.17,35.636]},"properties":{"Name":"若松中学校","Jusho":"千葉県千葉市若葉区若松町2106-2","kouzui":"○","gake":"○","takashio":"○","jishin":"○","tsunami":"○","kaji":"×","naisui":"○","kazan":"×"}}
,{"type":"Feature","geometry":{"type":"Point","coordinates":[140.143,35.653]},"properties":{"Name":"山王中学校","Jusho":"千葉県千葉市若葉区若松町774","kouzui":"○","gake":"○","takashio":"○","jishin":"○","tsunami":"○","kaji":"×","naisui":"○","kazan":"×"}}
,{"type":"Feature","geometry":{"type":"Point","coordinates":[140.153,35.624]},"properties":{"Name":"貝塚中学校","Jusho":"千葉県千葉市若葉区貝塚町1-7-1","kouzui":"○","gake":"○","takashio":"○","jishin":"○","tsunami":"○","kaji":"×","naisui":"○","kazan":"×"}}
,{"type":"Feature","geometry":{"type":"Point","coordinates":[140.167,35.598]},"properties":{"Name":"市立養護学校","Jusho":"千葉県千葉市若葉区大宮町1066-1","kouzui":"○","gake":"○","takashio":"○","jishin":"○","tsunami":"○","kaji":"×","naisui":"○","kazan":"×"}}
,{"type":"Feature","geometry":{"type":"Point","coordinates":[140.169,35.614]},"properties":{"Name":"県立桜が丘特別支援学校","Jusho":"千葉県千葉市若葉区加曽利町1538","kouzui":"○","gake":"○","takashio":"○","jishin":"○","tsunami":"○","kaji":"×","naisui":"○","kazan":"×"}}
,{"type":"Feature","geometry":{"type":"Point","coordinates":[140.159,35.644]},"properties":{"Name":"県立若松高等学校","Jusho":"千葉県千葉市若葉区若松町429","kouzui":"○","gake":"○","takashio":"○","jishin":"○","tsunami":"○","kaji":"×","naisui":"○","kazan":"×"}}
,{"type":"Feature","geometry":{"type":"Point","coordinates":[140.188,35.622]},"properties":{"Name":"県立千城台高等学校","Jusho":"千葉県千葉市若葉区千城台西2-1-1","kouzui":"○","gake":"○","takashio":"○","jishin":"○","tsunami":"○","kaji":"×","naisui":"○","kazan":"×"}}
,{"type":"Feature","geometry":{"type":"Point","coordinates":[140.21,35.602]},"properties":{"Name":"県立泉高等学校","Jusho":"千葉県千葉市若葉区高根町875-1","kouzui":"○","gake":"○","takashio":"○","jishin":"○","tsunami":"○","kaji":"×","naisui":"○","kazan":"×"}}
,{"type":"Feature","geometry":{"type":"Point","coordinates":[140.17,35.603]},"properties":{"Name":"県立千葉大宮高等学校","Jusho":"千葉県千葉市若葉区大宮町2699-1","kouzui":"○","gake":"○","takashio":"○","jishin":"○","tsunami":"○","kaji":"×","naisui":"○","kazan":"×"}}
,{"type":"Feature","geometry":{"type":"Point","coordinates":[140.187,35.622]},"properties":{"Name":"千城台公民館","Jusho":"千葉県千葉市若葉区千城台西2-1-1","kouzui":"○","gake":"○","takashio":"○","jishin":"○","tsunami":"○","kaji":"×","naisui":"○","kazan":"×"}}
,{"type":"Feature","geometry":{"type":"Point","coordinates":[140.228,35.618]},"properties":{"Name":"更科公民館","Jusho":"千葉県千葉市若葉区更科町2254-1","kouzui":"○","gake":"○","takashio":"○","jishin":"○","tsunami":"○","kaji":"×","naisui":"○","kazan":"×"}}
,{"type":"Feature","geometry":{"type":"Point","coordinates":[140.23,35.584]},"properties":{"Name":"白井公民館","Jusho":"千葉県千葉市若葉区野呂町622-10","kouzui":"○","gake":"○","takashio":"○","jishin":"○","tsunami":"○","kaji":"×","naisui":"○","kazan":"×"}}
,{"type":"Feature","geometry":{"type":"Point","coordinates":[140.152,35.612]},"properties":{"Name":"加曽利公民館","Jusho":"千葉県千葉市若葉区加曽利町892-6","kouzui":"○","gake":"○","takashio":"○","jishin":"○","tsunami":"○","kaji":"×","naisui":"○","kazan":"×"}}
,{"type":"Feature","geometry":{"type":"Point","coordinates":[140.181,35.597]},"properties":{"Name":"大宮公民館","Jusho":"千葉県千葉市若葉区大宮町3221-2","kouzui":"○","gake":"○","takashio":"○","jishin":"○","tsunami":"○","kaji":"×","naisui":"○","kazan":"×"}}
,{"type":"Feature","geometry":{"type":"Point","coordinates":[140.136,35.639]},"properties":{"Name":"みつわ台公民館","Jusho":"千葉県千葉市若葉区みつわ台3-12-17","kouzui":"○","gake":"○","takashio":"○","jishin":"○","tsunami":"○","kaji":"×","naisui":"○","kazan":"×"}}
,{"type":"Feature","geometry":{"type":"Point","coordinates":[140.168,35.635]},"properties":{"Name":"若松公民館","Jusho":"千葉県千葉市若葉区若松町2117-2","kouzui":"○","gake":"○","takashio":"○","jishin":"○","tsunami":"○","kaji":"×","naisui":"○","kazan":"×"}}
,{"type":"Feature","geometry":{"type":"Point","coordinates":[140.16,35.623]},"properties":{"Name":"桜木公民館","Jusho":"千葉県千葉市若葉区桜木3-17-29","kouzui":"○","gake":"○","takashio":"○","jishin":"○","tsunami":"○","kaji":"×","naisui":"○","kazan":"×"}}
,{"type":"Feature","geometry":{"type":"Point","coordinates":[140.186,35.622]},"properties":{"Name":"千城台コミュニティセンター","Jusho":"千葉県千葉市若葉区千城台西2-1-1","kouzui":"○","gake":"○","takashio":"○","jishin":"○","tsunami":"○","kaji":"×","naisui":"○","kazan":"×"}}
,{"type":"Feature","geometry":{"type":"Point","coordinates":[140.155,35.634]},"properties":{"Name":"都賀コミュニティセンター","Jusho":"千葉県千葉市若葉区都賀4-20-1","kouzui":"○","gake":"○","takashio":"○","jishin":"○","tsunami":"○","kaji":"×","naisui":"○","kazan":"×"}}
,{"type":"Feature","geometry":{"type":"Point","coordinates":[140.134,35.615]},"properties":{"Name":"千葉刑務所","Jusho":"千葉県千葉市若葉区貝塚町192","kouzui":"○","gake":"○","takashio":"○","jishin":"○","tsunami":"○","kaji":"×","naisui":"○","kazan":"×"}}
,{"type":"Feature","geometry":{"type":"Point","coordinates":[140.136,35.641]},"properties":{"Name":"みつわ台体育館","Jusho":"千葉県千葉市若葉区みつわ台3-3-1","kouzui":"○","gake":"○","takashio":"○","jishin":"○","tsunami":"○","kaji":"×","naisui":"○","kazan":"×"}}
,{"type":"Feature","geometry":{"type":"Point","coordinates":[140.133,35.654]},"properties":{"Name":"愛生運動広場","Jusho":"千葉県千葉市若葉区愛生町102-1","kouzui":"○","gake":"○","takashio":"○","jishin":"○","tsunami":"○","kaji":"×","naisui":"○","kazan":"×"}}
,{"type":"Feature","geometry":{"type":"Point","coordinates":[140.147,35.634]},"properties":{"Name":"美しの森公園","Jusho":"千葉県千葉市若葉区都賀2-5","kouzui":"○","gake":"○","takashio":"○","jishin":"○","tsunami":"○","kaji":"×","naisui":"○","kazan":"×"}}
,{"type":"Feature","geometry":{"type":"Point","coordinates":[140.171,35.629]},"properties":{"Name":"小倉台公園","Jusho":"千葉県千葉市若葉区小倉台4-7","kouzui":"○","gake":"○","takashio":"○","jishin":"○","tsunami":"○","kaji":"×","naisui":"○","kazan":"×"}}
,{"type":"Feature","geometry":{"type":"Point","coordinates":[140.197,35.623]},"properties":{"Name":"御成公園","Jusho":"千葉県千葉市若葉区千城台東2-45","kouzui":"○","gake":"○","takashio":"○","jishin":"○","tsunami":"○","kaji":"×","naisui":"○","kazan":"×"}}
,{"type":"Feature","geometry":{"type":"Point","coordinates":[140.201,35.636]},"properties":{"Name":"御成台公園","Jusho":"千葉県千葉市若葉区御成台3-1182-2","kouzui":"○","gake":"○","takashio":"○","jishin":"○","tsunami":"○","kaji":"×","naisui":"○","kazan":"×"}}
,{"type":"Feature","geometry":{"type":"Point","coordinates":[140.153,35.621]},"properties":{"Name":"桜木公園","Jusho":"千葉県千葉市若葉区桜木1-423","kouzui":"○","gake":"○","takashio":"○","jishin":"○","tsunami":"○","kaji":"×","naisui":"○","kazan":"×"}}
,{"type":"Feature","geometry":{"type":"Point","coordinates":[140.186,35.627]},"properties":{"Name":"城北公園","Jusho":"千葉県千葉市若葉区千城台北2-1","kouzui":"○","gake":"○","takashio":"○","jishin":"○","tsunami":"○","kaji":"×","naisui":"○","kazan":"×"}}
,{"type":"Feature","geometry":{"type":"Point","coordinates":[140.18,35.623]},"properties":{"Name":"千城台西公園","Jusho":"千葉県千葉市若葉区千城台西1-15","kouzui":"○","gake":"○","takashio":"○","jishin":"○","tsunami":"○","kaji":"×","naisui":"○","kazan":"×"}}
,{"type":"Feature","geometry":{"type":"Point","coordinates":[140.131,35.631]},"properties":{"Name":"みつわ台公園","Jusho":"千葉県千葉市若葉区みつわ台1-28","kouzui":"○","gake":"○","takashio":"○","jishin":"○","tsunami":"○","kaji":"×","naisui":"○","kazan":"×"}}
,{"type":"Feature","geometry":{"type":"Point","coordinates":[140.132,35.635]},"properties":{"Name":"みつわ台第1公園","Jusho":"千葉県千葉市若葉区みつわ台1-18","kouzui":"○","gake":"○","takashio":"○","jishin":"○","tsunami":"○","kaji":"×","naisui":"○","kazan":"×"}}
,{"type":"Feature","geometry":{"type":"Point","coordinates":[140.135,35.641]},"properties":{"Name":"みつわ台第2公園","Jusho":"千葉県千葉市若葉区みつわ台3-2","kouzui":"○","gake":"○","takashio":"○","jishin":"○","tsunami":"○","kaji":"×","naisui":"○","kazan":"×"}}
,{"type":"Feature","geometry":{"type":"Point","coordinates":[140.259,35.596]},"properties":{"Name":"袖ヶ浦カンツリー倶楽部新袖コース（※建物を含まない）","Jusho":"千葉県千葉市若葉区富田町1140","kouzui":"○","gake":"○","takashio":"○","jishin":"○","tsunami":"○","kaji":"○","naisui":"○","kazan":"×"}}
,{"type":"Feature","geometry":{"type":"Point","coordinates":[140.149,35.653]},"properties":{"Name":"陸上自衛隊高射学校（※建物を含まない）","Jusho":"千葉県千葉市若葉区若松町902","kouzui":"○","gake":"○","takashio":"○","jishin":"○","tsunami":"○","kaji":"○","naisui":"○","kazan":"×"}}
,{"type":"Feature","geometry":{"type":"Point","coordinates":[140.227,35.577]},"properties":{"Name":"泉自然公園","Jusho":"千葉県千葉市若葉区野呂町108","kouzui":"○","gake":"○","takashio":"○","jishin":"○","tsunami":"○","kaji":"○","naisui":"○","kazan":"×"}}
,{"type":"Feature","geometry":{"type":"Point","coordinates":[140.165,35.624]},"properties":{"Name":"加曽利貝塚縄文遺跡公園","Jusho":"千葉県千葉市若葉区桜木2-81-1他","kouzui":"○","gake":"○","takashio":"○","jishin":"○","tsunami":"○","kaji":"○","naisui":"○","kazan":"×"}}
,{"type":"Feature","geometry":{"type":"Point","coordinates":[140.191,35.617]},"properties":{"Name":"千城台公園一帯","Jusho":"千葉県千葉市若葉区千城台南1-21他","kouzui":"○","gake":"○","takashio":"○","jishin":"○","tsunami":"○","kaji":"○","naisui":"○","kazan":"×"}}
,{"type":"Feature","geometry":{"type":"Point","coordinates":[140.187,35.586]},"properties":{"Name":"大宮中学校一帯","Jusho":"千葉県千葉市若葉区大宮町2077他","kouzui":"○","gake":"○","takashio":"○","jishin":"○","tsunami":"○","kaji":"○","naisui":"○","kazan":"×"}}
,{"type":"Feature","geometry":{"type":"Point","coordinates":[140.163,35.542]},"properties":{"Name":"椎名小学校","Jusho":"千葉県千葉市緑区茂呂町582","kouzui":"○","gake":"○","takashio":"○","jishin":"○","tsunami":"○","kaji":"×","naisui":"○","kazan":"×"}}
,{"type":"Feature","geometry":{"type":"Point","coordinates":[140.204,35.55]},"properties":{"Name":"誉田小学校","Jusho":"千葉県千葉市緑区誉田町1-27","kouzui":"○","gake":"○","takashio":"○","jishin":"○","tsunami":"○","kaji":"×","naisui":"○","kazan":"×"}}
,{"type":"Feature","geometry":{"type":"Point","coordinates":[140.18,35.569]},"properties":{"Name":"平山小学校","Jusho":"千葉県千葉市緑区辺田町141","kouzui":"○","gake":"○","takashio":"○","jishin":"○","tsunami":"○","kaji":"×","naisui":"○","kazan":"×"}}
,{"type":"Feature","geometry":{"type":"Point","coordinates":[140.273,35.532]},"properties":{"Name":"土気小学校","Jusho":"千葉県千葉市緑区土気町1634-2","kouzui":"○","gake":"○","takashio":"○","jishin":"○","tsunami":"○","kaji":"×","naisui":"○","kazan":"×"}}
,{"type":"Feature","geometry":{"type":"Point","coordinates":[140.218,35.55]},"properties":{"Name":"誉田東小学校","Jusho":"千葉県千葉市緑区誉田町2-21-84","kouzui":"○","gake":"○","takashio":"○","jishin":"○","tsunami":"○","kaji":"×","naisui":"○","kazan":"×"}}
,{"type":"Feature","geometry":{"type":"Point","coordinates":[140.25,35.531]},"properties":{"Name":"大木戸小学校","Jusho":"千葉県千葉市緑区大木戸町317","kouzui":"○","gake":"○","takashio":"○","jishin":"○","tsunami":"○","kaji":"×","naisui":"○","kazan":"×"}}
,{"type":"Feature","geometry":{"type":"Point","coordinates":[140.237,35.532]},"properties":{"Name":"越智小学校","Jusho":"千葉県千葉市緑区越智町705-359","kouzui":"○","gake":"○","takashio":"○","jishin":"○","tsunami":"○","kaji":"×","naisui":"○","kazan":"×"}}
,{"type":"Feature","geometry":{"type":"Point","coordinates":[140.174,35.554]},"properties":{"Name":"泉谷小学校","Jusho":"千葉県千葉市緑区おゆみ野中央4-3","kouzui":"○","gake":"○","takashio":"○","jishin":"○","tsunami":"○","kaji":"×","naisui":"○","kazan":"×"}}
,{"type":"Feature","geometry":{"type":"Point","coordinates":[140.265,35.523]},"properties":{"Name":"土気南小学校","Jusho":"千葉県千葉市緑区あすみが丘4-16","kouzui":"○","gake":"○","takashio":"○","jishin":"○","tsunami":"○","kaji":"×","naisui":"○","kazan":"×"}}
,{"type":"Feature","geometry":{"type":"Point","coordinates":[140.181,35.555]},"properties":{"Name":"小谷小学校","Jusho":"千葉県千葉市緑区おゆみ野4-45","kouzui":"○","gake":"○","takashio":"○","jishin":"○","tsunami":"○","kaji":"×","naisui":"○","kazan":"×"}}
,{"type":"Feature","geometry":{"type":"Point","coordinates":[140.262,35.514]},"properties":{"Name":"大椎小学校","Jusho":"千葉県千葉市緑区あすみが丘6-38","kouzui":"○","gake":"○","takashio":"○","jishin":"○","tsunami":"○","kaji":"×","naisui":"○","kazan":"×"}}
,{"type":"Feature","geometry":{"type":"Point","coordinates":[140.166,35.561]},"properties":{"Name":"有吉小学校","Jusho":"千葉県千葉市緑区おゆみ野1-53","kouzui":"○","gake":"○","takashio":"○","jishin":"○","tsunami":"○","kaji":"×","naisui":"○","kazan":"×"}}
,{"type":"Feature","geometry":{"type":"Point","coordinates":[140.172,35.548]},"properties":{"Name":"金沢小学校","Jusho":"千葉県千葉市緑区おゆみ野南5-31","kouzui":"○","gake":"○","takashio":"○","jishin":"○","tsunami":"○","kaji":"×","naisui":"○","kazan":"×"}}
,{"type":"Feature","geometry":{"type":"Point","coordinates":[140.263,35.52]},"properties":{"Name":"あすみが丘小学校","Jusho":"千葉県千葉市緑区あすみが丘6-2","kouzui":"○","gake":"○","takashio":"○","jishin":"○","tsunami":"○","kaji":"×","naisui":"○","kazan":"×"}}
,{"type":"Feature","geometry":{"type":"Point","coordinates":[140.163,35.557]},"properties":{"Name":"扇田小学校","Jusho":"千葉県千葉市緑区おゆみ野中央1-26","kouzui":"○","gake":"○","takashio":"○","jishin":"○","tsunami":"○","kaji":"×","naisui":"○","kazan":"×"}}
,{"type":"Feature","geometry":{"type":"Point","coordinates":[140.169,35.545]},"properties":{"Name":"おゆみ野南小学校","Jusho":"千葉県千葉市緑区おゆみ野南4-26","kouzui":"○","gake":"○","takashio":"○","jishin":"○","tsunami":"○","kaji":"×","naisui":"○","kazan":"×"}}
,{"type":"Feature","geometry":{"type":"Point","coordinates":[140.203,35.552]},"properties":{"Name":"誉田中学校","Jusho":"千葉県千葉市緑区誉田町1-138","kouzui":"○","gake":"○","takashio":"○","jishin":"○","tsunami":"○","kaji":"○","naisui":"○","kazan":"×"}}
,{"type":"Feature","geometry":{"type":"Point","coordinates":[140.273,35.541]},"properties":{"Name":"土気中学校","Jusho":"千葉県千葉市緑区土気町1400","kouzui":"○","gake":"○","takashio":"○","jishin":"○","tsunami":"○","kaji":"○","naisui":"○","kazan":"×"}}
,{"type":"Feature","geometry":{"type":"Point","coordinates":[140.241,35.534]},"properties":{"Name":"越智中学校","Jusho":"千葉県千葉市緑区越智町651","kouzui":"○","gake":"○","takashio":"○","jishin":"○","tsunami":"○","kaji":"×","naisui":"○","kazan":"×"}}
,{"type":"Feature","geometry":{"type":"Point","coordinates":[140.172,35.555]},"properties":{"Name":"泉谷中学校","Jusho":"千葉県千葉市緑区おゆみ野中央4-2","kouzui":"○","gake":"○","takashio":"○","jishin":"○","tsunami":"○","kaji":"×","naisui":"○","kazan":"×"}}
,{"type":"Feature","geometry":{"type":"Point","coordinates":[140.261,35.525]},"properties":{"Name":"土気南中学校","Jusho":"千葉県千葉市緑区あすみが丘4-38","kouzui":"○","gake":"○","takashio":"○","jishin":"○","tsunami":"○","kaji":"×","naisui":"○","kazan":"×"}}
,{"type":"Feature","geometry":{"type":"Point","coordinates":[140.17,35.561]},"properties":{"Name":"有吉中学校","Jusho":"千葉県千葉市緑区おゆみ野2-41","kouzui":"○","gake":"○","takashio":"○","jishin":"○","tsunami":"○","kaji":"×","naisui":"○","kazan":"×"}}
,{"type":"Feature","geometry":{"type":"Point","coordinates":[140.27,35.517]},"properties":{"Name":"大椎中学校","Jusho":"千葉県千葉市緑区あすみが丘8-26","kouzui":"○","gake":"○","takashio":"○","jishin":"○","tsunami":"○","kaji":"×","naisui":"○","kazan":"×"}}
,{"type":"Feature","geometry":{"type":"Point","coordinates":[140.177,35.545]},"properties":{"Name":"おゆみ野南中学校","Jusho":"千葉県千葉市緑区おゆみ野南5-25","kouzui":"○","gake":"○","takashio":"○","jishin":"○","tsunami":"○","kaji":"×","naisui":"○","kazan":"×"}}
,{"type":"Feature","geometry":{"type":"Point","coordinates":[140.274,35.524]},"properties":{"Name":"県立土気高等学校","Jusho":"千葉県千葉市緑区あすみが丘東2-24-1","kouzui":"○","gake":"○","takashio":"○","jishin":"○","tsunami":"○","kaji":"×","naisui":"○","kazan":"×"}}
,{"type":"Feature","geometry":{"type":"Point","coordinates":[140.203,35.55]},"properties":{"Name":"誉田公民館","Jusho":"千葉県千葉市緑区誉田町1-789-49","kouzui":"○","gake":"○","takashio":"○","jishin":"○","tsunami":"○","kaji":"×","naisui":"○","kazan":"×"}}
,{"type":"Feature","geometry":{"type":"Point","coordinates":[140.164,35.544]},"properties":{"Name":"椎名公民館","Jusho":"千葉県千葉市緑区富岡町290-1","kouzui":"○","gake":"○","takashio":"○","jishin":"○","tsunami":"○","kaji":"×","naisui":"○","kazan":"×"}}
,{"type":"Feature","geometry":{"type":"Point","coordinates":[140.274,35.531]},"properties":{"Name":"土気公民館","Jusho":"千葉県千葉市緑区土気町1631-7","kouzui":"○","gake":"○","takashio":"○","jishin":"○","tsunami":"○","kaji":"×","naisui":"○","kazan":"×"}}
,{"type":"Feature","geometry":{"type":"Point","coordinates":[140.236,35.535]},"properties":{"Name":"越智公民館","Jusho":"千葉県千葉市緑区越智町822-7","kouzui":"○","gake":"○","takashio":"○","jishin":"○","tsunami":"○","kaji":"×","naisui":"○","kazan":"×"}}
,{"type":"Feature","geometry":{"type":"Point","coordinates":[140.164,35.556]},"properties":{"Name":"おゆみ野公民館","Jusho":"千葉県千葉市緑区おゆみ野中央2-7-6","kouzui":"○","gake":"○","takashio":"○","jishin":"○","tsunami":"○","kaji":"×","naisui":"○","kazan":"×"}}
,{"type":"Feature","geometry":{"type":"Point","coordinates":[140.176,35.56]},"properties":{"Name":"鎌取コミュニティセンター","Jusho":"千葉県千葉市緑区おゆみ野3-15-2","kouzui":"○","gake":"○","takashio":"○","jishin":"○","tsunami":"○","kaji":"×","naisui":"○","kazan":"×"}}
,{"type":"Feature","geometry":{"type":"Point","coordinates":[140.273,35.531]},"properties":{"Name":"土気市民センター","Jusho":"千葉県千葉市緑区土気町1634","kouzui":"○","gake":"○","takashio":"○","jishin":"○","tsunami":"○","kaji":"×","naisui":"○","kazan":"×"}}
,{"type":"Feature","geometry":{"type":"Point","coordinates":[140.146,35.549]},"properties":{"Name":"古市場体育館・古市場公園野球場","Jusho":"千葉県千葉市緑区古市場町474-277","kouzui":"○","gake":"○","takashio":"○","jishin":"○","tsunami":"○","kaji":"×","naisui":"○","kazan":"×"}}
,{"type":"Feature","geometry":{"type":"Point","coordinates":[140.265,35.521]},"properties":{"Name":"土気あすみが丘プラザ","Jusho":"千葉県千葉市緑区あすみが丘７-2-4","kouzui":"○","gake":"○","takashio":"○","jishin":"○","tsunami":"○","kaji":"×","naisui":"○","kazan":"×"}}
,{"type":"Feature","geometry":{"type":"Point","coordinates":[140.264,35.521]},"properties":{"Name":"あすみが丘ふれあいの広場公園","Jusho":"千葉県千葉市緑区あすみが丘6-1","kouzui":"○","gake":"○","takashio":"○","jishin":"○","tsunami":"○","kaji":"×","naisui":"○","kazan":"×"}}
,{"type":"Feature","geometry":{"type":"Point","coordinates":[140.264,35.512]},"properties":{"Name":"あすみが丘やすらぎの広場公園","Jusho":"千葉県千葉市緑区あすみが丘9-13","kouzui":"○","gake":"○","takashio":"○","jishin":"○","tsunami":"○","kaji":"×","naisui":"○","kazan":"×"}}
,{"type":"Feature","geometry":{"type":"Point","coordinates":[140.232,35.512]},"properties":{"Name":"大野台中央公園","Jusho":"千葉県千葉市緑区大野台1-6-2","kouzui":"○","gake":"○","takashio":"○","jishin":"○","tsunami":"○","kaji":"×","naisui":"○","kazan":"×"}}
,{"type":"Feature","geometry":{"type":"Point","coordinates":[140.237,35.535]},"properties":{"Name":"越智中央公園","Jusho":"千葉県千葉市緑区越智町810-7","kouzui":"○","gake":"○","takashio":"○","jishin":"○","tsunami":"○","kaji":"×","naisui":"○","kazan":"×"}}
,{"type":"Feature","geometry":{"type":"Point","coordinates":[140.173,35.56]},"properties":{"Name":"おゆみ野さくら公園","Jusho":"千葉県千葉市緑区おゆみ野2-42","kouzui":"○","gake":"○","takashio":"○","jishin":"○","tsunami":"○","kaji":"×","naisui":"○","kazan":"×"}}
,{"type":"Feature","geometry":{"type":"Point","coordinates":[140.2,35.549]},"properties":{"Name":"誉田南公園","Jusho":"千葉県千葉市緑区誉田町1-780","kouzui":"○","gake":"○","takashio":"○","jishin":"○","tsunami":"○","kaji":"×","naisui":"○","kazan":"×"}}
,{"type":"Feature","geometry":{"type":"Point","coordinates":[140.28,35.518]},"properties":{"Name":"昭和の森","Jusho":"千葉県千葉市緑区土気町22","kouzui":"○","gake":"○","takashio":"○","jishin":"○","tsunami":"○","kaji":"○","naisui":"○","kazan":"×"}}
,{"type":"Feature","geometry":{"type":"Point","coordinates":[140.188,35.567]},"properties":{"Name":"袖ヶ浦カンツリー倶楽部袖ヶ浦コース（※建物を含まない）","Jusho":"千葉県千葉市緑区辺田町567","kouzui":"○","gake":"○","takashio":"○","jishin":"○","tsunami":"○","kaji":"○","naisui":"○","kazan":"×"}}
,{"type":"Feature","geometry":{"type":"Point","coordinates":[140.179,35.536]},"properties":{"Name":"本千葉カントリークラブ（※建物を含まない）","Jusho":"千葉県千葉市緑区大金沢町311","kouzui":"○","gake":"○","takashio":"○","jishin":"○","tsunami":"○","kaji":"○","naisui":"○","kazan":"×"}}
,{"type":"Feature","geometry":{"type":"Point","coordinates":[140.256,35.553]},"properties":{"Name":"平川カントリークラブ（※建物を含まない）","Jusho":"千葉県千葉市緑区平川町405","kouzui":"○","gake":"○","takashio":"○","jishin":"○","tsunami":"○","kaji":"○","naisui":"○","kazan":"×"}}
,{"type":"Feature","geometry":{"type":"Point","coordinates":[140.27,35.503]},"properties":{"Name":"東急セブンハンドレッドクラブ（※建物を含まない）","Jusho":"千葉県千葉市緑区小山町359-6","kouzui":"○","gake":"○","takashio":"○","jishin":"○","tsunami":"○","kaji":"○","naisui":"○","kazan":"×"}}
,{"type":"Feature","geometry":{"type":"Point","coordinates":[140.261,35.525]},"properties":{"Name":"土気南中学校一帯","Jusho":"千葉県千葉市緑区あすみが丘4-38他","kouzui":"○","gake":"○","takashio":"○","jishin":"○","tsunami":"○","kaji":"○","naisui":"○","kazan":"×"}}
,{"type":"Feature","geometry":{"type":"Point","coordinates":[140.174,35.554]},"properties":{"Name":"泉谷小学校一帯","Jusho":"千葉県千葉市緑区おゆみ野中央4-3他","kouzui":"○","gake":"○","takashio":"○","jishin":"○","tsunami":"○","kaji":"○","naisui":"○","kazan":"×"}}
,{"type":"Feature","geometry":{"type":"Point","coordinates":[140.075,35.637]},"properties":{"Name":"稲毛第二小学校","Jusho":"千葉県千葉市美浜区稲毛海岸5-7-1","kouzui":"○","gake":"○","takashio":"○","jishin":"○","tsunami":"○","kaji":"×","naisui":"○","kazan":"×"}}
,{"type":"Feature","geometry":{"type":"Point","coordinates":[140.038,35.665]},"properties":{"Name":"幕張西小学校","Jusho":"千葉県千葉市美浜区幕張西2-8-1","kouzui":"○","gake":"○","takashio":"○","jishin":"○","tsunami":"○","kaji":"×","naisui":"○","kazan":"×"}}
,{"type":"Feature","geometry":{"type":"Point","coordinates":[140.099,35.611]},"properties":{"Name":"幸町第三小学校","Jusho":"千葉県千葉市美浜区幸町1-10-1","kouzui":"○","gake":"○","takashio":"○","jishin":"○","tsunami":"○","kaji":"×","naisui":"○","kazan":"×"}}
,{"type":"Feature","geometry":{"type":"Point","coordinates":[140.074,35.627]},"properties":{"Name":"高洲第三小学校","Jusho":"千葉県千葉市美浜区高洲3-3-11","kouzui":"○","gake":"○","takashio":"○","jishin":"○","tsunami":"○","kaji":"×","naisui":"○","kazan":"×"}}
,{"type":"Feature","geometry":{"type":"Point","coordinates":[140.078,35.631]},"properties":{"Name":"高洲第四小学校","Jusho":"千葉県千葉市美浜区高洲1-15-1","kouzui":"○","gake":"○","takashio":"○","jishin":"○","tsunami":"○","kaji":"×","naisui":"○","kazan":"×"}}
,{"type":"Feature","geometry":{"type":"Point","coordinates":[140.069,35.633]},"properties":{"Name":"真砂第五小学校","Jusho":"千葉県千葉市美浜区真砂1-12-15","kouzui":"○","gake":"○","takashio":"○","jishin":"○","tsunami":"○","kaji":"×","naisui":"○","kazan":"×"}}
,{"type":"Feature","geometry":{"type":"Point","coordinates":[140.076,35.62]},"properties":{"Name":"高浜第一小学校","Jusho":"千葉県千葉市美浜区高浜1-4-1","kouzui":"○","gake":"○","takashio":"○","jishin":"○","tsunami":"○","kaji":"×","naisui":"○","kazan":"×"}}
,{"type":"Feature","geometry":{"type":"Point","coordinates":[140.084,35.63]},"properties":{"Name":"稲浜小学校","Jusho":"千葉県千葉市美浜区稲毛海岸2-3-2","kouzui":"○","gake":"○","takashio":"○","jishin":"○","tsunami":"○","kaji":"×","naisui":"○","kazan":"×"}}
,{"type":"Feature","geometry":{"type":"Point","coordinates":[140.064,35.63]},"properties":{"Name":"磯辺第三小学校","Jusho":"千葉県千葉市美浜区磯辺1-25-1","kouzui":"○","gake":"○","takashio":"○","jishin":"○","tsunami":"○","kaji":"×","naisui":"○","kazan":"×"}}
,{"type":"Feature","geometry":{"type":"Point","coordinates":[140.047,35.642]},"properties":{"Name":"打瀬小学校","Jusho":"千葉県千葉市美浜区打瀬1-3-1","kouzui":"○","gake":"○","takashio":"×","jishin":"○","tsunami":"○","kaji":"×","naisui":"○","kazan":"×"}}
,{"type":"Feature","geometry":{"type":"Point","coordinates":[140.042,35.641]},"properties":{"Name":"海浜打瀬小学校","Jusho":"千葉県千葉市美浜区打瀬3-3-1","kouzui":"○","gake":"○","takashio":"×","jishin":"○","tsunami":"○","kaji":"×","naisui":"○","kazan":"×"}}
,{"type":"Feature","geometry":{"type":"Point","coordinates":[140.045,35.638]},"properties":{"Name":"美浜打瀬小学校","Jusho":"千葉県千葉市美浜区打瀬2-18-1","kouzui":"○","gake":"○","takashio":"×","jishin":"○","tsunami":"○","kaji":"×","naisui":"○","kazan":"×"}}
,{"type":"Feature","geometry":{"type":"Point","coordinates":[140.08,35.625]},"properties":{"Name":"高洲小学校","Jusho":"千葉県千葉市美浜区高洲2-2-20","kouzui":"○","gake":"○","takashio":"○","jishin":"○","tsunami":"○","kaji":"×","naisui":"○","kazan":"×"}}
,{"type":"Feature","geometry":{"type":"Point","coordinates":[140.067,35.638]},"properties":{"Name":"真砂東小学校","Jusho":"千葉県千葉市美浜区真砂2-13-1","kouzui":"○","gake":"○","takashio":"○","jishin":"○","tsunami":"○","kaji":"×","naisui":"○","kazan":"×"}}
,{"type":"Feature","geometry":{"type":"Point","coordinates":[140.059,35.643]},"properties":{"Name":"真砂西小学校","Jusho":"千葉県千葉市美浜区真砂4-5-1","kouzui":"○","gake":"○","takashio":"○","jishin":"○","tsunami":"○","kaji":"×","naisui":"○","kazan":"×"}}
,{"type":"Feature","geometry":{"type":"Point","coordinates":[140.07,35.623]},"properties":{"Name":"高浜海浜小学校","Jusho":"千葉県千葉市美浜区高浜4-8-2","kouzui":"○","gake":"○","takashio":"○","jishin":"○","tsunami":"○","kaji":"×","naisui":"○","kazan":"×"}}
,{"type":"Feature","geometry":{"type":"Point","coordinates":[140.058,35.632]},"properties":{"Name":"磯辺小学校","Jusho":"千葉県千葉市美浜区磯辺4-16-1","kouzui":"○","gake":"○","takashio":"○","jishin":"○","tsunami":"○","kaji":"×","naisui":"○","kazan":"×"}}
,{"type":"Feature","geometry":{"type":"Point","coordinates":[140.091,35.622]},"properties":{"Name":"幸町小学校","Jusho":"千葉県千葉市美浜区幸町2-12-12","kouzui":"○","gake":"○","takashio":"○","jishin":"○","tsunami":"○","kaji":"×","naisui":"○","kazan":"×"}}
,{"type":"Feature","geometry":{"type":"Point","coordinates":[140.088,35.624]},"properties":{"Name":"旧幸町第一小学校（跡施設）","Jusho":"千葉県千葉市美浜区幸町2-17-4","kouzui":"○","gake":"○","takashio":"○","jishin":"○","tsunami":"○","kaji":"×","naisui":"○","kazan":"×"}}
,{"type":"Feature","geometry":{"type":"Point","coordinates":[140.095,35.618]},"properties":{"Name":"旧幸町第二小学校（跡施設）","Jusho":"千葉県千葉市美浜区幸町2-9-4","kouzui":"○","gake":"○","takashio":"○","jishin":"○","tsunami":"○","kaji":"×","naisui":"○","kazan":"×"}}
,{"type":"Feature","geometry":{"type":"Point","coordinates":[140.09,35.621]},"properties":{"Name":"幸町第一中学校","Jusho":"千葉県千葉市美浜区幸町2-12-7","kouzui":"○","gake":"○","takashio":"○","jishin":"○","tsunami":"○","kaji":"×","naisui":"○","kazan":"×"}}
,{"type":"Feature","geometry":{"type":"Point","coordinates":[140.077,35.623]},"properties":{"Name":"高洲第一中学校","Jusho":"千葉県千葉市美浜区高洲2-3-18","kouzui":"○","gake":"○","takashio":"○","jishin":"○","tsunami":"○","kaji":"×","naisui":"○","kazan":"×"}}
,{"type":"Feature","geometry":{"type":"Point","coordinates":[140.037,35.664]},"properties":{"Name":"幕張西中学校","Jusho":"千葉県千葉市美浜区幕張西2-9-1","kouzui":"○","gake":"○","takashio":"○","jishin":"○","tsunami":"○","kaji":"×","naisui":"○","kazan":"×"}}
,{"type":"Feature","geometry":{"type":"Point","coordinates":[140.072,35.633]},"properties":{"Name":"高洲第二中学校","Jusho":"千葉県千葉市美浜区高洲4-4-3","kouzui":"○","gake":"○","takashio":"○","jishin":"○","tsunami":"○","kaji":"×","naisui":"○","kazan":"×"}}
,{"type":"Feature","geometry":{"type":"Point","coordinates":[140.071,35.624]},"properties":{"Name":"高浜中学校","Jusho":"千葉県千葉市美浜区高浜4-8-1","kouzui":"○","gake":"○","takashio":"○","jishin":"○","tsunami":"○","kaji":"×","naisui":"○","kazan":"×"}}
,{"type":"Feature","geometry":{"type":"Point","coordinates":[140.098,35.613]},"properties":{"Name":"幸町第二中学校","Jusho":"千葉県千葉市美浜区幸町1-10-2","kouzui":"○","gake":"○","takashio":"○","jishin":"○","tsunami":"○","kaji":"×","naisui":"○","kazan":"×"}}
,{"type":"Feature","geometry":{"type":"Point","coordinates":[140.082,35.633]},"properties":{"Name":"稲浜中学校","Jusho":"千葉県千葉市美浜区稲毛海岸2-3-3","kouzui":"○","gake":"○","takashio":"○","jishin":"○","tsunami":"○","kaji":"×","naisui":"○","kazan":"×"}}
,{"type":"Feature","geometry":{"type":"Point","coordinates":[140.043,35.637]},"properties":{"Name":"打瀬中学校","Jusho":"千葉県千葉市美浜区打瀬3-12-1","kouzui":"○","gake":"○","takashio":"○","jishin":"○","tsunami":"○","kaji":"×","naisui":"○","kazan":"×"}}
,{"type":"Feature","geometry":{"type":"Point","coordinates":[140.063,35.645]},"properties":{"Name":"真砂中学校","Jusho":"千葉県千葉市美浜区真砂5-18-2","kouzui":"○","gake":"○","takashio":"○","jishin":"○","tsunami":"○","kaji":"×","naisui":"○","kazan":"×"}}
,{"type":"Feature","geometry":{"type":"Point","coordinates":[140.054,35.633]},"properties":{"Name":"磯辺中学校","Jusho":"千葉県千葉市美浜区磯辺7-1-1","kouzui":"○","gake":"○","takashio":"○","jishin":"○","tsunami":"○","kaji":"×","naisui":"○","kazan":"×"}}
,{"type":"Feature","geometry":{"type":"Point","coordinates":[140.062,35.644]},"properties":{"Name":"市立高等特別支援学校","Jusho":"千葉県千葉市美浜区真砂5-18-1","kouzui":"○","gake":"○","takashio":"○","jishin":"○","tsunami":"○","kaji":"×","naisui":"○","kazan":"×"}}
,{"type":"Feature","geometry":{"type":"Point","coordinates":[140.069,35.62]},"properties":{"Name":"市立稲毛高等学校・同附属中学校","Jusho":"千葉県千葉市美浜区高浜3-1-1","kouzui":"○","gake":"○","takashio":"○","jishin":"○","tsunami":"○","kaji":"×","naisui":"○","kazan":"×"}}
,{"type":"Feature","geometry":{"type":"Point","coordinates":[140.053,35.627]},"properties":{"Name":"県立千葉西高等学校","Jusho":"千葉県千葉市美浜区磯辺3-30-3","kouzui":"○","gake":"○","takashio":"○","jishin":"○","tsunami":"○","kaji":"×","naisui":"○","kazan":"×"}}
,{"type":"Feature","geometry":{"type":"Point","coordinates":[140.058,35.626]},"properties":{"Name":"県立磯辺高等学校","Jusho":"千葉県千葉市美浜区磯辺2-7-1","kouzui":"○","gake":"○","takashio":"○","jishin":"○","tsunami":"○","kaji":"×","naisui":"○","kazan":"×"}}
,{"type":"Feature","geometry":{"type":"Point","coordinates":[140.057,35.64]},"properties":{"Name":"県立検見川高等学校","Jusho":"千葉県千葉市美浜区真砂4-17-1","kouzui":"○","gake":"○","takashio":"○","jishin":"○","tsunami":"○","kaji":"×","naisui":"○","kazan":"×"}}
,{"type":"Feature","geometry":{"type":"Point","coordinates":[140.053,35.648]},"properties":{"Name":"県立幕張総合高等学校","Jusho":"千葉県千葉市美浜区若葉3-1-6","kouzui":"○","gake":"○","takashio":"○","jishin":"○","tsunami":"○","kaji":"×","naisui":"○","kazan":"×"}}
,{"type":"Feature","geometry":{"type":"Point","coordinates":[140.054,35.651]},"properties":{"Name":"県立幕張総合高等学校（看護科校舎）","Jusho":"千葉県千葉市美浜区若葉2-10-2","kouzui":"○","gake":"○","takashio":"×","jishin":"○","tsunami":"○","kaji":"×","naisui":"○","kazan":"×"}}
,{"type":"Feature","geometry":{"type":"Point","coordinates":[140.079,35.632]},"properties":{"Name":"稲浜公民館","Jusho":"千葉県千葉市美浜区稲毛海岸3-4-1","kouzui":"○","gake":"○","takashio":"×","jishin":"○","tsunami":"○","kaji":"×","naisui":"○","kazan":"×"}}
,{"type":"Feature","geometry":{"type":"Point","coordinates":[140.036,35.666]},"properties":{"Name":"幕張西公民館","Jusho":"千葉県千葉市美浜区幕張西2-6-2","kouzui":"○","gake":"○","takashio":"×","jishin":"○","tsunami":"○","kaji":"×","naisui":"○","kazan":"×"}}
,{"type":"Feature","geometry":{"type":"Point","coordinates":[140.062,35.628]},"properties":{"Name":"磯辺公民館","Jusho":"千葉県千葉市美浜区磯辺1-48-1","kouzui":"○","gake":"○","takashio":"×","jishin":"○","tsunami":"○","kaji":"×","naisui":"○","kazan":"×"}}
,{"type":"Feature","geometry":{"type":"Point","coordinates":[140.092,35.621]},"properties":{"Name":"幸町公民館","Jusho":"千葉県千葉市美浜区幸町2-12-14","kouzui":"○","gake":"○","takashio":"×","jishin":"○","tsunami":"○","kaji":"×","naisui":"○","kazan":"×"}}
,{"type":"Feature","geometry":{"type":"Point","coordinates":[140.073,35.62]},"properties":{"Name":"高浜公民館","Jusho":"千葉県千葉市美浜区高浜1-8-3","kouzui":"○","gake":"○","takashio":"×","jishin":"○","tsunami":"○","kaji":"×","naisui":"○","kazan":"×"}}
,{"type":"Feature","geometry":{"type":"Point","coordinates":[140.047,35.64]},"properties":{"Name":"打瀬公民館","Jusho":"千葉県千葉市美浜区打瀬2-13","kouzui":"○","gake":"○","takashio":"×","jishin":"○","tsunami":"○","kaji":"×","naisui":"○","kazan":"×"}}
,{"type":"Feature","geometry":{"type":"Point","coordinates":[140.071,35.627]},"properties":{"Name":"高洲コミュニティセンター","Jusho":"千葉県千葉市美浜区高洲3-12-1","kouzui":"○","gake":"○","takashio":"○","jishin":"○","tsunami":"○","kaji":"×","naisui":"○","kazan":"×"}}
,{"type":"Feature","geometry":{"type":"Point","coordinates":[140.069,35.64]},"properties":{"Name":"真砂コミュニティセンター","Jusho":"千葉県千葉市美浜区真砂2-3-1","kouzui":"○","gake":"○","takashio":"○","jishin":"○","tsunami":"○","kaji":"×","naisui":"○","kazan":"×"}}
,{"type":"Feature","geometry":{"type":"Point","coordinates":[140.075,35.634]},"properties":{"Name":"高洲スポーツセンター体育館","Jusho":"千葉県千葉市美浜区高洲4-2-1","kouzui":"○","gake":"○","takashio":"×","jishin":"○","tsunami":"○","kaji":"×","naisui":"○","kazan":"×"}}
,{"type":"Feature","geometry":{"type":"Point","coordinates":[140.062,35.628]},"properties":{"Name":"磯辺スポーツセンター","Jusho":"千葉県千葉市美浜区磯辺1-50-1","kouzui":"○","gake":"○","takashio":"×","jishin":"○","tsunami":"○","kaji":"×","naisui":"○","kazan":"×"}}
,{"type":"Feature","geometry":{"type":"Point","coordinates":[140.05,35.649]},"properties":{"Name":"幕張勤労市民プラザ","Jusho":"千葉県千葉市美浜区若葉3-1-8","kouzui":"○","gake":"○","takashio":"×","jishin":"○","tsunami":"○","kaji":"×","naisui":"○","kazan":"×"}}
,{"type":"Feature","geometry":{"type":"Point","coordinates":[140.064,35.63]},"properties":{"Name":"磯辺公園","Jusho":"千葉県千葉市美浜区磯辺1-26","kouzui":"○","gake":"○","takashio":"×","jishin":"○","tsunami":"○","kaji":"×","naisui":"○","kazan":"×"}}
,{"type":"Feature","geometry":{"type":"Point","coordinates":[140.055,35.637]},"properties":{"Name":"北磯辺公園","Jusho":"千葉県千葉市美浜区磯辺6-4","kouzui":"○","gake":"○","takashio":"×","jishin":"○","tsunami":"○","kaji":"×","naisui":"○","kazan":"×"}}
,{"type":"Feature","geometry":{"type":"Point","coordinates":[140.064,35.626]},"properties":{"Name":"北高浜公園","Jusho":"千葉県千葉市美浜区高浜5-19","kouzui":"○","gake":"○","takashio":"×","jishin":"○","tsunami":"○","kaji":"×","naisui":"○","kazan":"×"}}
,{"type":"Feature","geometry":{"type":"Point","coordinates":[140.076,35.628]},"properties":{"Name":"高洲公園","Jusho":"千葉県千葉市美浜区高洲3-2","kouzui":"○","gake":"○","takashio":"×","jishin":"○","tsunami":"○","kaji":"×","naisui":"○","kazan":"×"}}
,{"type":"Feature","geometry":{"type":"Point","coordinates":[140.074,35.62]},"properties":{"Name":"高浜公園","Jusho":"千葉県千葉市美浜区高浜1-8","kouzui":"○","gake":"○","takashio":"×","jishin":"○","tsunami":"○","kaji":"×","naisui":"○","kazan":"×"}}
,{"type":"Feature","geometry":{"type":"Point","coordinates":[140.056,35.63]},"properties":{"Name":"中磯辺公園","Jusho":"千葉県千葉市美浜区磯辺4-27","kouzui":"○","gake":"○","takashio":"×","jishin":"○","tsunami":"○","kaji":"×","naisui":"○","kazan":"×"}}
,{"type":"Feature","geometry":{"type":"Point","coordinates":[140.068,35.622]},"properties":{"Name":"中高浜公園","Jusho":"千葉県千葉市美浜区高浜4-6","kouzui":"○","gake":"○","takashio":"×","jishin":"○","tsunami":"○","kaji":"×","naisui":"○","kazan":"×"}}
,{"type":"Feature","geometry":{"type":"Point","coordinates":[140.032,35.657]},"properties":{"Name":"浜田公園","Jusho":"千葉県千葉市美浜区浜田2-126","kouzui":"○","gake":"○","takashio":"×","jishin":"○","tsunami":"○","kaji":"×","naisui":"○","kazan":"×"}}
,{"type":"Feature","geometry":{"type":"Point","coordinates":[140.04,35.663]},"properties":{"Name":"幕張西第2公園","Jusho":"千葉県千葉市美浜区幕張西3-4","kouzui":"○","gake":"○","takashio":"×","jishin":"○","tsunami":"○","kaji":"×","naisui":"○","kazan":"×"}}
,{"type":"Feature","geometry":{"type":"Point","coordinates":[140.032,35.663]},"properties":{"Name":"幕張西第3公園","Jusho":"千葉県千葉市美浜区幕張西6-2-1","kouzui":"○","gake":"○","takashio":"×","jishin":"○","tsunami":"○","kaji":"×","naisui":"○","kazan":"×"}}
,{"type":"Feature","geometry":{"type":"Point","coordinates":[140.069,35.634]},"properties":{"Name":"真砂公園","Jusho":"千葉県千葉市美浜区真砂1-11","kouzui":"○","gake":"○","takashio":"×","jishin":"○","tsunami":"○","kaji":"×","naisui":"○","kazan":"×"}}
,{"type":"Feature","geometry":{"type":"Point","coordinates":[140.065,35.62]},"properties":{"Name":"南高浜公園","Jusho":"千葉県千葉市美浜区高浜3-2","kouzui":"○","gake":"○","takashio":"×","jishin":"○","tsunami":"○","kaji":"×","naisui":"○","kazan":"×"}}
,{"type":"Feature","geometry":{"type":"Point","coordinates":[140.099,35.617]},"properties":{"Name":"綜警千葉ビル","Jusho":"千葉県千葉市美浜区幸町1-26-5","kouzui":"×","gake":"×","takashio":"×","jishin":"×","tsunami":"○","kaji":"×","naisui":"×","kazan":"×"}}
,{"type":"Feature","geometry":{"type":"Point","coordinates":[140.073,35.609]},"properties":{"Name":"新港清掃工場","Jusho":"千葉県千葉市美浜区新港226-1","kouzui":"×","gake":"×","takashio":"×","jishin":"×","tsunami":"○","kaji":"×","naisui":"×","kazan":"×"}}
,{"type":"Feature","geometry":{"type":"Point","coordinates":[140.071,35.616]},"properties":{"Name":"地方卸売市場","Jusho":"千葉県千葉市美浜区高浜2-2-1","kouzui":"×","gake":"×","takashio":"×","jishin":"×","tsunami":"○","kaji":"×","naisui":"×","kazan":"×"}}
,{"type":"Feature","geometry":{"type":"Point","coordinates":[140.044,35.646]},"properties":{"Name":"幕張海浜公園","Jusho":"千葉県千葉市美浜区ひび野2","kouzui":"○","gake":"○","takashio":"×","jishin":"○","tsunami":"○","kaji":"○","naisui":"○","kazan":"×"}}
,{"type":"Feature","geometry":{"type":"Point","coordinates":[140.064,35.642]},"properties":{"Name":"真砂中央公園","Jusho":"千葉県千葉市美浜区真砂5-15","kouzui":"○","gake":"○","takashio":"×","jishin":"○","tsunami":"○","kaji":"○","naisui":"○","kazan":"×"}}
,{"type":"Feature","geometry":{"type":"Point","coordinates":[140.063,35.645]},"properties":{"Name":"真砂中学校一帯","Jusho":"千葉県千葉市美浜区真砂5-18-2他","kouzui":"○","gake":"○","takashio":"○","jishin":"○","tsunami":"○","kaji":"○","naisui":"○","kazan":"×"}}
,{"type":"Feature","geometry":{"type":"Point","coordinates":[140.071,35.636]},"properties":{"Name":"東京歯科大学一帯（※建物を含まない）","Jusho":"千葉県千葉市美浜区真砂1-2-2他","kouzui":"○","gake":"○","takashio":"×","jishin":"○","tsunami":"○","kaji":"○","naisui":"○","kazan":"×"}}
,{"type":"Feature","geometry":{"type":"Point","coordinates":[140.038,35.665]},"properties":{"Name":"幕張西小学校一帯","Jusho":"千葉県千葉市美浜区幕張西2-8-1他","kouzui":"○","gake":"○","takashio":"○","jishin":"○","tsunami":"○","kaji":"○","naisui":"○","kazan":"×"}}
,{"type":"Feature","geometry":{"type":"Point","coordinates":[140.084,35.631]},"properties":{"Name":"稲毛海岸公園一帯","Jusho":"千葉県千葉市美浜区稲毛海岸2-3他","kouzui":"○","gake":"○","takashio":"○","jishin":"○","tsunami":"○","kaji":"○","naisui":"○","kazan":"×"}}
,{"type":"Feature","geometry":{"type":"Point","coordinates":[140.098,35.613]},"properties":{"Name":"幸町第二中学校一帯","Jusho":"千葉県千葉市美浜区幸町1-10-2他","kouzui":"○","gake":"○","takashio":"○","jishin":"○","tsunami":"○","kaji":"○","naisui":"○","kazan":"×"}}
,{"type":"Feature","geometry":{"type":"Point","coordinates":[140.09,35.621]},"properties":{"Name":"幸町第一中学校一帯","Jusho":"千葉県千葉市美浜区幸町2-12-7他","kouzui":"○","gake":"○","takashio":"○","jishin":"○","tsunami":"○","kaji":"○","naisui":"○","kazan":"×"}}
,{"type":"Feature","geometry":{"type":"Point","coordinates":[140.043,35.657]},"properties":{"Name":"神田外語大学（※建物を含まない）","Jusho":"千葉県千葉市美浜区若葉1-4-1","kouzui":"○","gake":"○","takashio":"×","jishin":"○","tsunami":"○","kaji":"○","naisui":"○","kazan":"×"}}
,{"type":"Feature","geometry":{"type":"Point","coordinates":[139.957,35.772]},"properties":{"Name":"大町小学校","Jusho":"千葉県市川市大町84-10","kouzui":"○","gake":"○","takashio":"○","jishin":"○","tsunami":"○","kaji":"×","naisui":"○","kazan":"×"}}
,{"type":"Feature","geometry":{"type":"Point","coordinates":[139.954,35.75]},"properties":{"Name":"大柏小学校","Jusho":"千葉県市川市大野町2-1877","kouzui":"○","gake":"○","takashio":"○","jishin":"○","tsunami":"○","kaji":"×","naisui":"○","kazan":"×"}}
,{"type":"Feature","geometry":{"type":"Point","coordinates":[139.951,35.742]},"properties":{"Name":"大野小学校","Jusho":"千葉県市川市南大野1-42-1","kouzui":"○","gake":"○","takashio":"○","jishin":"○","tsunami":"○","kaji":"×","naisui":"○","kazan":"×"}}
,{"type":"Feature","geometry":{"type":"Point","coordinates":[139.967,35.74]},"properties":{"Name":"柏井小学校","Jusho":"千葉県市川市柏井町1-1149-1","kouzui":"○","gake":"○","takashio":"○","jishin":"○","tsunami":"○","kaji":"×","naisui":"○","kazan":"×"}}
,{"type":"Feature","geometry":{"type":"Point","coordinates":[139.944,35.737]},"properties":{"Name":"宮久保小学校","Jusho":"千葉県市川市宮久保5-7-1","kouzui":"○","gake":"○","takashio":"○","jishin":"○","tsunami":"○","kaji":"×","naisui":"○","kazan":"×"}}
,{"type":"Feature","geometry":{"type":"Point","coordinates":[139.946,35.733]},"properties":{"Name":"北方小学校","Jusho":"千葉県市川市北方町4-1356-1","kouzui":"○","gake":"○","takashio":"○","jishin":"○","tsunami":"○","kaji":"×","naisui":"○","kazan":"×"}}
,{"type":"Feature","geometry":{"type":"Point","coordinates":[139.921,35.745]},"properties":{"Name":"国分小学校","Jusho":"千葉県市川市東国分2-4-1","kouzui":"○","gake":"○","takashio":"○","jishin":"○","tsunami":"○","kaji":"×","naisui":"○","kazan":"×"}}
,{"type":"Feature","geometry":{"type":"Point","coordinates":[139.924,35.754]},"properties":{"Name":"稲越小学校","Jusho":"千葉県市川市稲越町518-2","kouzui":"○","gake":"○","takashio":"○","jishin":"○","tsunami":"○","kaji":"×","naisui":"○","kazan":"×"}}
,{"type":"Feature","geometry":{"type":"Point","coordinates":[139.927,35.747]},"properties":{"Name":"曽谷小学校","Jusho":"千葉県市川市曽谷7-18-1","kouzui":"○","gake":"○","takashio":"○","jishin":"○","tsunami":"○","kaji":"×","naisui":"○","kazan":"×"}}
,{"type":"Feature","geometry":{"type":"Point","coordinates":[139.927,35.74]},"properties":{"Name":"百合台小学校","Jusho":"千葉県市川市曽谷6-10-1","kouzui":"○","gake":"○","takashio":"○","jishin":"○","tsunami":"○","kaji":"×","naisui":"○","kazan":"×"}}
,{"type":"Feature","geometry":{"type":"Point","coordinates":[139.916,35.754]},"properties":{"Name":"中国分小学校","Jusho":"千葉県市川市中国分1-22-1","kouzui":"○","gake":"○","takashio":"○","jishin":"○","tsunami":"○","kaji":"×","naisui":"○","kazan":"×"}}
,{"type":"Feature","geometry":{"type":"Point","coordinates":[139.903,35.754]},"properties":{"Name":"国府台小学校","Jusho":"千葉県市川市国府台5-25-4","kouzui":"○","gake":"○","takashio":"○","jishin":"○","tsunami":"○","kaji":"×","naisui":"○","kazan":"×"}}
,{"type":"Feature","geometry":{"type":"Point","coordinates":[139.91,35.738]},"properties":{"Name":"真間小学校","Jusho":"千葉県市川市真間4-1-1","kouzui":"○","gake":"○","takashio":"○","jishin":"○","tsunami":"○","kaji":"×","naisui":"○","kazan":"×"}}
,{"type":"Feature","geometry":{"type":"Point","coordinates":[139.905,35.732]},"properties":{"Name":"市川小学校","Jusho":"千葉県市川市市川2-32-5","kouzui":"○","gake":"○","takashio":"○","jishin":"○","tsunami":"○","kaji":"×","naisui":"○","kazan":"×"}}
,{"type":"Feature","geometry":{"type":"Point","coordinates":[139.917,35.735]},"properties":{"Name":"菅野小学校","Jusho":"千葉県市川市菅野6-14-1","kouzui":"○","gake":"○","takashio":"○","jishin":"○","tsunami":"○","kaji":"×","naisui":"○","kazan":"×"}}
,{"type":"Feature","geometry":{"type":"Point","coordinates":[139.928,35.726]},"properties":{"Name":"八幡小学校","Jusho":"千葉県市川市八幡3-24-1","kouzui":"○","gake":"○","takashio":"○","jishin":"○","tsunami":"○","kaji":"×","naisui":"○","kazan":"×"}}
,{"type":"Feature","geometry":{"type":"Point","coordinates":[139.952,35.727]},"properties":{"Name":"若宮小学校","Jusho":"千葉県市川市若宮3-54-10","kouzui":"○","gake":"○","takashio":"○","jishin":"○","tsunami":"○","kaji":"×","naisui":"○","kazan":"×"}}
,{"type":"Feature","geometry":{"type":"Point","coordinates":[139.938,35.727]},"properties":{"Name":"冨貴島小学校","Jusho":"千葉県市川市八幡6-10-11","kouzui":"○","gake":"○","takashio":"○","jishin":"○","tsunami":"○","kaji":"×","naisui":"○","kazan":"×"}}
,{"type":"Feature","geometry":{"type":"Point","coordinates":[139.944,35.721]},"properties":{"Name":"中山小学校","Jusho":"千葉県市川市中山1-1-5","kouzui":"○","gake":"○","takashio":"○","jishin":"○","tsunami":"○","kaji":"×","naisui":"○","kazan":"×"}}
,{"type":"Feature","geometry":{"type":"Point","coordinates":[139.918,35.724]},"properties":{"Name":"平田小学校","Jusho":"千葉県市川市平田3-28-1","kouzui":"○","gake":"○","takashio":"○","jishin":"○","tsunami":"○","kaji":"×","naisui":"○","kazan":"×"}}
,{"type":"Feature","geometry":{"type":"Point","coordinates":[139.909,35.727]},"properties":{"Name":"宮田小学校","Jusho":"千葉県市川市新田4-8-15","kouzui":"○","gake":"○","takashio":"○","jishin":"○","tsunami":"○","kaji":"×","naisui":"○","kazan":"×"}}
,{"type":"Feature","geometry":{"type":"Point","coordinates":[139.922,35.718]},"properties":{"Name":"大和田小学校","Jusho":"千葉県市川市大和田1-1-3","kouzui":"○","gake":"○","takashio":"○","jishin":"○","tsunami":"○","kaji":"×","naisui":"○","kazan":"×"}}
,{"type":"Feature","geometry":{"type":"Point","coordinates":[139.907,35.723]},"properties":{"Name":"大洲小学校","Jusho":"千葉県市川市大洲4-18-1","kouzui":"○","gake":"○","takashio":"○","jishin":"○","tsunami":"○","kaji":"×","naisui":"○","kazan":"×"}}
,{"type":"Feature","geometry":{"type":"Point","coordinates":[139.916,35.718]},"properties":{"Name":"鶴指小学校","Jusho":"千葉県市川市大和田4-11-1","kouzui":"○","gake":"○","takashio":"○","jishin":"○","tsunami":"○","kaji":"×","naisui":"○","kazan":"×"}}
,{"type":"Feature","geometry":{"type":"Point","coordinates":[139.938,35.714]},"properties":{"Name":"鬼高小学校","Jusho":"千葉県市川市鬼高2-13-5","kouzui":"○","gake":"○","takashio":"○","jishin":"○","tsunami":"○","kaji":"×","naisui":"○","kazan":"×"}}
,{"type":"Feature","geometry":{"type":"Point","coordinates":[139.922,35.712]},"properties":{"Name":"稲荷木小学校","Jusho":"千葉県市川市稲荷木1-14-1","kouzui":"○","gake":"○","takashio":"○","jishin":"○","tsunami":"○","kaji":"×","naisui":"○","kazan":"×"}}
,{"type":"Feature","geometry":{"type":"Point","coordinates":[139.944,35.698]},"properties":{"Name":"信篤小学校","Jusho":"千葉県市川市原木2-16-1","kouzui":"○","gake":"○","takashio":"○","jishin":"○","tsunami":"○","kaji":"×","naisui":"○","kazan":"×"}}
,{"type":"Feature","geometry":{"type":"Point","coordinates":[139.957,35.697]},"properties":{"Name":"二俣小学校","Jusho":"千葉県市川市二俣678","kouzui":"○","gake":"○","takashio":"○","jishin":"○","tsunami":"○","kaji":"×","naisui":"○","kazan":"×"}}
,{"type":"Feature","geometry":{"type":"Point","coordinates":[139.93,35.696]},"properties":{"Name":"妙典小学校","Jusho":"千葉県市川市妙典2-14-2","kouzui":"○","gake":"×","takashio":"○","jishin":"○","tsunami":"○","kaji":"×","naisui":"○","kazan":"×"}}
,{"type":"Feature","geometry":{"type":"Point","coordinates":[139.924,35.693]},"properties":{"Name":"行徳小学校","Jusho":"千葉県市川市富浜1-1-40","kouzui":"○","gake":"×","takashio":"○","jishin":"○","tsunami":"○","kaji":"×","naisui":"○","kazan":"×"}}
,{"type":"Feature","geometry":{"type":"Point","coordinates":[139.93,35.681]},"properties":{"Name":"幸小学校","Jusho":"千葉県市川市幸1-11-1","kouzui":"○","gake":"×","takashio":"○","jishin":"○","tsunami":"○","kaji":"×","naisui":"○","kazan":"×"}}
,{"type":"Feature","geometry":{"type":"Point","coordinates":[139.902,35.68]},"properties":{"Name":"南行徳小学校","Jusho":"千葉県市川市欠真間1-6-38","kouzui":"○","gake":"×","takashio":"○","jishin":"○","tsunami":"○","kaji":"×","naisui":"○","kazan":"×"}}
,{"type":"Feature","geometry":{"type":"Point","coordinates":[139.916,35.68]},"properties":{"Name":"新浜小学校","Jusho":"千葉県市川市行徳駅前4-5-1","kouzui":"○","gake":"×","takashio":"○","jishin":"○","tsunami":"○","kaji":"×","naisui":"○","kazan":"×"}}
,{"type":"Feature","geometry":{"type":"Point","coordinates":[139.917,35.675]},"properties":{"Name":"南新浜小学校","Jusho":"千葉県市川市新浜1-26-1","kouzui":"○","gake":"×","takashio":"○","jishin":"○","tsunami":"○","kaji":"×","naisui":"○","kazan":"×"}}
,{"type":"Feature","geometry":{"type":"Point","coordinates":[139.93,35.684]},"properties":{"Name":"塩焼小学校","Jusho":"千葉県市川市塩焼5-9-8","kouzui":"○","gake":"×","takashio":"○","jishin":"○","tsunami":"○","kaji":"×","naisui":"○","kazan":"×"}}
,{"type":"Feature","geometry":{"type":"Point","coordinates":[139.891,35.674]},"properties":{"Name":"新井小学校","Jusho":"千葉県市川市新井1-18-13","kouzui":"○","gake":"×","takashio":"○","jishin":"○","tsunami":"○","kaji":"×","naisui":"○","kazan":"×"}}
,{"type":"Feature","geometry":{"type":"Point","coordinates":[139.905,35.672]},"properties":{"Name":"富美浜小学校","Jusho":"千葉県市川市南行徳2-3-1","kouzui":"○","gake":"×","takashio":"○","jishin":"○","tsunami":"○","kaji":"×","naisui":"○","kazan":"×"}}
,{"type":"Feature","geometry":{"type":"Point","coordinates":[139.907,35.672]},"properties":{"Name":"福栄小学校","Jusho":"千葉県市川市南行徳2-2-1","kouzui":"○","gake":"×","takashio":"○","jishin":"○","tsunami":"○","kaji":"×","naisui":"○","kazan":"×"}}
,{"type":"Feature","geometry":{"type":"Point","coordinates":[139.914,35.665]},"properties":{"Name":"塩浜学園（小）","Jusho":"千葉県市川市塩浜4-5-1","kouzui":"○","gake":"×","takashio":"○","jishin":"○","tsunami":"○","kaji":"×","naisui":"○","kazan":"×"}}
,{"type":"Feature","geometry":{"type":"Point","coordinates":[139.901,35.745]},"properties":{"Name":"第一中学校","Jusho":"千葉県市川市国府台2-7-1","kouzui":"○","gake":"○","takashio":"○","jishin":"○","tsunami":"○","kaji":"×","naisui":"○","kazan":"×"}}
,{"type":"Feature","geometry":{"type":"Point","coordinates":[139.914,35.739]},"properties":{"Name":"第二中学校","Jusho":"千葉県市川市須和田2-34-1","kouzui":"○","gake":"○","takashio":"○","jishin":"○","tsunami":"○","kaji":"×","naisui":"○","kazan":"×"}}
,{"type":"Feature","geometry":{"type":"Point","coordinates":[139.933,35.74]},"properties":{"Name":"第三中学校","Jusho":"千葉県市川市曽谷3-2-1","kouzui":"○","gake":"○","takashio":"○","jishin":"○","tsunami":"○","kaji":"×","naisui":"○","kazan":"×"}}
,{"type":"Feature","geometry":{"type":"Point","coordinates":[139.946,35.722]},"properties":{"Name":"第四中学校","Jusho":"千葉県市川市中山1-11-1","kouzui":"○","gake":"○","takashio":"○","jishin":"○","tsunami":"○","kaji":"×","naisui":"○","kazan":"×"}}
,{"type":"Feature","geometry":{"type":"Point","coordinates":[139.957,35.753]},"properties":{"Name":"第五中学校","Jusho":"千葉県市川市大野町3-1993","kouzui":"○","gake":"○","takashio":"○","jishin":"○","tsunami":"○","kaji":"×","naisui":"○","kazan":"×"}}
,{"type":"Feature","geometry":{"type":"Point","coordinates":[139.936,35.711]},"properties":{"Name":"第六中学校","Jusho":"千葉県市川市鬼高3-16-1","kouzui":"○","gake":"○","takashio":"○","jishin":"○","tsunami":"○","kaji":"×","naisui":"○","kazan":"×"}}
,{"type":"Feature","geometry":{"type":"Point","coordinates":[139.917,35.687]},"properties":{"Name":"第七中学校","Jusho":"千葉県市川市末広1-1-48","kouzui":"○","gake":"×","takashio":"○","jishin":"○","tsunami":"○","kaji":"×","naisui":"○","kazan":"×"}}
,{"type":"Feature","geometry":{"type":"Point","coordinates":[139.915,35.719]},"properties":{"Name":"第八中学校","Jusho":"千葉県市川市大和田4-9-1","kouzui":"○","gake":"○","takashio":"○","jishin":"○","tsunami":"○","kaji":"×","naisui":"○","kazan":"×"}}
,{"type":"Feature","geometry":{"type":"Point","coordinates":[139.923,35.749]},"properties":{"Name":"東国分中学校","Jusho":"千葉県市川市東国分3-5-1","kouzui":"○","gake":"○","takashio":"○","jishin":"○","tsunami":"○","kaji":"×","naisui":"○","kazan":"×"}}
,{"type":"Feature","geometry":{"type":"Point","coordinates":[139.946,35.74]},"properties":{"Name":"下貝塚中学校","Jusho":"千葉県市川市下貝塚3-13-1","kouzui":"○","gake":"○","takashio":"○","jishin":"○","tsunami":"○","kaji":"×","naisui":"○","kazan":"×"}}
,{"type":"Feature","geometry":{"type":"Point","coordinates":[139.945,35.695]},