var tokyo={"type":"FeatureCollection","name":"tokyo","features":[
{"type":"Feature","geometry":{"type":"Point","coordinates":[139.757,35.694]},"properties":{"Name":"神田一橋中学校","Jusho":"東京都千代田区一ツ橋2-6-14","kouzui":"○","gake":"○","takashio":"×","jishin":"○","tsunami":"×","kaji":"×","naisui":"○","kazan":"×"}}
,{"type":"Feature","geometry":{"type":"Point","coordinates":[139.741,35.676]},"properties":{"Name":"都立日比谷高校","Jusho":"東京都千代田区永田町2-16-1","kouzui":"×","gake":"×","takashio":"×","jishin":"○","tsunami":"×","kaji":"×","naisui":"×","kazan":"×"}}
,{"type":"Feature","geometry":{"type":"Point","coordinates":[139.77,35.701]},"properties":{"Name":"昌平童夢館","Jusho":"東京都千代田区外神田3-4-7","kouzui":"×","gake":"○","takashio":"○","jishin":"○","tsunami":"×","kaji":"×","naisui":"○","kazan":"×"}}
,{"type":"Feature","geometry":{"type":"Point","coordinates":[139.771,35.704]},"properties":{"Name":"旧アーツ千代田３３３１","Jusho":"東京都千代田区外神田6-11-14","kouzui":"×","gake":"×","takashio":"○","jishin":"○","tsunami":"×","kaji":"×","naisui":"○","kazan":"×"}}
,{"type":"Feature","geometry":{"type":"Point","coordinates":[139.778,35.694]},"properties":{"Name":"岩本町ほほえみプラザ","Jusho":"東京都千代田区岩本町2-15-3","kouzui":"×","gake":"×","takashio":"×","jishin":"○","tsunami":"×","kaji":"×","naisui":"○","kazan":"×"}}
,{"type":"Feature","geometry":{"type":"Point","coordinates":[139.752,35.695]},"properties":{"Name":"九段生涯学習館","Jusho":"東京都千代田区九段南1-5-10","kouzui":"×","gake":"×","takashio":"×","jishin":"○","tsunami":"×","kaji":"×","naisui":"×","kazan":"×"}}
,{"type":"Feature","geometry":{"type":"Point","coordinates":[139.74,35.685]},"properties":{"Name":"麹町小学校","Jusho":"東京都千代田区麹町2-8","kouzui":"○","gake":"○","takashio":"○","jishin":"○","tsunami":"×","kaji":"×","naisui":"○","kazan":"×"}}
,{"type":"Feature","geometry":{"type":"Point","coordinates":[139.741,35.691]},"properties":{"Name":"九段小学校","Jusho":"東京都千代田区三番町16","kouzui":"○","gake":"○","takashio":"○","jishin":"○","tsunami":"×","kaji":"×","naisui":"○","kazan":"×"}}
,{"type":"Feature","geometry":{"type":"Point","coordinates":[139.76,35.697]},"properties":{"Name":"お茶の水小学校","Jusho":"東京都千代田区神田猿楽町1-1-1","kouzui":"○","gake":"○","takashio":"○","jishin":"○","tsunami":"×","kaji":"×","naisui":"○","kazan":"×"}}
,{"type":"Feature","geometry":{"type":"Point","coordinates":[139.769,35.693]},"properties":{"Name":"神田さくら館","Jusho":"東京都千代田区神田司町2-16","kouzui":"○","gake":"×","takashio":"○","jishin":"○","tsunami":"×","kaji":"×","naisui":"○","kazan":"×"}}
,{"type":"Feature","geometry":{"type":"Point","coordinates":[139.779,35.699]},"properties":{"Name":"ちよだパークサイドプラザ","Jusho":"東京都千代田区神田和泉町1","kouzui":"×","gake":"×","takashio":"×","jishin":"○","tsunami":"×","kaji":"×","naisui":"○","kazan":"×"}}
,{"type":"Feature","geometry":{"type":"Point","coordinates":[139.773,35.692]},"properties":{"Name":"旧今川中学校","Jusho":"東京都千代田区鍛冶町2-4-2","kouzui":"×","gake":"×","takashio":"○","jishin":"○","tsunami":"×","kaji":"×","naisui":"○","kazan":"×"}}
,{"type":"Feature","geometry":{"type":"Point","coordinates":[139.781,35.695]},"properties":{"Name":"都立一橋高校","Jusho":"東京都千代田区東神田1-12-13","kouzui":"×","gake":"×","takashio":"○","jishin":"○","tsunami":"×","kaji":"×","naisui":"○","kazan":"×"}}
,{"type":"Feature","geometry":{"type":"Point","coordinates":[139.768,35.689]},"properties":{"Name":"区立スポーツセンター","Jusho":"東京都千代田区内神田2-1-8","kouzui":"○","gake":"×","takashio":"○","jishin":"○","tsunami":"×","kaji":"×","naisui":"○","kazan":"×"}}
,{"type":"Feature","geometry":{"type":"Point","coordinates":[139.746,35.697]},"properties":{"Name":"富士見みらい館","Jusho":"東京都千代田区富士見1-10-3","kouzui":"○","gake":"○","takashio":"○","jishin":"○","tsunami":"×","kaji":"×","naisui":"○","kazan":"×"}}
,{"type":"Feature","geometry":{"type":"Point","coordinates":[139.739,35.681]},"properties":{"Name":"麹町中学校","Jusho":"東京都千代田区平河町2-5-1","kouzui":"○","gake":"○","takashio":"○","jishin":"○","tsunami":"×","kaji":"×","naisui":"○","kazan":"×"}}
,{"type":"Feature","geometry":{"type":"Point","coordinates":[139.734,35.688]},"properties":{"Name":"番町小学校","Jusho":"東京都千代田区六番町8","kouzui":"○","gake":"×","takashio":"○","jishin":"○","tsunami":"×","kaji":"×","naisui":"○","kazan":"×"}}
,{"type":"Feature","geometry":{"type":"Point","coordinates":[139.772,35.673]},"properties":{"Name":"京橋プラザ","Jusho":"東京都中央区銀座1-25-3","kouzui":"○","gake":"×","takashio":"○","jishin":"○","tsunami":"×","kaji":"×","naisui":"○","kazan":"×"}}
,{"type":"Feature","geometry":{"type":"Point","coordinates":[139.761,35.672]},"properties":{"Name":"泰明小学校","Jusho":"東京都中央区銀座5-1-13","kouzui":"○","gake":"×","takashio":"○","jishin":"○","tsunami":"×","kaji":"×","naisui":"○","kazan":"×"}}
,{"type":"Feature","geometry":{"type":"Point","coordinates":[139.765,35.665]},"properties":{"Name":"銀座中学校","Jusho":"東京都中央区銀座8-19-15","kouzui":"○","gake":"×","takashio":"○","jishin":"○","tsunami":"×","kaji":"×","naisui":"○","kazan":"×"}}
,{"type":"Feature","geometry":{"type":"Point","coordinates":[139.782,35.662]},"properties":{"Name":"月島区民センター","Jusho":"東京都中央区月島4-1-1","kouzui":"○","gake":"×","takashio":"○","jishin":"×","tsunami":"○","kaji":"×","naisui":"○","kazan":"×"}}
,{"type":"Feature","geometry":{"type":"Point","coordinates":[139.78,35.661]},"properties":{"Name":"月島第一小学校","Jusho":"東京都中央区月島4-15-1","kouzui":"○","gake":"×","takashio":"○","jishin":"○","tsunami":"○","kaji":"×","naisui":"○","kazan":"×"}}
,{"type":"Feature","geometry":{"type":"Point","coordinates":[139.776,35.66]},"properties":{"Name":"月島第二小学校","Jusho":"東京都中央区勝どき1-12-2","kouzui":"○","gake":"×","takashio":"○","jishin":"○","tsunami":"○","kaji":"×","naisui":"○","kazan":"×"}}
,{"type":"Feature","geometry":{"type":"Point","coordinates":[139.784,35.674]},"properties":{"Name":"新川ツインビル地区","Jusho":"東京都中央区新川","kouzui":"×","gake":"×","takashio":"×","jishin":"×","tsunami":"×","kaji":"○","naisui":"×","kazan":"×"}}
,{"type":"Feature","geometry":{"type":"Point","coordinates":[139.782,35.676]},"properties":{"Name":"明正小学校","Jusho":"東京都中央区新川2-13-4","kouzui":"○","gake":"×","takashio":"○","jishin":"○","tsunami":"×","kaji":"×","naisui":"○","kazan":"×"}}
,{"type":"Feature","geometry":{"type":"Point","coordinates":[139.782,35.655]},"properties":{"Name":"晴海地区","Jusho":"東京都中央区晴海","kouzui":"×","gake":"×","takashio":"×","jishin":"×","tsunami":"×","kaji":"○","naisui":"×","kazan":"×"}}
,{"type":"Feature","geometry":{"type":"Point","coordinates":[139.786,35.659]},"properties":{"Name":"月島第三小学校","Jusho":"東京都中央区晴海1-4-1","kouzui":"○","gake":"×","takashio":"○","jishin":"○","tsunami":"×","kaji":"×","naisui":"○","kazan":"×"}}
,{"type":"Feature","geometry":{"type":"Point","coordinates":[139.785,35.66]},"properties":{"Name":"晴海中学校","Jusho":"東京都中央区晴海1-5-3","kouzui":"○","gake":"×","takashio":"○","jishin":"○","tsunami":"×","kaji":"×","naisui":"○","kazan":"×"}}
,{"type":"Feature","geometry":{"type":"Point","coordinates":[139.775,35.652]},"properties":{"Name":"（旧）ほっとプラザはるみ","Jusho":"東京都中央区晴海5-2-3","kouzui":"○","gake":"×","takashio":"○","jishin":"○","tsunami":"×","kaji":"×","naisui":"○","kazan":"×"}}
,{"type":"Feature","geometry":{"type":"Point","coordinates":[139.777,35.666]},"properties":{"Name":"あかつき公園一帯","Jusho":"東京都中央区築地","kouzui":"×","gake":"×","takashio":"×","jishin":"×","tsunami":"×","kaji":"○","naisui":"×","kazan":"×"}}
,{"type":"Feature","geometry":{"type":"Point","coordinates":[139.772,35.671]},"properties":{"Name":"中央区役所","Jusho":"東京都中央区築地1-1-1","kouzui":"○","gake":"×","takashio":"○","jishin":"×","tsunami":"×","kaji":"×","naisui":"○","kazan":"×"}}
,{"type":"Feature","geometry":{"type":"Point","coordinates":[139.771,35.668]},"properties":{"Name":"京橋築地小学校","Jusho":"東京都中央区築地2-13-1","kouzui":"○","gake":"×","takashio":"○","jishin":"○","tsunami":"×","kaji":"×","naisui":"○","kazan":"×"}}
,{"type":"Feature","geometry":{"type":"Point","coordinates":[139.785,35.671]},"properties":{"Name":"佃リバーシティ地区","Jusho":"東京都中央区佃","kouzui":"×","gake":"×","takashio":"×","jishin":"×","tsunami":"×","kaji":"○","naisui":"×","kazan":"×"}}
,{"type":"Feature","geometry":{"type":"Point","coordinates":[139.785,35.669]},"properties":{"Name":"佃島小学校","Jusho":"東京都中央区佃2-3-1","kouzui":"○","gake":"×","takashio":"○","jishin":"○","tsunami":"○","kaji":"×","naisui":"○","kazan":"×"}}
,{"type":"Feature","geometry":{"type":"Point","coordinates":[139.785,35.668]},"properties":{"Name":"佃中学校","Jusho":"東京都中央区佃2-3-2","kouzui":"○","gake":"×","takashio":"○","jishin":"○","tsunami":"○","kaji":"×","naisui":"○","kazan":"×"}}
,{"type":"Feature","geometry":{"type":"Point","coordinates":[139.787,35.692]},"properties":{"Name":"日本橋中学校","Jusho":"東京都中央区東日本橋1-10-1","kouzui":"○","gake":"×","takashio":"○","jishin":"○","tsunami":"×","kaji":"×","naisui":"○","kazan":"×"}}
,{"type":"Feature","geometry":{"type":"Point","coordinates":[139.784,35.682]},"properties":{"Name":"日本橋区民センター","Jusho":"東京都中央区日本橋蛎殻町1-31-1","kouzui":"○","gake":"×","takashio":"○","jishin":"×","tsunami":"×","kaji":"×","naisui":"○","kazan":"×"}}
,{"type":"Feature","geometry":{"type":"Point","coordinates":[139.788,35.683]},"properties":{"Name":"有馬小学校","Jusho":"東京都中央区日本橋蛎殻町2-10-23","kouzui":"○","gake":"×","takashio":"○","jishin":"○","tsunami":"×","kaji":"×","naisui":"○","kazan":"×"}}
,{"type":"Feature","geometry":{"type":"Point","coordinates":[139.777,35.68]},"properties":{"Name":"阪本小学校","Jusho":"東京都中央区日本橋兜町15-18","kouzui":"○","gake":"×","takashio":"○","jishin":"○","tsunami":"×","kaji":"×","naisui":"○","kazan":"×"}}
,{"type":"Feature","geometry":{"type":"Point","coordinates":[139.784,35.689]},"properties":{"Name":"久松小学校","Jusho":"東京都中央区日本橋久松町7-2","kouzui":"○","gake":"×","takashio":"○","jishin":"○","tsunami":"×","kaji":"×","naisui":"○","kazan":"×"}}
,{"type":"Feature","geometry":{"type":"Point","coordinates":[139.777,35.691]},"properties":{"Name":"十思スクエア","Jusho":"東京都中央区日本橋小伝馬町5-1","kouzui":"○","gake":"×","takashio":"○","jishin":"○","tsunami":"×","kaji":"×","naisui":"○","kazan":"×"}}
,{"type":"Feature","geometry":{"type":"Point","coordinates":[139.782,35.685]},"properties":{"Name":"日本橋小学校","Jusho":"東京都中央区日本橋人形町1-1-17","kouzui":"○","gake":"×","takashio":"○","jishin":"○","tsunami":"×","kaji":"×","naisui":"○","kazan":"×"}}
,{"type":"Feature","geometry":{"type":"Point","coordinates":[139.771,35.688]},"properties":{"Name":"常盤小学校","Jusho":"東京都中央区日本橋本石町4-4-26","kouzui":"○","gake":"×","takashio":"○","jishin":"○","tsunami":"×","kaji":"×","naisui":"○","kazan":"×"}}
,{"type":"Feature","geometry":{"type":"Point","coordinates":[139.769,35.679]},"properties":{"Name":"城東小学校","Jusho":"東京都中央区八重洲2-2-1","kouzui":"○","gake":"×","takashio":"○","jishin":"○","tsunami":"×","kaji":"×","naisui":"○","kazan":"×"}}
,{"type":"Feature","geometry":{"type":"Point","coordinates":[139.776,35.675]},"properties":{"Name":"京華スクエア","Jusho":"東京都中央区八丁堀3-17-9","kouzui":"○","gake":"×","takashio":"○","jishin":"○","tsunami":"×","kaji":"×","naisui":"○","kazan":"×"}}
,{"type":"Feature","geometry":{"type":"Point","coordinates":[139.771,35.653]},"properties":{"Name":"豊海小学校","Jusho":"東京都中央区豊海町3-1","kouzui":"○","gake":"×","takashio":"○","jishin":"○","tsunami":"○","kaji":"×","naisui":"○","kazan":"×"}}
,{"type":"Feature","geometry":{"type":"Point","coordinates":[139.779,35.672]},"properties":{"Name":"中央小学校","Jusho":"東京都中央区湊1-4-1","kouzui":"○","gake":"×","takashio":"○","jishin":"○","tsunami":"×","kaji":"×","naisui":"○","kazan":"×"}}
,{"type":"Feature","geometry":{"type":"Point","coordinates":[139.776,35.669]},"properties":{"Name":"明石小学校","Jusho":"東京都中央区明石町1-15","kouzui":"○","gake":"×","takashio":"○","jishin":"○","tsunami":"×","kaji":"×","naisui":"○","kazan":"×"}}
,{"type":"Feature","geometry":{"type":"Point","coordinates":[139.731,35.657]},"properties":{"Name":"南山小学校","Jusho":"東京都港区元麻布3-8-15","kouzui":"○","gake":"○","takashio":"○","jishin":"○","tsunami":"×","kaji":"×","naisui":"×","kazan":"×"}}
,{"type":"Feature","geometry":{"type":"Point","coordinates":[139.749,35.668]},"properties":{"Name":"虎ノ門いきいきプラザ","Jusho":"東京都港区虎ノ門1-21-10","kouzui":"○","gake":"○","takashio":"○","jishin":"○","tsunami":"×","kaji":"×","naisui":"×","kazan":"×"}}
,{"type":"Feature","geometry":{"type":"Point","coordinates":[139.75,35.633]},"properties":{"Name":"港南図書館","Jusho":"東京都港区港南3-3-17","kouzui":"×","gake":"×","takashio":"×","jishin":"×","tsunami":"○","kaji":"×","naisui":"×","kazan":"×"}}
,{"type":"Feature","geometry":{"type":"Point","coordinates":[139.749,35.633]},"properties":{"Name":"港南の郷","Jusho":"東京都港区港南3-3-23","kouzui":"×","gake":"×","takashio":"×","jishin":"×","tsunami":"○","kaji":"×","naisui":"×","kazan":"×"}}
,{"type":"Feature","geometry":{"type":"Point","coordinates":[139.751,35.634]},"properties":{"Name":"みなとリサイクル清掃事務所","Jusho":"東京都港区港南3-9-59","kouzui":"×","gake":"×","takashio":"×","jishin":"×","tsunami":"○","kaji":"×","naisui":"×","kazan":"×"}}
,{"type":"Feature","geometry":{"type":"Point","coordinates":[139.747,35.63]},"properties":{"Name":"港南いきいきプラザ","Jusho":"東京都港区港南4-2-1","kouzui":"×","gake":"○","takashio":"×","jishin":"○","tsunami":"×","kaji":"×","naisui":"×","kazan":"×"}}
,{"type":"Feature","geometry":{"type":"Point","coordinates":[139.749,35.629]},"properties":{"Name":"港南小学校","Jusho":"東京都港区港南4-3-28","kouzui":"○","gake":"○","takashio":"×","jishin":"○","tsunami":"○","kaji":"×","naisui":"×","kazan":"×"}}
,{"type":"Feature","geometry":{"type":"Point","coordinates":[139.749,35.631]},"properties":{"Name":"港南中学校","Jusho":"東京都港区港南4-3-3","kouzui":"○","gake":"○","takashio":"×","jishin":"○","tsunami":"○","kaji":"×","naisui":"×","kazan":"×"}}
,{"type":"Feature","geometry":{"type":"Point","coordinates":[139.75,35.631]},"properties":{"Name":"港南子ども中高生プラザ","Jusho":"東京都港区港南4-3-7","kouzui":"×","gake":"○","takashio":"○","jishin":"○","tsunami":"○","kaji":"×","naisui":"×","kazan":"×"}}
,{"type":"Feature","geometry":{"type":"Point","coordinates":[139.734,35.641]},"properties":{"Name":"高松中学校","Jusho":"東京都港区高輪1-16-25","kouzui":"×","gake":"×","takashio":"○","jishin":"○","tsunami":"×","kaji":"×","naisui":"×","kazan":"×"}}
,{"type":"Feature","geometry":{"type":"Point","coordinates":[139.734,35.642]},"properties":{"Name":"高輪区民センター","Jusho":"東京都港区高輪1-16-25","kouzui":"×","gake":"○","takashio":"○","jishin":"○","tsunami":"×","kaji":"×","naisui":"×","kazan":"×"}}
,{"type":"Feature","geometry":{"type":"Point","coordinates":[139.735,35.642]},"properties":{"Name":"高輪子ども中高生プラザ","Jusho":"東京都港区高輪1-4-35","kouzui":"○","gake":"○","takashio":"○","jishin":"○","tsunami":"×","kaji":"×","naisui":"×","kazan":"×"}}
,{"type":"Feature","geometry":{"type":"Point","coordinates":[139.734,35.636]},"properties":{"Name":"高輪台小学校","Jusho":"東京都港区高輪2-8-24","kouzui":"○","gake":"○","takashio":"○","jishin":"○","tsunami":"×","kaji":"×","naisui":"×","kazan":"×"}}
,{"type":"Feature","geometry":{"type":"Point","coordinates":[139.736,35.633]},"properties":{"Name":"高輪いきいきプラザ","Jusho":"東京都港区高輪3-18-15","kouzui":"×","gake":"○","takashio":"○","jishin":"○","tsunami":"×","kaji":"×","naisui":"×","kazan":"×"}}
,{"type":"Feature","geometry":{"type":"Point","coordinates":[139.742,35.653]},"properties":{"Name":"赤羽小学校","Jusho":"東京都港区三田1-4-52","kouzui":"○","gake":"○","takashio":"○","jishin":"○","tsunami":"×","kaji":"×","naisui":"×","kazan":"×"}}
,{"type":"Feature","geometry":{"type":"Point","coordinates":[139.738,35.643]},"properties":{"Name":"御田小学校","Jusho":"東京都港区三田4-11-38","kouzui":"○","gake":"○","takashio":"○","jishin":"○","tsunami":"×","kaji":"×","naisui":"×","kazan":"×"}}
,{"type":"Feature","geometry":{"type":"Point","coordinates":[139.741,35.645]},"properties":{"Name":"三田中学校","Jusho":"東京都港区三田4-13-13","kouzui":"○","gake":"○","takashio":"○","jishin":"○","tsunami":"○","kaji":"×","naisui":"×","kazan":"×"}}
,{"type":"Feature","geometry":{"type":"Point","coordinates":[139.74,35.647]},"properties":{"Name":"豊岡いきいきプラザ","Jusho":"東京都港区三田5-7-7","kouzui":"×","gake":"○","takashio":"○","jishin":"○","tsunami":"×","kaji":"×","naisui":"×","kazan":"×"}}
,{"type":"Feature","geometry":{"type":"Point","coordinates":[139.75,35.651]},"properties":{"Name":"芝小学校","Jusho":"東京都港区芝2-21-3","kouzui":"○","gake":"○","takashio":"○","jishin":"○","tsunami":"○","kaji":"×","naisui":"×","kazan":"×"}}
,{"type":"Feature","geometry":{"type":"Point","coordinates":[139.75,35.649]},"properties":{"Name":"三田いきいきプラザ","Jusho":"東京都港区芝4-1-17","kouzui":"○","gake":"○","takashio":"○","jishin":"○","tsunami":"×","kaji":"×","naisui":"×","kazan":"×"}}
,{"type":"Feature","geometry":{"type":"Point","coordinates":[139.745,35.645]},"properties":{"Name":"札の辻スクエア（産業振興センター）","Jusho":"東京都港区芝5-36-4","kouzui":"○","gake":"○","takashio":"○","jishin":"○","tsunami":"○","kaji":"×","naisui":"×","kazan":"×"}}
,{"type":"Feature","geometry":{"type":"Point","coordinates":[139.752,35.647]},"properties":{"Name":"みなとパーク芝浦（港区スポーツセンター・男女平等参画センター）","Jusho":"東京都港区芝浦1-16-1","kouzui":"×","gake":"○","takashio":"×","jishin":"○","tsunami":"×","kaji":"×","naisui":"×","kazan":"×"}}
,{"type":"Feature","geometry":{"type":"Point","coordinates":[139.751,35.646]},"properties":{"Name":"芝浜小学校","Jusho":"東京都港区芝浦1-16-31","kouzui":"×","gake":"○","takashio":"×","jishin":"○","tsunami":"×","kaji":"×","naisui":"×","kazan":"×"}}
,{"type":"Feature","geometry":{"type":"Point","coordinates":[139.749,35.641]},"properties":{"Name":"芝浦港南区民センター","Jusho":"東京都港区芝浦4-13-1","kouzui":"○","gake":"○","takashio":"○","jishin":"○","tsunami":"×","kaji":"×","naisui":"×","kazan":"×"}}
,{"type":"Feature","geometry":{"type":"Point","coordinates":[139.746,35.638]},"properties":{"Name":"芝浦小学校","Jusho":"東京都港区芝浦4-8-18","kouzui":"○","gake":"○","takashio":"○","jishin":"○","tsunami":"○","kaji":"×","naisui":"×","kazan":"×"}}
,{"type":"Feature","geometry":{"type":"Point","coordinates":[139.75,35.66]},"properties":{"Name":"みなと図書館","Jusho":"東京都港区芝公園3-2-25","kouzui":"×","gake":"×","takashio":"×","jishin":"×","tsunami":"○","kaji":"×","naisui":"×","kazan":"×"}}
,{"type":"Feature","geometry":{"type":"Point","coordinates":[139.75,35.661]},"properties":{"Name":"御成門小学校","Jusho":"東京都港区芝公園3-2-4","kouzui":"○","gake":"○","takashio":"○","jishin":"○","tsunami":"○","kaji":"×","naisui":"×","kazan":"×"}}
,{"type":"Feature","geometry":{"type":"Point","coordinates":[139.757,35.666]},"properties":{"Name":"生涯学習センター","Jusho":"東京都港区新橋3-16-3","kouzui":"×","gake":"○","takashio":"×","jishin":"○","tsunami":"○","kaji":"×","naisui":"×","kazan":"×"}}
,{"type":"Feature","geometry":{"type":"Point","coordinates":[139.754,35.661]},"properties":{"Name":"福祉プラザさくら川","Jusho":"東京都港区新橋6-19-2","kouzui":"×","gake":"○","takashio":"×","jishin":"○","tsunami":"×","kaji":"×","naisui":"×","kazan":"×"}}
,{"type":"Feature","geometry":{"type":"Point","coordinates":[139.75,35.662]},"properties":{"Name":"御成門中学校","Jusho":"東京都港区西新橋3-25-30","kouzui":"○","gake":"○","takashio":"×","jishin":"○","tsunami":"○","kaji":"×","naisui":"×","kazan":"×"}}
,{"type":"Feature","geometry":{"type":"Point","coordinates":[139.723,35.661]},"properties":{"Name":"西麻布いきいきプラザ","Jusho":"東京都港区西麻布2-13-3","kouzui":"×","gake":"○","takashio":"○","jishin":"○","tsunami":"×","kaji":"×","naisui":"×","kazan":"×"}}
,{"type":"Feature","geometry":{"type":"Point","coordinates":[139.725,35.656]},"properties":{"Name":"笄小学校","Jusho":"東京都港区西麻布3-11-16","kouzui":"○","gake":"○","takashio":"○","jishin":"○","tsunami":"×","kaji":"×","naisui":"×","kazan":"×"}}
,{"type":"Feature","geometry":{"type":"Point","coordinates":[139.721,35.657]},"properties":{"Name":"高陵中学校","Jusho":"東京都港区西麻布4-14-8","kouzui":"○","gake":"○","takashio":"○","jishin":"○","tsunami":"×","kaji":"×","naisui":"×","kazan":"×"}}
,{"type":"Feature","geometry":{"type":"Point","coordinates":[139.732,35.675]},"properties":{"Name":"赤坂区民センター","Jusho":"東京都港区赤坂4-18-13","kouzui":"○","gake":"○","takashio":"○","jishin":"○","tsunami":"×","kaji":"×","naisui":"×","kazan":"×"}}
,{"type":"Feature","geometry":{"type":"Point","coordinates":[139.735,35.67]},"properties":{"Name":"赤坂いきいきプラザ","Jusho":"東京都港区赤坂6-4-8","kouzui":"×","gake":"○","takashio":"○","jishin":"○","tsunami":"×","kaji":"×","naisui":"×","kazan":"×"}}
,{"type":"Feature","geometry":{"type":"Point","coordinates":[139.738,35.67]},"properties":{"Name":"サン・サン赤坂（赤坂子ども中高生プラザ）","Jusho":"東京都港区赤坂6-6-14","kouzui":"×","gake":"○","takashio":"○","jishin":"○","tsunami":"×","kaji":"×","naisui":"×","kazan":"×"}}
,{"type":"Feature","geometry":{"type":"Point","coordinates":[139.731,35.669]},"properties":{"Name":"赤坂小学校","Jusho":"東京都港区赤坂8-13-29","kouzui":"×","gake":"○","takashio":"○","jishin":"○","tsunami":"×","kaji":"×","naisui":"×","kazan":"×"}}
,{"type":"Feature","geometry":{"type":"Point","coordinates":[139.777,35.634]},"properties":{"Name":"お台場学園港陽小・中学校","Jusho":"東京都港区台場1-1-5","kouzui":"○","gake":"○","takashio":"○","jishin":"○","tsunami":"○","kaji":"×","naisui":"×","kazan":"×"}}
,{"type":"Feature","geometry":{"type":"Point","coordinates":[139.777,35.63]},"properties":{"Name":"台場区民センター","Jusho":"東京都港区台場1-5-1","kouzui":"○","gake":"○","takashio":"○","jishin":"○","tsunami":"○","kaji":"×","naisui":"×","kazan":"×"}}
,{"type":"Feature","geometry":{"type":"Point","coordinates":[139.743,35.658]},"properties":{"Name":"旧飯倉小学校","Jusho":"東京都港区東麻布2-1-1","kouzui":"○","gake":"○","takashio":"○","jishin":"○","tsunami":"×","kaji":"×","naisui":"×","kazan":"×"}}
,{"type":"Feature","geometry":{"type":"Point","coordinates":[139.741,35.657]},"properties":{"Name":"飯倉いきいきプラザ","Jusho":"東京都港区東麻布2-16-11","kouzui":"○","gake":"○","takashio":"○","jishin":"○","tsunami":"×","kaji":"×","naisui":"×","kazan":"×"}}
,{"type":"Feature","geometry":{"type":"Point","coordinates":[139.721,35.669]},"properties":{"Name":"青山いきいきプラザ","Jusho":"東京都港区南青山2-16-5","kouzui":"○","gake":"○","takashio":"○","jishin":"○","tsunami":"×","kaji":"×","naisui":"×","kazan":"×"}}
,{"type":"Feature","geometry":{"type":"Point","coordinates":[139.719,35.67]},"properties":{"Name":"青山小学校","Jusho":"東京都港区南青山2-21-2","kouzui":"×","gake":"○","takashio":"○","jishin":"○","tsunami":"×","kaji":"×","naisui":"×","kazan":"×"}}
,{"type":"Feature","geometry":{"type":"Point","coordinates":[139.717,35.666]},"properties":{"Name":"青南いきいきプラザ","Jusho":"東京都港区南青山4-10-1","kouzui":"○","gake":"○","takashio":"○","jishin":"○","tsunami":"×","kaji":"×","naisui":"×","kazan":"×"}}
,{"type":"Feature","geometry":{"type":"Point","coordinates":[139.716,35.663]},"properties":{"Name":"青南小学校","Jusho":"東京都港区南青山4-21-15","kouzui":"○","gake":"○","takashio":"○","jishin":"○","tsunami":"×","kaji":"×","naisui":"×","kazan":"×"}}
,{"type":"Feature","geometry":{"type":"Point","coordinates":[139.735,35.651]},"properties":{"Name":"南麻布いきいきプラザ","Jusho":"東京都港区南麻布1-5-26","kouzui":"×","gake":"○","takashio":"○","jishin":"○","tsunami":"×","kaji":"×","naisui":"×","kazan":"×"}}
,{"type":"Feature","geometry":{"type":"Point","coordinates":[139.736,35.651]},"properties":{"Name":"東町小学校","Jusho":"東京都港区南麻布1-8-11","kouzui":"×","gake":"○","takashio":"×","jishin":"○","tsunami":"×","kaji":"×","naisui":"×","kazan":"×"}}
,{"type":"Feature","geometry":{"type":"Point","coordinates":[139.73,35.65]},"properties":{"Name":"本村小学校","Jusho":"東京都港区南麻布3-9-33","kouzui":"○","gake":"○","takashio":"○","jishin":"○","tsunami":"×","kaji":"×","naisui":"×","kazan":"×"}}
,{"type":"Feature","geometry":{"type":"Point","coordinates":[139.727,35.651]},"properties":{"Name":"麻布子ども中高生プラザ・ありすいきいきプラザ","Jusho":"東京都港区南麻布4-6-7","kouzui":"○","gake":"○","takashio":"○","jishin":"○","tsunami":"×","kaji":"×","naisui":"×","kazan":"×"}}
,{"type":"Feature","geometry":{"type":"Point","coordinates":[139.731,35.645]},"properties":{"Name":"白金いきいきプラザ","Jusho":"東京都港区白金3-10-12","kouzui":"×","gake":"○","takashio":"○","jishin":"○","tsunami":"×","kaji":"×","naisui":"×","kazan":"×"}}
,{"type":"Feature","geometry":{"type":"Point","coordinates":[139.729,35.644]},"properties":{"Name":"旧三光小学校","Jusho":"東京都港区白金3-18-2","kouzui":"○","gake":"○","takashio":"○","jishin":"○","tsunami":"×","kaji":"×","naisui":"×","kazan":"×"}}
,{"type":"Feature","geometry":{"type":"Point","coordinates":[139.727,35.644]},"properties":{"Name":"白金の丘学園白金の丘小・中学校","Jusho":"東京都港区白金4-1-12","kouzui":"○","gake":"○","takashio":"○","jishin":"○","tsunami":"×","kaji":"×","naisui":"×","kazan":"×"}}
,{"type":"Feature","geometry":{"type":"Point","coordinates":[139.725,35.644]},"properties":{"Name":"旧神応小学校","Jusho":"東京都港区白金6-9-5","kouzui":"○","gake":"○","takashio":"○","jishin":"○","tsunami":"×","kaji":"×","naisui":"×","kazan":"×"}}
,{"type":"Feature","geometry":{"type":"Point","coordinates":[139.729,35.637]},"properties":{"Name":"白金小学校","Jusho":"東京都港区白金台1-4-26","kouzui":"×","gake":"○","takashio":"○","jishin":"○","tsunami":"×","kaji":"×","naisui":"×","kazan":"×"}}
,{"type":"Feature","geometry":{"type":"Point","coordinates":[139.725,35.638]},"properties":{"Name":"白金台いきいきプラザ","Jusho":"東京都港区白金台4-8-5","kouzui":"○","gake":"○","takashio":"○","jishin":"○","tsunami":"×","kaji":"×","naisui":"×","kazan":"×"}}
,{"type":"Feature","geometry":{"type":"Point","coordinates":[139.757,35.659]},"properties":{"Name":"エコプラザ","Jusho":"東京都港区浜松町1-13-1","kouzui":"×","gake":"○","takashio":"×","jishin":"○","tsunami":"○","kaji":"×","naisui":"×","kazan":"×"}}
,{"type":"Feature","geometry":{"type":"Point","coordinates":[139.758,35.659]},"properties":{"Name":"神明子ども中高生プラザ・神明いきいきプラザ","Jusho":"東京都港区浜松町1-6-7","kouzui":"×","gake":"○","takashio":"○","jishin":"○","tsunami":"○","kaji":"×","naisui":"×","kazan":"×"}}
,{"type":"Feature","geometry":{"type":"Point","coordinates":[139.722,35.674]},"properties":{"Name":"青山中学校","Jusho":"東京都港区北青山1-1-9","kouzui":"○","gake":"○","takashio":"○","jishin":"○","tsunami":"×","kaji":"×","naisui":"×","kazan":"×"}}
,{"type":"Feature","geometry":{"type":"Point","coordinates":[139.739,35.662]},"properties":{"Name":"麻布小学校","Jusho":"東京都港区麻布台1-5-15","kouzui":"○","gake":"○","takashio":"○","jishin":"○","tsunami":"×","kaji":"×","naisui":"×","kazan":"×"}}
,{"type":"Feature","geometry":{"type":"Point","coordinates":[139.735,35.661]},"properties":{"Name":"麻布区民センター","Jusho":"東京都港区六本木5-16-45","kouzui":"×","gake":"○","takashio":"○","jishin":"○","tsunami":"×","kaji":"×","naisui":"×","kazan":"×"}}
,{"type":"Feature","geometry":{"type":"Point","coordinates":[139.732,35.661]},"properties":{"Name":"六本木中学校","Jusho":"東京都港区六本木6-8-16","kouzui":"○","gake":"○","takashio":"○","jishin":"○","tsunami":"×","kaji":"×","naisui":"×","kazan":"×"}}
,{"type":"Feature","geometry":{"type":"Point","coordinates":[139.702,35.718]},"properties":{"Name":"おとめ山公園地区一帯","Jusho":"東京都新宿区下落合","kouzui":"×","gake":"×","takashio":"×","jishin":"○","tsunami":"×","kaji":"○","naisui":"×","kazan":"×"}}
,{"type":"Feature","geometry":{"type":"Point","coordinates":[139.718,35.678]},"properties":{"Name":"明治神宮外苑地区","Jusho":"東京都新宿区霞ヶ岳町","kouzui":"×","gake":"×","takashio":"×","jishin":"○","tsunami":"×","kaji":"○","naisui":"×","kazan":"×"}}
,{"type":"Feature","geometry":{"type":"Point","coordinates":[139.721,35.709]},"properties":{"Name":"早稲田大学早稲田キャンパス一帯","Jusho":"東京都新宿区戸塚町","kouzui":"×","gake":"×","takashio":"×","jishin":"○","tsunami":"×","kaji":"○","naisui":"×","kazan":"×"}}
,{"type":"Feature","geometry":{"type":"Point","coordinates":[139.693,35.713]},"properties":{"Name":"落合中央公園一帯","Jusho":"東京都新宿区上落合","kouzui":"×","gake":"×","takashio":"×","jishin":"○","tsunami":"×","kaji":"○","naisui":"×","kazan":"×"}}
,{"type":"Feature","geometry":{"type":"Point","coordinates":[139.69,35.689]},"properties":{"Name":"新宿中央公園・高層ビル群一帯","Jusho":"東京都新宿区西新宿","kouzui":"×","gake":"×","takashio":"×","jishin":"○","tsunami":"×","kaji":"○","naisui":"×","kazan":"×"}}
,{"type":"Feature","geometry":{"type":"Point","coordinates":[139.675,35.721]},"properties":{"Name":"哲学堂公園一帯","Jusho":"東京都新宿区西落合","kouzui":"×","gake":"×","takashio":"×","jishin":"○","tsunami":"×","kaji":"○","naisui":"×","kazan":"×"}}
,{"type":"Feature","geometry":{"type":"Point","coordinates":[139.714,35.705]},"properties":{"Name":"戸山公園一帯","Jusho":"東京都新宿区大久保","kouzui":"×","gake":"×","takashio":"×","jishin":"○","tsunami":"×","kaji":"○","naisui":"×","kazan":"×"}}
,{"type":"Feature","geometry":{"type":"Point","coordinates":[139.712,35.685]},"properties":{"Name":"新宿御苑","Jusho":"東京都新宿区内藤町","kouzui":"×","gake":"×","takashio":"×","jishin":"○","tsunami":"×","kaji":"○","naisui":"×","kazan":"×"}}
,{"type":"Feature","geometry":{"type":"Point","coordinates":[139.729,35.681]},"properties":{"Name":"迎賓館一帯","Jusho":"東京都新宿区南元町","kouzui":"×","gake":"×","takashio":"×","jishin":"○","tsunami":"×","kaji":"○","naisui":"×","kazan":"×"}}
,{"type":"Feature","geometry":{"type":"Point","coordinates":[139.701,35.707]},"properties":{"Name":"百人町三・四丁目地区","Jusho":"東京都新宿区百人町","kouzui":"×","gake":"×","takashio":"×","jishin":"○","tsunami":"×","kaji":"○","naisui":"×","kazan":"×"}}
,{"type":"Feature","geometry":{"type":"Point","coordinates":[139.748,35.705]},"properties":{"Name":"後楽園一帯","Jusho":"東京都文京区後楽1-6-6","kouzui":"×","gake":"×","takashio":"×","jishin":"×","tsunami":"×","kaji":"○","naisui":"×","kazan":"×"}}
,{"type":"Feature","geometry":{"type":"Point","coordinates":[139.727,35.721]},"properties":{"Name":"護国寺一帯","Jusho":"東京都文京区大塚5-40-1","kouzui":"×","gake":"×","takashio":"×","jishin":"×","tsunami":"×","kaji":"○","naisui":"×","kazan":"×"}}
,{"type":"Feature","geometry":{"type":"Point","coordinates":[139.732,35.719]},"properties":{"Name":"お茶の水女子大学一帯・教育の森公園一帯","Jusho":"東京都文京区大塚２－１－１文京区大塚3-29","kouzui":"×","gake":"×","takashio":"×","jishin":"×","tsunami":"×","kaji":"○","naisui":"×","kazan":"×"}}
,{"type":"Feature","geometry":{"type":"Point","coordinates":[139.744,35.72]},"properties":{"Name":"小石川植物園","Jusho":"東京都文京区白山3-7-1","kouzui":"×","gake":"×","takashio":"×","jishin":"×","tsunami":"×","kaji":"○","naisui":"×","kazan":"×"}}
,{"type":"Feature","geometry":{"type":"Point","coordinates":[139.763,35.712]},"properties":{"Name":"東京大学","Jusho":"東京都文京区本郷7-3-1","kouzui":"×","gake":"×","takashio":"×","jishin":"×","tsunami":"×","kaji":"○","naisui":"×","kazan":"×"}}
,{"type":"Feature","geometry":{"type":"Point","coordinates":[139.746,35.733]},"properties":{"Name":"六義園","Jusho":"東京都文京区本駒込6-16-3","kouzui":"×","gake":"×","takashio":"×","jishin":"×","tsunami":"×","kaji":"○","naisui":"×","kazan":"×"}}
,{"type":"Feature","geometry":{"type":"Point","coordinates":[139.721,35.715]},"properties":{"Name":"目白台運動公園付近一帯","Jusho":"東京都文京区目白台1-19","kouzui":"×","gake":"×","takashio":"×","jishin":"×","tsunami":"×","kaji":"○","naisui":"×","kazan":"×"}}
,{"type":"Feature","geometry":{"type":"Point","coordinates":[139.786,35.723]},"properties":{"Name":"柏葉中学校","Jusho":"東京都台東区下谷3-1-29","kouzui":"○","gake":"×","takashio":"○","jishin":"×","tsunami":"×","kaji":"×","naisui":"○","kazan":"×"}}
,{"type":"Feature","geometry":{"type":"Point","coordinates":[139.799,35.714]},"properties":{"Name":"浅草小学校","Jusho":"東京都台東区花川戸1-14-15","kouzui":"○","gake":"×","takashio":"○","jishin":"×","tsunami":"×","kaji":"×","naisui":"○","kazan":"×"}}
,{"type":"Feature","geometry":{"type":"Point","coordinates":[139.792,35.728]},"properties":{"Name":"東泉小学校","Jusho":"東京都台東区三ノ輪1-23-9","kouzui":"○","gake":"×","takashio":"○","jishin":"×","tsunami":"×","kaji":"×","naisui":"○","kazan":"×"}}
,{"type":"Feature","geometry":{"type":"Point","coordinates":[139.787,35.712]},"properties":{"Name":"松葉小学校","Jusho":"東京都台東区松が谷1-13-16","kouzui":"○","gake":"×","takashio":"○","jishin":"×","tsunami":"×","kaji":"×","naisui":"○","kazan":"×"}}
,{"type":"Feature","geometry":{"type":"Point","coordinates":[139.775,35.721]},"properties":{"Name":"上野中学校","Jusho":"東京都台東区上野桜木1-14-55","kouzui":"○","gake":"×","takashio":"○","jishin":"×","tsunami":"×","kaji":"×","naisui":"○","kazan":"×"}}
,{"type":"Feature","geometry":{"type":"Point","coordinates":[139.804,35.725]},"properties":{"Name":"石浜小学校","Jusho":"東京都台東区清川1-14-21","kouzui":"○","gake":"×","takashio":"○","jishin":"×","tsunami":"×","kaji":"×","naisui":"○","kazan":"×"}}
,{"type":"Feature","geometry":{"type":"Point","coordinates":[139.794,35.719]},"properties":{"Name":"千束小学校","Jusho":"東京都台東区浅草4-24-11","kouzui":"○","gake":"×","takashio":"○","jishin":"×","tsunami":"×","kaji":"×","naisui":"○","kazan":"×"}}
,{"type":"Feature","geometry":{"type":"Point","coordinates":[139.782,35.699]},"properties":{"Name":"旧柳北小学校","Jusho":"東京都台東区浅草橋5-1-8","kouzui":"○","gake":"×","takashio":"○","jishin":"×","tsunami":"×","kaji":"×","naisui":"○","kazan":"×"}}
,{"type":"Feature","geometry":{"type":"Point","coordinates":[139.79,35.7]},"properties":{"Name":"浅草中学校","Jusho":"東京都台東区蔵前1-3-4","kouzui":"○","gake":"×","takashio":"○","jishin":"×","tsunami":"×","kaji":"×","naisui":"○","kazan":"×"}}
,{"type":"Feature","geometry":{"type":"Point","coordinates":[139.789,35.704]},"properties":{"Name":"蔵前小学校","Jusho":"東京都台東区蔵前4-19-11","kouzui":"○","gake":"×","takashio":"○","jishin":"×","tsunami":"×","kaji":"×","naisui":"○","kazan":"×"}}
,{"type":"Feature","geometry":{"type":"Point","coordinates":[139.778,35.707]},"properties":{"Name":"御徒町台東中学校","Jusho":"東京都台東区台東4-13-16","kouzui":"○","gake":"×","takashio":"○","jishin":"×","tsunami":"×","kaji":"×","naisui":"○","kazan":"×"}}
,{"type":"Feature","geometry":{"type":"Point","coordinates":[139.765,35.724]},"properties":{"Name":"谷中小学校","Jusho":"東京都台東区谷中2-9-16","kouzui":"○","gake":"○","takashio":"○","jishin":"×","tsunami":"×","kaji":"×","naisui":"○","kazan":"×"}}
,{"type":"Feature","geometry":{"type":"Point","coordinates":[139.767,35.714]},"properties":{"Name":"忍岡小学校","Jusho":"東京都台東区池之端2-1-22","kouzui":"○","gake":"○","takashio":"○","jishin":"×","tsunami":"×","kaji":"×","naisui":"○","kazan":"×"}}
,{"type":"Feature","geometry":{"type":"Point","coordinates":[139.784,35.714]},"properties":{"Name":"上野小学校","Jusho":"東京都台東区東上野6-16-8","kouzui":"○","gake":"×","takashio":"○","jishin":"×","tsunami":"×","kaji":"×","naisui":"○","kazan":"×"}}
,{"type":"Feature","geometry":{"type":"Point","coordinates":[139.798,35.724]},"properties":{"Name":"東浅草小学校","Jusho":"東京都台東区東浅草2-27-19","kouzui":"○","gake":"×","takashio":"○","jishin":"×","tsunami":"×","kaji":"×","naisui":"○","kazan":"×"}}
,{"type":"Feature","geometry":{"type":"Point","coordinates":[139.784,35.717]},"properties":{"Name":"駒形中学校","Jusho":"東京都台東区北上野2-15-1","kouzui":"○","gake":"×","takashio":"○","jishin":"×","tsunami":"×","kaji":"×","naisui":"○","kazan":"×"}}
,{"type":"Feature","geometry":{"type":"Point","coordinates":[139.793,35.71]},"properties":{"Name":"田原小学校","Jusho":"東京都台東区雷門1-5-14","kouzui":"○","gake":"×","takashio":"○","jishin":"×","tsunami":"×","kaji":"×","naisui":"○","kazan":"×"}}
,{"type":"Feature","geometry":{"type":"Point","coordinates":[139.724,35.633]},"properties":{"Name":"第三日野小学校","Jusho":"東京都品川区上大崎1-19-19","kouzui":"○","gake":"○","takashio":"○","jishin":"×","tsunami":"×","kaji":"×","naisui":"×","kazan":"×"}}
,{"type":"Feature","geometry":{"type":"Point","coordinates":[139.722,35.635]},"properties":{"Name":"上大崎シルバーセンター","Jusho":"東京都品川区上大崎1-3-12","kouzui":"×","gake":"○","takashio":"×","jishin":"×","tsunami":"×","kaji":"×","naisui":"×","kazan":"×"}}
,{"type":"Feature","geometry":{"type":"Point","coordinates":[139.73,35.609]},"properties":{"Name":"第四日野小学校","Jusho":"東京都品川区西五反田4-29-9","kouzui":"○","gake":"×","takashio":"○","jishin":"×","tsunami":"×","kaji":"×","naisui":"×","kazan":"×"}}
,{"type":"Feature","geometry":{"type":"Point","coordinates":[139.716,35.622]},"properties":{"Name":"第一日野小学校","Jusho":"東京都品川区西五反田6-5-32","kouzui":"○","gake":"×","takashio":"○","jishin":"×","tsunami":"×","kaji":"×","naisui":"×","kazan":"×"}}
,{"type":"Feature","geometry":{"type":"Point","coordinates":[139.727,35.615]},"properties":{"Name":"三木小学校","Jusho":"東京都品川区西品川3-16-28","kouzui":"○","gake":"×","takashio":"○","jishin":"×","tsunami":"×","kaji":"×","naisui":"×","kazan":"×"}}
,{"type":"Feature","geometry":{"type":"Point","coordinates":[139.731,35.599]},"properties":{"Name":"大井第一小学校","Jusho":"東京都品川区大井6-1-32","kouzui":"○","gake":"×","takashio":"○","jishin":"×","tsunami":"×","kaji":"×","naisui":"×","kazan":"×"}}
,{"type":"Feature","geometry":{"type":"Point","coordinates":[139.725,35.619]},"properties":{"Name":"芳水小学校","Jusho":"東京都品川区大崎3-12-22","kouzui":"○","gake":"×","takashio":"○","jishin":"×","tsunami":"×","kaji":"×","naisui":"×","kazan":"×"}}
,{"type":"Feature","geometry":{"type":"Point","coordinates":[139.74,35.605]},"properties":{"Name":"立会小学校","Jusho":"東京都品川区東大井4-15-9","kouzui":"○","gake":"○","takashio":"○","jishin":"×","tsunami":"×","kaji":"×","naisui":"×","kazan":"×"}}
,{"type":"Feature","geometry":{"type":"Point","coordinates":[139.736,35.598]},"properties":{"Name":"浜川小学校","Jusho":"東京都品川区南大井4-3-27","kouzui":"○","gake":"×","takashio":"○","jishin":"×","tsunami":"×","kaji":"×","naisui":"×","kazan":"×"}}
,{"type":"Feature","geometry":{"type":"Point","coordinates":[139.744,35.612]},"properties":{"Name":"城南小学校","Jusho":"東京都品川区南品川2-8-21","kouzui":"○","gake":"×","takashio":"○","jishin":"×","tsunami":"×","kaji":"×","naisui":"×","kazan":"×"}}
,{"type":"Feature","geometry":{"type":"Point","coordinates":[139.737,35.611]},"properties":{"Name":"浅間台小学校","Jusho":"東京都品川区南品川6-8-8","kouzui":"○","gake":"×","takashio":"○","jishin":"×","tsunami":"×","kaji":"×","naisui":"×","kazan":"×"}}
,{"type":"Feature","geometry":{"type":"Point","coordinates":[139.738,35.617]},"properties":{"Name":"品川学園","Jusho":"東京都品川区北品川3-9-30","kouzui":"○","gake":"○","takashio":"○","jishin":"×","tsunami":"×","kaji":"×","naisui":"×","kazan":"×"}}
,{"type":"Feature","geometry":{"type":"Point","coordinates":[139.732,35.624]},"properties":{"Name":"御殿山小学校","Jusho":"東京都品川区北品川5-2-6","kouzui":"○","gake":"○","takashio":"○","jishin":"×","tsunami":"×","kaji":"×","naisui":"×","kazan":"×"}}
,{"type":"Feature","geometry":{"type":"Point","coordinates":[139.708,35.631]},"properties":{"Name":"大鳥中学校","Jusho":"東京都目黒区下目黒3-23-18","kouzui":"○","gake":"○","takashio":"×","jishin":"○","tsunami":"×","kaji":"×","naisui":"○","kazan":"×"}}
,{"type":"Feature","geometry":{"type":"Point","coordinates":[139.699,35.627]},"properties":{"Name":"不動小学校","Jusho":"東京都目黒区下目黒6-11-35","kouzui":"○","gake":"○","takashio":"×","jishin":"○","tsunami":"×","kaji":"×","naisui":"○","kazan":"×"}}
,{"type":"Feature","geometry":{"type":"Point","coordinates":[139.679,35.659]},"properties":{"Name":"都立国際高等学校","Jusho":"東京都目黒区駒場2-19-59","kouzui":"×","gake":"×","takashio":"×","jishin":"○","tsunami":"×","kaji":"×","naisui":"×","kazan":"×"}}
,{"type":"Feature","geometry":{"type":"Point","coordinates":[139.682,35.66]},"properties":{"Name":"駒場小学校","Jusho":"東京都目黒区駒場3-11-13","kouzui":"○","gake":"○","takashio":"×","jishin":"○","tsunami":"×","kaji":"×","naisui":"○","kazan":"×"}}
,{"type":"Feature","geometry":{"type":"Point","coordinates":[139.691,35.616]},"properties":{"Name":"原町小学校","Jusho":"東京都目黒区原町2-18-12","kouzui":"○","gake":"○","takashio":"×","jishin":"○","tsunami":"×","kaji":"×","naisui":"○","kazan":"×"}}
,{"type":"Feature","geometry":{"type":"Point","coordinates":[139.69,35.639]},"properties":{"Name":"上目黒小学校","Jusho":"東京都目黒区五本木1-12-13","kouzui":"○","gake":"○","takashio":"×","jishin":"○","tsunami":"×","kaji":"×","naisui":"○","kazan":"×"}}
,{"type":"Feature","geometry":{"type":"Point","coordinates":[139.688,35.634]},"properties":{"Name":"五本木小学校","Jusho":"東京都目黒区五本木2-24-3","kouzui":"○","gake":"○","takashio":"×","jishin":"○","tsunami":"×","kaji":"×","naisui":"○","kazan":"×"}}
,{"type":"Feature","geometry":{"type":"Point","coordinates":[139.666,35.612]},"properties":{"Name":"自由ヶ丘学園高等学校","Jusho":"東京都目黒区自由が丘2-21-1","kouzui":"×","gake":"×","takashio":"×","jishin":"○","tsunami":"×","kaji":"×","naisui":"×","kazan":"×"}}
,{"type":"Feature","geometry":{"type":"Point","coordinates":[139.692,35.644]},"properties":{"Name":"烏森小学校","Jusho":"東京都目黒区上目黒3-37-27","kouzui":"○","gake":"○","takashio":"×","jishin":"○","tsunami":"×","kaji":"×","naisui":"○","kazan":"×"}}
,{"type":"Feature","geometry":{"type":"Point","coordinates":[139.693,35.651]},"properties":{"Name":"菅刈小学校及び菅刈公園（菅刈公園は地震時のみ使用）","Jusho":"東京都目黒区青葉台3-3-26","kouzui":"○","gake":"×","takashio":"×","jishin":"○","tsunami":"×","kaji":"×","naisui":"○","kazan":"×"}}
,{"type":"Feature","geometry":{"type":"Point","coordinates":[139.695,35.613]},"properties":{"Name":"第九中学校","Jusho":"東京都目黒区洗足1-29-26","kouzui":"○","gake":"○","takashio":"×","jishin":"○","tsunami":"×","kaji":"×","naisui":"○","kazan":"×"}}
,{"type":"Feature","geometry":{"type":"Point","coordinates":[139.687,35.655]},"properties":{"Name":"第一中学校","Jusho":"東京都目黒区大橋2-11-1","kouzui":"○","gake":"○","takashio":"×","jishin":"○","tsunami":"×","kaji":"×","naisui":"○","kazan":"×"}}
,{"type":"Feature","geometry":{"type":"Point","coordinates":[139.686,35.655]},"properties":{"Name":"都立駒場高等学校","Jusho":"東京都目黒区大橋2-18-1","kouzui":"×","gake":"×","takashio":"×","jishin":"○","tsunami":"×","kaji":"×","naisui":"×","kazan":"×"}}
,{"type":"Feature","geometry":{"type":"Point","coordinates":[139.69,35.628]},"properties":{"Name":"鷹番小学校","Jusho":"東京都目黒区中央町1-20-26","kouzui":"○","gake":"○","takashio":"×","jishin":"○","tsunami":"×","kaji":"×","naisui":"○","kazan":"×"}}
,{"type":"Feature","geometry":{"type":"Point","coordinates":[139.698,35.632]},"properties":{"Name":"油面小学校","Jusho":"東京都目黒区中町1-5-4","kouzui":"○","gake":"○","takashio":"×","jishin":"○","tsunami":"×","kaji":"×","naisui":"○","kazan":"×"}}
,{"type":"Feature","geometry":{"type":"Point","coordinates":[139.694,35.635]},"properties":{"Name":"目黒中央中学校","Jusho":"東京都目黒区中町2-37-38","kouzui":"○","gake":"○","takashio":"×","jishin":"○","tsunami":"×","kaji":"×","naisui":"○","kazan":"×"}}
,{"type":"Feature","geometry":{"type":"Point","coordinates":[139.699,35.64]},"properties":{"Name":"中目黒小学校","Jusho":"東京都目黒区中目黒3-13-32","kouzui":"○","gake":"○","takashio":"×","jishin":"○","tsunami":"×","kaji":"×","naisui":"○","kazan":"×"}}
,{"type":"Feature","geometry":{"type":"Point","coordinates":[139.703,35.639]},"properties":{"Name":"めぐろ学校サポートセンター","Jusho":"東京都目黒区中目黒3-6-10","kouzui":"○","gake":"○","takashio":"×","jishin":"○","tsunami":"×","kaji":"×","naisui":"○","kazan":"×"}}
,{"type":"Feature","geometry":{"type":"Point","coordinates":[139.668,35.627]},"properties":{"Name":"東根小学校","Jusho":"東京都目黒区東が丘1-20-1","kouzui":"○","gake":"○","takashio":"×","jishin":"○","tsunami":"×","kaji":"×","naisui":"○","kazan":"×"}}
,{"type":"Feature","geometry":{"type":"Point","coordinates":[139.69,35.646]},"properties":{"Name":"東山中学校","Jusho":"東京都目黒区東山1-24-31","kouzui":"○","gake":"○","takashio":"×","jishin":"○","tsunami":"×","kaji":"×","naisui":"○","kazan":"×"}}
,{"type":"Feature","geometry":{"type":"Point","coordinates":[139.686,35.647]},"properties":{"Name":"東山小学校","Jusho":"東京都目黒区東山2-24-25","kouzui":"○","gake":"○","takashio":"×","jishin":"○","tsunami":"×","kaji":"×","naisui":"○","kazan":"×"}}
,{"type":"Feature","geometry":{"type":"Point","coordinates":[139.672,35.621]},"properties":{"Name":"めぐろ区民キャンパス及び都立桜修館中等教育学校（都立桜修館中等教育学校は地震時のみ使用）","Jusho":"東京都目黒区八雲1-1-1","kouzui":"○","gake":"○","takashio":"×","jishin":"○","tsunami":"×","kaji":"×","naisui":"○","kazan":"×"}}
,{"type":"Feature","geometry":{"type":"Point","coordinates":[139.671,35.618]},"properties":{"Name":"八雲小学校","Jusho":"東京都目黒区八雲2-5-1","kouzui":"○","gake":"○","takashio":"×","jishin":"○","tsunami":"×","kaji":"×","naisui":"○","kazan":"×"}}
,{"type":"Feature","geometry":{"type":"Point","coordinates":[139.667,35.615]},"properties":{"Name":"宮前小学校","Jusho":"東京都目黒区八雲3-13-21","kouzui":"○","gake":"○","takashio":"×","jishin":"○","tsunami":"×","kaji":"×","naisui":"○","kazan":"×"}}
,{"type":"Feature","geometry":{"type":"Point","coordinates":[139.669,35.624]},"properties":{"Name":"第十中学校","Jusho":"東京都目黒区八雲5-2-1","kouzui":"○","gake":"○","takashio":"×","jishin":"○","tsunami":"×","kaji":"×","naisui":"○","kazan":"×"}}
,{"type":"Feature","geometry":{"type":"Point","coordinates":[139.692,35.623]},"properties":{"Name":"第七中学校","Jusho":"東京都目黒区碑文谷1-1-33","kouzui":"○","gake":"○","takashio":"×","jishin":"○","tsunami":"×","kaji":"×","naisui":"○","kazan":"×"}}
,{"type":"Feature","geometry":{"type":"Point","coordinates":[139.691,35.619]},"properties":{"Name":"碑小学校","Jusho":"東京都目黒区碑文谷1-18-2","kouzui":"○","gake":"○","takashio":"×","jishin":"○","tsunami":"×","kaji":"×","naisui":"○","kazan":"×"}}
,{"type":"Feature","geometry":{"type":"Point","coordinates":[139.682,35.62]},"properties":{"Name":"第八中学校","Jusho":"東京都目黒区碑文谷4-19-25","kouzui":"○","gake":"○","takashio":"×","jishin":"○","tsunami":"×","kaji":"×","naisui":"○","kazan":"×"}}
,{"type":"Feature","geometry":{"type":"Point","coordinates":[139.682,35.627]},"properties":{"Name":"碑文谷公園及び碑文谷体育館（碑文谷公園は地震時のみ使用）","Jusho":"東京都目黒区碑文谷6-9-11","kouzui":"○","gake":"○","takashio":"×","jishin":"○","tsunami":"×","kaji":"×","naisui":"○","kazan":"×"}}
,{"type":"Feature","geometry":{"type":"Point","coordinates":[139.683,35.615]},"properties":{"Name":"大岡山小学校","Jusho":"東京都目黒区平町2-3-1","kouzui":"○","gake":"○","takashio":"×","jishin":"○","tsunami":"×","kaji":"×","naisui":"○","kazan":"×"}}
,{"type":"Feature","geometry":{"type":"Point","coordinates":[139.709,35.638]},"properties":{"Name":"田道小学校","Jusho":"東京都目黒区目黒1-15-28","kouzui":"×","gake":"○","takashio":"×","jishin":"○","tsunami":"×","kaji":"×","naisui":"×","kazan":"×"}}
,{"type":"Feature","geometry":{"type":"Point","coordinates":[139.709,35.634]},"properties":{"Name":"下目黒小学校","Jusho":"東京都目黒区目黒2-7-9","kouzui":"×","gake":"○","takashio":"×","jishin":"○","tsunami":"×","kaji":"×","naisui":"×","kazan":"×"}}
,{"type":"Feature","geometry":{"type":"Point","coordinates":[139.695,35.623]},"properties":{"Name":"月光原小学校","Jusho":"東京都目黒区目黒本町4-15-3","kouzui":"○","gake":"○","takashio":"×","jishin":"○","tsunami":"×","kaji":"×","naisui":"○","kazan":"×"}}
,{"type":"Feature","geometry":{"type":"Point","coordinates":[139.696,35.618]},"properties":{"Name":"向原小学校","Jusho":"東京都目黒区目黒本町6-7-15","kouzui":"×","gake":"○","takashio":"×","jishin":"○","tsunami":"×","kaji":"×","naisui":"×","kazan":"×"}}
,{"type":"Feature","geometry":{"type":"Point","coordinates":[139.694,35.637]},"properties":{"Name":"都立目黒高等学校","Jusho":"東京都目黒区祐天寺2-7-15","kouzui":"×","gake":"×","takashio":"×","jishin":"○","tsunami":"×","kaji":"×","naisui":"×","kazan":"×"}}
,{"type":"Feature","geometry":{"type":"Point","coordinates":[139.678,35.613]},"properties":{"Name":"中根小学校","Jusho":"東京都目黒区緑が丘1-1-1","kouzui":"○","gake":"○","takashio":"×","jishin":"○","tsunami":"×","kaji":"×","naisui":"○","kazan":"×"}}
,{"type":"Feature","geometry":{"type":"Point","coordinates":[139.679,35.609]},"properties":{"Name":"第十一中学校","Jusho":"東京都目黒区緑が丘1-8-1","kouzui":"○","gake":"○","takashio":"×","jishin":"○","tsunami":"×","kaji":"×","naisui":"○","kazan":"×"}}
,{"type":"Feature","geometry":{"type":"Point","coordinates":[139.673,35.61]},"properties":{"Name":"緑ヶ丘小学校","Jusho":"東京都目黒区緑が丘2-13-1","kouzui":"○","gake":"○","takashio":"×","jishin":"○","tsunami":"×","kaji":"×","naisui":"○","kazan":"×"}}
,{"type":"Feature","geometry":{"type":"Point","coordinates":[139.609,35.618]},"properties":{"Name":"駒澤大学玉川校舎","Jusho":"東京都世田谷区宇奈根1-1-1","kouzui":"○","gake":"×","takashio":"×","jishin":"×","tsunami":"×","kaji":"×","naisui":"×","kazan":"×"}}
,{"type":"Feature","geometry":{"type":"Point","coordinates":[139.66,35.603]},"properties":{"Name":"九品仏小学校","Jusho":"東京都世田谷区奥沢8-12-1","kouzui":"○","gake":"×","takashio":"×","jishin":"×","tsunami":"×","kaji":"×","naisui":"×","kazan":"×"}}
,{"type":"Feature","geometry":{"type":"Point","coordinates":[139.621,35.624]},"properties":{"Name":"聖ドミニコ学園","Jusho":"東京都世田谷区岡本1-10-1","kouzui":"○","gake":"×","takashio":"×","jishin":"×","tsunami":"×","kaji":"×","naisui":"×","kazan":"×"}}
,{"type":"Feature","geometry":{"type":"Point","coordinates":[139.619,35.625]},"properties":{"Name":"岡本地区会館","Jusho":"東京都世田谷区岡本1-25-4","kouzui":"×","gake":"○","takashio":"×","jishin":"×","tsunami":"×","kaji":"×","naisui":"×","kazan":"×"}}
,{"type":"Feature","geometry":{"type":"Point","coordinates":[139.679,35.636]},"properties":{"Name":"下馬地区会館","Jusho":"東京都世田谷区下馬4-13-4","kouzui":"○","gake":"×","takashio":"×","jishin":"×","tsunami":"×","kaji":"×","naisui":"○","kazan":"×"}}
,{"type":"Feature","geometry":{"type":"Point","coordinates":[139.613,35.617]},"properties":{"Name":"鎌田区民集会所","Jusho":"東京都世田谷区鎌田2-1-24","kouzui":"○","gake":"×","takashio":"×","jishin":"×","tsunami":"×","kaji":"×","naisui":"×","kazan":"×"}}
,{"type":"Feature","geometry":{"type":"Point","coordinates":[139.611,35.62]},"properties":{"Name":"ゆうぽうと世田谷レクセンター","Jusho":"東京都世田谷区鎌田2-17-1","kouzui":"○","gake":"×","takashio":"×","jishin":"×","tsunami":"×","kaji":"×","naisui":"×","kazan":"×"}}
,{"type":"Feature","geometry":{"type":"Point","coordinates":[139.613,35.621]},"properties":{"Name":"砧南中学校","Jusho":"東京都世田谷区鎌田3-13-20","kouzui":"○","gake":"×","takashio":"×","jishin":"×","tsunami":"×","kaji":"×","naisui":"×","kazan":"×"}}
,{"type":"Feature","geometry":{"type":"Point","coordinates":[139.605,35.632]},"properties":{"Name":"砧小学校","Jusho":"東京都世田谷区喜多見6-9-1","kouzui":"○","gake":"×","takashio":"×","jishin":"×","tsunami":"×","kaji":"×","naisui":"×","kazan":"×"}}
,{"type":"Feature","geometry":{"type":"Point","coordinates":[139.59,35.637]},"properties":{"Name":"喜多見地区会館","Jusho":"東京都世田谷区喜多見8-23-23","kouzui":"×","gake":"○","takashio":"×","jishin":"×","tsunami":"×","kaji":"×","naisui":"×","kazan":"×"}}
,{"type":"Feature","geometry":{"type":"Point","coordinates":[139.611,35.635]},"properties":{"Name":"大蔵地区会館","Jusho":"東京都世田谷区砧3-5-6","kouzui":"×","gake":"○","takashio":"×","jishin":"×","tsunami":"×","kaji":"×","naisui":"×","kazan":"×"}}
,{"type":"Feature","geometry":{"type":"Point","coordinates":[139.613,35.643]},"properties":{"Name":"山野小学校","Jusho":"東京都世田谷区砧6-7-1","kouzui":"○","gake":"×","takashio":"×","jishin":"×","tsunami":"×","kaji":"×","naisui":"×","kazan":"×"}}
,{"type":"Feature","geometry":{"type":"Point","coordinates":[139.667,35.603]},"properties":{"Name":"八幡小学校","Jusho":"東京都世田谷区玉川田園調布2-17-15","kouzui":"○","gake":"×","takashio":"×","jishin":"×","tsunami":"×","kaji":"×","naisui":"×","kazan":"×"}}
,{"type":"Feature","geometry":{"type":"Point","coordinates":[139.632,35.652]},"properties":{"Name":"経堂地区会館","Jusho":"東京都世田谷区経堂3-37-13","kouzui":"○","gake":"×","takashio":"×","jishin":"×","tsunami":"×","kaji":"×","naisui":"○","kazan":"×"}}
,{"type":"Feature","geometry":{"type":"Point","coordinates":[139.642,35.646]},"properties":{"Name":"桜木中学校　（体育館、柔道場及びプール横更衣室棟）","Jusho":"東京都世田谷区桜1-48-15","kouzui":"○","gake":"○","takashio":"×","jishin":"×","tsunami":"×","kaji":"×","naisui":"○","kazan":"×"}}
,{"type":"Feature","geometry":{"type":"Point","coordinates":[139.597,35.654]},"properties":{"Name":"上祖師谷地区会館","Jusho":"東京都世田谷区上祖師谷4-5-6","kouzui":"○","gake":"×","takashio":"×","jishin":"×","tsunami":"×","kaji":"×","naisui":"○","kazan":"×"}}
,{"type":"Feature","geometry":{"type":"Point","coordinates":[139.663,35.635]},"properties":{"Name":"上馬地区会館","Jusho":"東京都世田谷区上馬4-10-17","kouzui":"○","gake":"×","takashio":"×","jishin":"×","tsunami":"×","kaji":"×","naisui":"○","kazan":"×"}}
,{"type":"Feature","geometry":{"type":"Point","coordinates":[139.626,35.668]},"properties":{"Name":"上北沢区民センター","Jusho":"東京都世田谷区上北沢3-8-9","kouzui":"○","gake":"×","takashio":"×","jishin":"×","tsunami":"×","kaji":"×","naisui":"○","kazan":"×"}}
,{"type":"Feature","geometry":{"type":"Point","coordinates":[139.648,35.619]},"properties":{"Name":"都立園芸高校","Jusho":"東京都世田谷区深沢5-38-1","kouzui":"○","gake":"×","takashio":"×","jishin":"×","tsunami":"×","kaji":"×","naisui":"×","kazan":"×"}}
,{"type":"Feature","geometry":{"type":"Point","coordinates":[139.648,35.623]},"properties":{"Name":"都立深沢高校","Jusho":"東京都世田谷区深沢7-3-14","kouzui":"○","gake":"×","takashio":"×","jishin":"×","tsunami":"×","kaji":"×","naisui":"×","kazan":"×"}}
,{"type":"Feature","geometry":{"type":"Point","coordinates":[139.632,35.619]},"properties":{"Name":"瀬田小学校","Jusho":"東京都世田谷区瀬田2-15-1","kouzui":"×","gake":"○","takashio":"×","jishin":"×","tsunami":"×","kaji":"×","naisui":"×","kazan":"×"}}
,{"type":"Feature","geometry":{"type":"Point","coordinates":[139.632,35.619]},"properties":{"Name":"瀬田小学校","Jusho":"東京都世田谷区瀬田2-15-1","kouzui":"○","gake":"×","takashio":"×","jishin":"×","tsunami":"×","kaji":"×","naisui":"×","kazan":"×"}}
,{"type":"Feature","geometry":{"type":"Point","coordinates":[139.633,35.618]},"properties":{"Name":"瀬田中学校","Jusho":"東京都世田谷区瀬田2-17-1","kouzui":"○","gake":"×","takashio":"×","jishin":"×","tsunami":"×","kaji":"×","naisui":"×","kazan":"×"}}
,{"type":"Feature","geometry":{"type":"Point","coordinates":[139.633,35.618]},"properties":{"Name":"瀬田中学校","Jusho":"東京都世田谷区瀬田2-17-1","kouzui":"×","gake":"○","takashio":"×","jishin":"×","tsunami":"×","kaji":"×","naisui":"×","kazan":"×"}}
,{"type":"Feature","geometry":{"type":"Point","coordinates":[139.627,35.621]},"properties":{"Name":"瀬田地区会館","Jusho":"東京都世田谷区瀬田4-18-11","kouzui":"×","gake":"○","takashio":"×","jishin":"×","tsunami":"×","kaji":"×","naisui":"×","kazan":"×"}}
,{"type":"Feature","geometry":{"type":"Point","coordinates":[139.601,35.634]},"properties":{"Name":"砧中学校","Jusho":"東京都世田谷区成城1-10-1","kouzui":"○","gake":"×","takashio":"×","jishin":"×","tsunami":"×","kaji":"×","naisui":"×","kazan":"×"}}
,{"type":"Feature","geometry":{"type":"Point","coordinates":[139.598,35.634]},"properties":{"Name":"成城さくら児童館","Jusho":"東京都世田谷区成城3-18-23","kouzui":"×","gake":"○","takashio":"×","jishin":"×","tsunami":"×","kaji":"×","naisui":"×","kazan":"×"}}
,{"type":"Feature","geometry":{"type":"Point","coordinates":[139.599,35.635]},"properties":{"Name":"明正小学校","Jusho":"東京都世田谷区成城3-3-1","kouzui":"○","gake":"×","takashio":"×","jishin":"×","tsunami":"×","kaji":"×","naisui":"×","kazan":"×"}}
,{"type":"Feature","geometry":{"type":"Point","coordinates":[139.601,35.641]},"properties":{"Name":"砧総合支所集会室等","Jusho":"東京都世田谷区成城6-2-1","kouzui":"×","gake":"○","takashio":"×","jishin":"×","tsunami":"×","kaji":"×","naisui":"×","kazan":"×"}}
,{"type":"Feature","geometry":{"type":"Point","coordinates":[139.601,35.641]},"properties":{"Name":"砧総合支所成城ホール","Jusho":"東京都世田谷区成城6-2-1","kouzui":"○","gake":"×","takashio":"×","jishin":"×","tsunami":"×","kaji":"×","naisui":"×","kazan":"×"}}
,{"type":"Feature","geometry":{"type":"Point","coordinates":[139.595,35.652]},"properties":{"Name":"都立総合工科高校","Jusho":"東京都世田谷区成城9-25-1","kouzui":"○","gake":"×","takashio":"×","jishin":"×","tsunami":"×","kaji":"×","naisui":"×","kazan":"×"}}
,{"type":"Feature","geometry":{"type":"Point","coordinates":[139.598,35.652]},"properties":{"Name":"千歳小学校","Jusho":"東京都世田谷区成城9-6-1","kouzui":"○","gake":"×","takashio":"×","jishin":"×","tsunami":"×","kaji":"×","naisui":"×","kazan":"×"}}
,{"type":"Feature","geometry":{"type":"Point","coordinates":[139.638,35.665]},"properties":{"Name":"松沢区民集会所","Jusho":"東京都世田谷区赤堤5-31-5","kouzui":"○","gake":"×","takashio":"×","jishin":"×","tsunami":"×","kaji":"×","naisui":"○","kazan":"×"}}
,{"type":"Feature","geometry":{"type":"Point","coordinates":[139.621,35.659]},"properties":{"Name":"希望丘複合施設（区民集会所）","Jusho":"東京都世田谷区船橋6-25-1","kouzui":"○","gake":"×","takashio":"×","jishin":"×","tsunami":"×","kaji":"×","naisui":"×","kazan":"×"}}
,{"type":"Feature","geometry":{"type":"Point","coordinates":[139.605,35.646]},"properties":{"Name":"祖師谷小学校","Jusho":"東京都世田谷区祖師谷3-49-1","kouzui":"○","gake":"×","takashio":"×","jishin":"×","tsunami":"×","kaji":"×","naisui":"×","kazan":"×"}}
,{"type":"Feature","geometry":{"type":"Point","coordinates":[139.673,35.659]},"properties":{"Name":"池之上青少年会館","Jusho":"東京都世田谷区代沢2-37-18","kouzui":"×","gake":"○","takashio":"×","jishin":"×","tsunami":"×","kaji":"×","naisui":"×","kazan":"×"}}
,{"type":"Feature","geometry":{"type":"Point","coordinates":[139.612,35.63]},"properties":{"Name":"区立総合運動場体育館","Jusho":"東京都世田谷区大蔵4-6-1","kouzui":"○","gake":"×","takashio":"×","jishin":"×","tsunami":"×","kaji":"×","naisui":"×","kazan":"×"}}
,{"type":"Feature","geometry":{"type":"Point","coordinates":[139.615,35.632]},"properties":{"Name":"区立大蔵第二運動場体育館","Jusho":"東京都世田谷区大蔵4-7-1","kouzui":"○","gake":"×","takashio":"×","jishin":"×","tsunami":"×","kaji":"×","naisui":"×","kazan":"×"}}
,{"type":"Feature","geometry":{"type":"Point","coordinates":[139.612,35.625]},"properties":{"Name":"氷川神社","Jusho":"東京都世田谷区大蔵6-6-7","kouzui":"○","gake":"×","takashio":"×","jishin":"×","tsunami":"×","kaji":"×","naisui":"×","kazan":"×"}}
,{"type":"Feature","geometry":{"type":"Point","coordinates":[139.679,35.65]},"properties":{"Name":"池尻区民集会所","Jusho":"東京都世田谷区池尻3-27-21","kouzui":"○","gake":"○","takashio":"×","jishin":"×","tsunami":"×","kaji":"×","naisui":"○","kazan":"×"}}
,{"type":"Feature","geometry":{"type":"Point","coordinates":[139.644,35.611]},"properties":{"Name":"玉川小学校","Jusho":"東京都世田谷区中町2-29-1","kouzui":"×","gake":"○","takashio":"×","jishin":"×","tsunami":"×","kaji":"×","naisui":"×","kazan":"×"}}
,{"type":"Feature","geometry":{"type":"Point","coordinates":[139.644,35.611]},"properties":{"Name":"玉川小学校","Jusho":"東京都世田谷区中町2-29-1","kouzui":"○","gake":"×","takashio":"×","jishin":"×","tsunami":"×","kaji":"×","naisui":"×","kazan":"×"}}
,{"type":"Feature","geometry":{"type":"Point","coordinates":[139.641,35.611]},"properties":{"Name":"上野毛地区会館","Jusho":"東京都世田谷区中町2-33-11","kouzui":"×","gake":"○","takashio":"×","jishin":"×","tsunami":"×","kaji":"×","naisui":"×","kazan":"×"}}
,{"type":"Feature","geometry":{"type":"Point","coordinates":[139.643,35.617]},"properties":{"Name":"玉川中学校","Jusho":"東京都世田谷区中町4-21-1","kouzui":"○","gake":"×","takashio":"×","jishin":"×","tsunami":"×","kaji":"×","naisui":"×","kazan":"×"}}
,{"type":"Feature","geometry":{"type":"Point","coordinates":[139.643,35.617]},"properties":{"Name":"中町小学校","Jusho":"東京都世田谷区中町4-23-1","kouzui":"○","gake":"×","takashio":"×","jishin":"×","tsunami":"×","kaji":"×","naisui":"×","kazan":"×"}}
,{"type":"Feature","geometry":{"type":"Point","coordinates":[139.652,35.606]},"properties":{"Name":"尾山台地区会館","Jusho":"東京都世田谷区等々力2-17-14","kouzui":"×","gake":"○","takashio":"×","jishin":"×","tsunami":"×","kaji":"×","naisui":"×","kazan":"×"}}
,{"type":"Feature","geometry":{"type":"Point","coordinates":[139.649,35.609]},"properties":{"Name":"玉川区民会館","Jusho":"東京都世田谷区等々力3-4-1","kouzui":"○","gake":"×","takashio":"×","jishin":"×","tsunami":"×","kaji":"×","naisui":"×","kazan":"×"}}
,{"type":"Feature","geometry":{"type":"Point","coordinates":[139.652,35.613]},"properties":{"Name":"東京都市大学等々力キャンパス","Jusho":"東京都世田谷区等々力8-9-18","kouzui":"○","gake":"×","takashio":"×","jishin":"×","tsunami":"×","kaji":"×","naisui":"×","kazan":"×"}}
,{"type":"Feature","geometry":{"type":"Point","coordinates":[139.601,35.669]},"properties":{"Name":"烏山区民センター","Jusho":"東京都世田谷区南烏山6-2-19","kouzui":"○","gake":"×","takashio":"×","jishin":"×","tsunami":"×","kaji":"×","naisui":"○","kazan":"×"}}
,{"type":"Feature","geometry":{"type":"Point","coordinates":[139.654,35.605]},"properties":{"Name":"尾山台小学校","Jusho":"東京都世田谷区尾山台3-11-1","kouzui":"○","gake":"×","takashio":"×","jishin":"×","tsunami":"×","kaji":"×","naisui":"×","kazan":"×"}}
,{"type":"Feature","geometry":{"type":"Point","coordinates":[139.654,35.605]},"properties":{"Name":"尾山台小学校","Jusho":"東京都世田谷区尾山台3-11-1","kouzui":"×","gake":"○","takashio":"×","jishin":"×","tsunami":"×","kaji":"×","naisui":"×","kazan":"×"}}
,{"type":"Feature","geometry":{"type":"Point","coordinates":[139.656,35.606]},"properties":{"Name":"尾山台中学校","Jusho":"東京都世田谷区尾山台3-27-23","kouzui":"○","gake":"×","takashio":"×","jishin":"×","tsunami":"×","kaji":"×","naisui":"×","kazan":"×"}}
,{"type":"Feature","geometry":{"type":"Point","coordinates":[139.67,35.662]},"properties":{"Name":"北沢タウンホール","Jusho":"東京都世田谷区北沢2-8-18","kouzui":"○","gake":"×","takashio":"×","jishin":"×","tsunami":"×","kaji":"×","naisui":"○","kazan":"×"}}
,{"type":"Feature","geometry":{"type":"Point","coordinates":[139.636,35.7]},"properties":{"Name":"阿佐ヶ谷中学校","Jusho":"東京都杉並区阿佐谷南1-17-3","kouzui":"○","gake":"○","takashio":"×","jishin":"○","tsunami":"×","kaji":"○","naisui":"○","kazan":"×"}}
,{"type":"Feature","geometry":{"type":"Point","coordinates":[139.643,35.702]},"properties":{"Name":"杉並第六小学校","Jusho":"東京都杉並区阿佐谷南1-24-21","kouzui":"×","gake":"×","takashio":"×","jishin":"○","tsunami":"×","kaji":"○","naisui":"×","kazan":"×"}}
,{"type":"Feature","geometry":{"type":"Point","coordinates":[139.631,35.703]},"properties":{"Name":"杉並第七小学校","Jusho":"東京都杉並区阿佐谷南3-19-2","kouzui":"×","gake":"×","takashio":"×","jishin":"○","tsunami":"×","kaji":"○","naisui":"×","kazan":"×"}}
,{"type":"Feature","geometry":{"type":"Point","coordinates":[139.641,35.705]},"properties":{"Name":"阿佐谷地域区民センター","Jusho":"東京都杉並区阿佐谷北1-1-1","kouzui":"○","gake":"○","takashio":"×","jishin":"○","tsunami":"×","kaji":"○","naisui":"○","kazan":"×"}}
,{"type":"Feature","geometry":{"type":"Point","coordinates":[139.637,35.706]},"properties":{"Name":"杉並第一小学校","Jusho":"東京都杉並区阿佐谷北1-5-27","kouzui":"○","gake":"○","takashio":"×","jishin":"○","tsunami":"×","kaji":"○","naisui":"○","kazan":"×"}}
,{"type":"Feature","geometry":{"type":"Point","coordinates":[139.641,35.712]},"properties":{"Name":"杉森中学校","Jusho":"東京都杉並区阿佐谷北5-45-24","kouzui":"×","gake":"×","takashio":"×","jishin":"○","tsunami":"×","kaji":"○","naisui":"×","kazan":"×"}}
,{"type":"Feature","geometry":{"type":"Point","coordinates":[139.619,35.728]},"properties":{"Name":"八成小学校","Jusho":"東京都杉並区井草2-25-4","kouzui":"×","gake":"×","takashio":"×","jishin":"○","tsunami":"×","kaji":"○","naisui":"×","kazan":"×"}}
,{"type":"Feature","geometry":{"type":"Point","coordinates":[139.639,35.673]},"properties":{"Name":"永福小学校","Jusho":"東京都杉並区永福2-16-33","kouzui":"○","gake":"○","takashio":"×","jishin":"○","tsunami":"×","kaji":"○","naisui":"○","kazan":"×"}}
,{"type":"Feature","geometry":{"type":"Point","coordinates":[139.623,35.695]},"properties":{"Name":"西田小学校","Jusho":"東京都杉並区荻窪1-38-15","kouzui":"×","gake":"×","takashio":"×","jishin":"○","tsunami":"×","kaji":"○","naisui":"×","kazan":"×"}}
,{"type":"Feature","geometry":{"type":"Point","coordinates":[139.622,35.697]},"properties":{"Name":"松溪中学校","Jusho":"東京都杉並区荻窪2-3-1","kouzui":"×","gake":"×","takashio":"×","jishin":"○","tsunami":"×","kaji":"○","naisui":"×","kazan":"×"}}
,{"type":"Feature","geometry":{"type":"Point","coordinates":[139.619,35.699]},"properties":{"Name":"荻窪地域区民センター","Jusho":"東京都杉並区荻窪2-34-20","kouzui":"○","gake":"○","takashio":"×","jishin":"○","tsunami":"×","kaji":"○","naisui":"○","kazan":"×"}}
,{"type":"Feature","geometry":{"type":"Point","coordinates":[139.617,35.701]},"properties":{"Name":"桃井第二小学校","Jusho":"東京都杉並区荻窪5-10-25","kouzui":"×","gake":"×","takashio":"×","jishin":"○","tsunami":"×","kaji":"○","naisui":"×","kazan":"×"}}
,{"type":"Feature","geometry":{"type":"Point","coordinates":[139.63,35.718]},"properties":{"Name":"東原中学校","Jusho":"東京都杉並区下井草1-28-5","kouzui":"×","gake":"×","takashio":"×","jishin":"○","tsunami":"×","kaji":"○","naisui":"×","kazan":"×"}}
,{"type":"Feature","geometry":{"type":"Point","coordinates":[139.619,35.722]},"properties":{"Name":"桃井第五小学校","Jusho":"東京都杉並区下井草4-22-4","kouzui":"×","gake":"×","takashio":"×","jishin":"○","tsunami":"×","kaji":"○","naisui":"×","kazan":"×"}}
,{"type":"Feature","geometry":{"type":"Point","coordinates":[139.619,35.72]},"properties":{"Name":"中瀬中学校","Jusho":"東京都杉並区下井草4-3-29","kouzui":"○","gake":"○","takashio":"×","jishin":"○","tsunami":"×","kaji":"○","naisui":"○","kazan":"×"}}
,{"type":"Feature","geometry":{"type":"Point","coordinates":[139.617,35.721]},"properties":{"Name":"井草地域区民センター","Jusho":"東京都杉並区下井草5-7-22","kouzui":"○","gake":"○","takashio":"×","jishin":"○","tsunami":"×","kaji":"○","naisui":"○","kazan":"×"}}
,{"type":"Feature","geometry":{"type":"Point","coordinates":[139.637,35.671]},"properties":{"Name":"下高井戸おおぞら公園","Jusho":"東京都杉並区下高井戸2-28-23","kouzui":"×","gake":"×","takashio":"×","jishin":"○","tsunami":"×","kaji":"○","naisui":"×","kazan":"×"}}
,{"type":"Feature","geometry":{"type":"Point","coordinates":[139.635,35.673]},"properties":{"Name":"向陽中学校","Jusho":"東京都杉並区下高井戸3-24-1","kouzui":"×","gake":"×","takashio":"×","jishin":"○","tsunami":"×","kaji":"○","naisui":"×","kazan":"×"}}
,{"type":"Feature","geometry":{"type":"Point","coordinates":[139.631,35.672]},"properties":{"Name":"高井戸第三小学校","Jusho":"東京都杉並区下高井戸4-16-24","kouzui":"○","gake":"○","takashio":"×","jishin":"○","tsunami":"×","kaji":"○","naisui":"○","kazan":"×"}}
,{"type":"Feature","geometry":{"type":"Point","coordinates":[139.625,35.675]},"properties":{"Name":"塚山公園","Jusho":"東京都杉並区下高井戸5-23-12","kouzui":"×","gake":"×","takashio":"×","jishin":"○","tsunami":"×","kaji":"○","naisui":"×","kazan":"×"}}
,{"type":"Feature","geometry":{"type":"Point","coordinates":[139.605,35.683]},"properties":{"Name":"富士見丘小学校","Jusho":"東京都杉並区久我山2-19-1","kouzui":"×","gake":"×","takashio":"×","jishin":"○","tsunami":"×","kaji":"○","naisui":"×","kazan":"×"}}
,{"type":"Feature","geometry":{"type":"Point","coordinates":[139.599,35.687]},"properties":{"Name":"久我山会館","Jusho":"東京都杉並区久我山3-23-20","kouzui":"○","gake":"○","takashio":"×","jishin":"×","tsunami":"×","kaji":"×","naisui":"○","kazan":"×"}}
,{"type":"Feature","geometry":{"type":"Point","coordinates":[139.6,35.692]},"properties":{"Name":"高井戸第二小学校","Jusho":"東京都杉並区久我山4-49-1","kouzui":"×","gake":"×","takashio":"×","jishin":"○","tsunami":"×","kaji":"○","naisui":"×","kazan":"×"}}
,{"type":"Feature","geometry":{"type":"Point","coordinates":[139.606,35.687]},"properties":{"Name":"久我山小学校","Jusho":"東京都杉並区久我山5-18-7","kouzui":"×","gake":"×","takashio":"×","jishin":"○","tsunami":"×","kaji":"○","naisui":"×","kazan":"×"}}
,{"type":"Feature","geometry":{"type":"Point","coordinates":[139.611,35.693]},"properties":{"Name":"宮前中学校","Jusho":"東京都杉並区宮前2-12-1","kouzui":"×","gake":"×","takashio":"×","jishin":"○","tsunami":"×","kaji":"○","naisui":"×","kazan":"×"}}
,{"type":"Feature","geometry":{"type":"Point","coordinates":[139.612,35.695]},"properties":{"Name":"荻窪小学校","Jusho":"東京都杉並区宮前2-13-18","kouzui":"○","gake":"○","takashio":"×","jishin":"○","tsunami":"×","kaji":"○","naisui":"○","kazan":"×"}}
,{"type":"Feature","geometry":{"type":"Point","coordinates":[139.602,35.692]},"properties":{"Name":"西宮中学校","Jusho":"東京都杉並区宮前5-1-25","kouzui":"×","gake":"×","takashio":"×","jishin":"○","tsunami":"×","kaji":"○","naisui":"×","kazan":"×"}}
,{"type":"Feature","geometry":{"type":"Point","coordinates":[139.614,35.684]},"properties":{"Name":"高井戸小学校","Jusho":"東京都杉並区高井戸西2-2-1","kouzui":"○","gake":"○","takashio":"×","jishin":"○","tsunami":"×","kaji":"○","naisui":"○","kazan":"×"}}
,{"type":"Feature","geometry":{"type":"Point","coordinates":[139.62,35.68]},"properties":{"Name":"高井戸東小学校","Jusho":"東京都杉並区高井戸東1-12-1","kouzui":"○","gake":"○","takashio":"×","jishin":"○","tsunami":"×","kaji":"○","naisui":"○","kazan":"×"}}
,{"type":"Feature","geometry":{"type":"Point","coordinates":[139.623,35.681]},"properties":{"Name":"高井戸中学校","Jusho":"東京都杉並区高井戸東1-28-1","kouzui":"×","gake":"×","takashio":"×","jishin":"○","tsunami":"×","kaji":"○","naisui":"×","kazan":"×"}}
,{"type":"Feature","geometry":{"type":"Point","coordinates":[139.617,35.684]},"properties":{"Name":"高井戸地域区民センター","Jusho":"東京都杉並区高井戸東3-7-5","kouzui":"○","gake":"○","takashio":"×","jishin":"○","tsunami":"×","kaji":"○","naisui":"○","kazan":"×"}}
,{"type":"Feature","geometry":{"type":"Point","coordinates":[139.656,35.7]},"properties":{"Name":"杉並第三小学校","Jusho":"東京都杉並区高円寺南1-15-13","kouzui":"○","gake":"○","takashio":"×","jishin":"○","tsunami":"×","kaji":"○","naisui":"○","kazan":"×"}}
,{"type":"Feature","geometry":{"type":"Point","coordinates":[139.654,35.7]},"properties":{"Name":"旧杉並第八小学校（高円寺体育館）","Jusho":"東京都杉並区高円寺南2-36-31","kouzui":"×","gake":"×","takashio":"×","jishin":"○","tsunami":"×","kaji":"○","naisui":"×","kazan":"×"}}
,{"type":"Feature","geometry":{"type":"Point","coordinates":[139.655,35.707]},"properties":{"Name":"高円寺学園","Jusho":"東京都杉並区高円寺北1-4-11","kouzui":"×","gake":"×","takashio":"×","jishin":"○","tsunami":"×","kaji":"○","naisui":"×","kazan":"×"}}
,{"type":"Feature","geometry":{"type":"Point","coordinates":[139.654,35.707]},"properties":{"Name":"旧杉並第四小学校","Jusho":"東京都杉並区高円寺北2-14-13","kouzui":"×","gake":"×","takashio":"×","jishin":"○","tsunami":"×","kaji":"○","naisui":"×","kazan":"×"}}
,{"type":"Feature","geometry":{"type":"Point","coordinates":[139.644,35.708]},"properties":{"Name":"馬橋小学校","Jusho":"東京都杉並区高円寺北4-28-5","kouzui":"×","gake":"×","takashio":"×","jishin":"○","tsunami":"×","kaji":"○","naisui":"×","kazan":"×"}}
,{"type":"Feature","geometry":{"type":"Point","coordinates":[139.644,35.71]},"properties":{"Name":"馬橋公園","Jusho":"東京都杉並区高円寺北4-35-5","kouzui":"×","gake":"×","takashio":"×","jishin":"○","tsunami":"×","kaji":"○","naisui":"×","kazan":"×"}}
,{"type":"Feature","geometry":{"type":"Point","coordinates":[139.611,35.718]},"properties":{"Name":"井荻中学校","Jusho":"東京都杉並区今川2-13-24","kouzui":"×","gake":"×","takashio":"×","jishin":"○","tsunami":"×","kaji":"○","naisui":"×","kazan":"×"}}
,{"type":"Feature","geometry":{"type":"Point","coordinates":[139.643,35.687]},"properties":{"Name":"松ノ木小学校","Jusho":"東京都杉並区松ノ木1-2-26","kouzui":"×","gake":"×","takashio":"×","jishin":"○","tsunami":"×","kaji":"○","naisui":"×","kazan":"×"}}
,{"type":"Feature","geometry":{"type":"Point","coordinates":[139.641,35.686]},"properties":{"Name":"松ノ木中学校","Jusho":"東京都杉並区松ノ木1-4-1","kouzui":"○","gake":"○","takashio":"×","jishin":"○","tsunami":"×","kaji":"○","naisui":"○","kazan":"×"}}
,{"type":"Feature","geometry":{"type":"Point","coordinates":[139.593,35.7]},"properties":{"Name":"松庵小学校","Jusho":"東京都杉並区松庵2-23-24","kouzui":"×","gake":"×","takashio":"×","jishin":"○","tsunami":"×","kaji":"○","naisui":"×","kazan":"×"}}
,{"type":"Feature","geometry":{"type":"Point","coordinates":[139.61,35.721]},"properties":{"Name":"四宮小学校","Jusho":"東京都杉並区上井草2-12-26","kouzui":"○","gake":"○","takashio":"×","jishin":"○","tsunami":"×","kaji":"○","naisui":"○","kazan":"×"}}
,{"type":"Feature","geometry":{"type":"Point","coordinates":[139.602,35.72]},"properties":{"Name":"三谷小学校","Jusho":"東京都杉並区上井草3-14-12","kouzui":"×","gake":"×","takashio":"×","jishin":"○","tsunami":"×","kaji":"○","naisui":"×","kazan":"×"}}
,{"type":"Feature","geometry":{"type":"Point","coordinates":[139.603,35.722]},"properties":{"Name":"井草中学校","Jusho":"東京都杉並区上井草3-20-11","kouzui":"×","gake":"×","takashio":"×","jishin":"○","tsunami":"×","kaji":"○","naisui":"×","kazan":"×"}}
,{"type":"Feature","geometry":{"type":"Point","coordinates":[139.607,35.679]},"properties":{"Name":"富士見丘中学校","Jusho":"東京都杉並区上高井戸2-16-13","kouzui":"×","gake":"×","takashio":"×","jishin":"○","tsunami":"×","kaji":"○","naisui":"×","kazan":"×"}}
,{"type":"Feature","geometry":{"type":"Point","coordinates":[139.632,35.693]},"properties":{"Name":"杉並第二小学校","Jusho":"東京都杉並区成田西3-4-1","kouzui":"○","gake":"○","takashio":"×","jishin":"○","tsunami":"×","kaji":"○","naisui":"○","kazan":"×"}}
,{"type":"Feature","geometry":{"type":"Point","coordinates":[139.639,35.691]},"properties":{"Name":"東田小学校","Jusho":"東京都杉並区成田東1-21-1","kouzui":"○","gake":"○","takashio":"×","jishin":"○","tsunami":"×","kaji":"○","naisui":"○","kazan":"×"}}
,{"type":"Feature","geometry":{"type":"Point","coordinates":[139.635,35.694]},"properties":{"Name":"東田中学校","Jusho":"東京都杉並区成田東3-19-17","kouzui":"×","gake":"×","takashio":"×","jishin":"○","tsunami":"×","kaji":"○","naisui":"×","kazan":"×"}}
,{"type":"Feature","geometry":{"type":"Point","coordinates":[139.621,35.717]},"properties":{"Name":"沓掛小学校","Jusho":"東京都杉並区清水3-1-9","kouzui":"×","gake":"×","takashio":"×","jishin":"○","tsunami":"×","kaji":"○","naisui":"×","kazan":"×"}}
,{"type":"Feature","geometry":{"type":"Point","coordinates":[139.602,35.698]},"properties":{"Name":"高井戸第四小学校","Jusho":"東京都杉並区西荻南1-8-16","kouzui":"×","gake":"×","takashio":"×","jishin":"○","tsunami":"×","kaji":"○","naisui":"×","kazan":"×"}}
,{"type":"Feature","geometry":{"type":"Point","coordinates":[139.602,35.705]},"properties":{"Name":"桃井第三小学校","Jusho":"東京都杉並区西荻北2-10-7","kouzui":"○","gake":"○","takashio":"×","jishin":"○","tsunami":"×","kaji":"○","naisui":"○","kazan":"×"}}
,{"type":"Feature","geometry":{"type":"Point","coordinates":[139.596,35.711]},"properties":{"Name":"井荻小学校","Jusho":"東京都杉並区善福寺1-10-19","kouzui":"×","gake":"×","takashio":"×","jishin":"○","tsunami":"×","kaji":"○","naisui":"×","kazan":"×"}}
,{"type":"Feature","geometry":{"type":"Point","coordinates":[139.597,35.71]},"properties":{"Name":"荻窪中学校","Jusho":"東京都杉並区善福寺1-8-3","kouzui":"○","gake":"○","takashio":"×","jishin":"○","tsunami":"×","kaji":"○","naisui":"○","kazan":"×"}}
,{"type":"Feature","geometry":{"type":"Point","coordinates":[139.594,35.717]},"properties":{"Name":"桃井第四小学校","Jusho":"東京都杉並区善福寺3-3-5","kouzui":"×","gake":"×","takashio":"×","jishin":"○","tsunami":"×","kaji":"○","naisui":"×","kazan":"×"}}
,{"type":"Feature","geometry":{"type":"Point","coordinates":[139.623,35.711]},"properties":{"Name":"天沼小学校","Jusho":"東京都杉並区天沼2-46-3","kouzui":"×","gake":"×","takashio":"×","jishin":"○","tsunami":"×","kaji":"○","naisui":"×","kazan":"×"}}
,{"type":"Feature","geometry":{"type":"Point","coordinates":[139.619,35.708]},"properties":{"Name":"保育室若杉","Jusho":"東京都杉並区天沼3-15-20","kouzui":"×","gake":"×","takashio":"×","jishin":"○","tsunami":"×","kaji":"○","naisui":"×","kazan":"×"}}
,{"type":"Feature","geometry":{"type":"Point","coordinates":[139.609,35.712]},"properties":{"Name":"桃井第一小学校","Jusho":"東京都杉並区桃井2-6-1","kouzui":"×","gake":"×","takashio":"×","jishin":"○","tsunami":"×","kaji":"○","naisui":"×","kazan":"×"}}
,{"type":"Feature","geometry":{"type":"Point","coordinates":[139.602,35.713]},"properties":{"Name":"西荻地域区民センター","Jusho":"東京都杉並区桃井4-3-2","kouzui":"○","gake":"○","takashio":"×","jishin":"○","tsunami":"×","kaji":"○","naisui":"○","kazan":"×"}}
,{"type":"Feature","geometry":{"type":"Point","coordinates":[139.609,35.7]},"properties":{"Name":"神明中学校","Jusho":"東京都杉並区南荻窪2-37-28","kouzui":"×","gake":"×","takashio":"×","jishin":"○","tsunami":"×","kaji":"○","naisui":"×","kazan":"×"}}
,{"type":"Feature","geometry":{"type":"Point","coordinates":[139.654,35.697]},"properties":{"Name":"高円寺地域区民センター","Jusho":"東京都杉並区梅里1-22-32","kouzui":"○","gake":"○","takashio":"×","jishin":"○","tsunami":"×","kaji":"○","naisui":"○","kazan":"×"}}
,{"type":"Feature","geometry":{"type":"Point","coordinates":[139.629,35.685]},"properties":{"Name":"浜田山小学校","Jusho":"東京都杉並区浜田山4-23-1","kouzui":"×","gake":"×","takashio":"×","jishin":"○","tsunami":"×","kaji":"○","naisui":"×","kazan":"×"}}
,{"type":"Feature","geometry":{"type":"Point","coordinates":[139.659,35.68]},"properties":{"Name":"方南小学校","Jusho":"東京都杉並区方南1-52-14","kouzui":"○","gake":"○","takashio":"×","jishin":"○","tsunami":"×","kaji":"○","naisui":"○","kazan":"×"}}
,{"type":"Feature","geometry":{"type":"Point","coordinates":[139.65,35.683]},"properties":{"Name":"大宮小学校","Jusho":"東京都杉並区堀ノ内1-12-16","kouzui":"×","gake":"×","takashio":"×","jishin":"○","tsunami":"×","kaji":"○","naisui":"×","kazan":"×"}}
,{"type":"Feature","geometry":{"type":"Point","coordinates":[139.649,35.686]},"properties":{"Name":"大宮中学校","Jusho":"東京都杉並区堀ノ内1-16-38","kouzui":"○","gake":"○","takashio":"×","jishin":"○","tsunami":"×","kaji":"○","naisui":"○","kazan":"×"}}
,{"type":"Feature","geometry":{"type":"Point","coordinates":[139.65,35.686]},"properties":{"Name":"済美小学校","Jusho":"東京都杉並区堀ノ内1-17-24","kouzui":"×","gake":"×","takashio":"×","jishin":"○","tsunami":"×","kaji":"○","naisui":"×","kazan":"×"}}
,{"type":"Feature","geometry":{"type":"Point","coordinates":[139.655,35.685]},"properties":{"Name":"泉南中学校","Jusho":"東京都杉並区堀ノ内1-3-1","kouzui":"○","gake":"○","takashio":"×","jishin":"○","tsunami":"×","kaji":"○","naisui":"○","kazan":"×"}}
,{"type":"Feature","geometry":{"type":"Point","coordinates":[139.647,35.693]},"properties":{"Name":"堀之内小学校","Jusho":"東京都杉並区堀ノ内3-24-11","kouzui":"○","gake":"○","takashio":"×","jishin":"○","tsunami":"×","kaji":"○","naisui":"○","kazan":"×"}}
,{"type":"Feature","geometry":{"type":"Point","coordinates":[139.633,35.713]},"properties":{"Name":"杉並第九小学校","Jusho":"東京都杉並区本天沼1-2-19","kouzui":"×","gake":"×","takashio":"×","jishin":"○","tsunami":"×","kaji":"○","naisui":"×","kazan":"×"}}
,{"type":"Feature","geometry":{"type":"Point","coordinates":[139.621,35.712]},"properties":{"Name":"天沼中学校","Jusho":"東京都杉並区本天沼3-10-20","kouzui":"×","gake":"×","takashio":"×","jishin":"○","tsunami":"×","kaji":"○","naisui":"×","kazan":"×"}}
,{"type":"Feature","geometry":{"type":"Point","coordinates":[139.657,35.676]},"properties":{"Name":"旧新泉小学校","Jusho":"東京都杉並区和泉1-44-26","kouzui":"×","gake":"×","takashio":"×","jishin":"○","tsunami":"×","kaji":"○","naisui":"×","kazan":"×"}}
,{"type":"Feature","geometry":{"type":"Point","coordinates":[139.649,35.675]},"properties":{"Name":"杉並和泉学園","Jusho":"東京都杉並区和泉2-17-14","kouzui":"×","gake":"×","takashio":"×","jishin":"○","tsunami":"×","kaji":"○","naisui":"×","kazan":"×"}}
,{"type":"Feature","geometry":{"type":"Point","coordinates":[139.646,35.676]},"properties":{"Name":"永福和泉地域区民センター","Jusho":"東京都杉並区和泉3-8-18","kouzui":"○","gake":"○","takashio":"×","jishin":"○","tsunami":"×","kaji":"○","naisui":"○","kazan":"×"}}
,{"type":"Feature","geometry":{"type":"Point","coordinates":[139.659,35.69]},"properties":{"Name":"和田中学校","Jusho":"東京都杉並区和田2-21-8","kouzui":"×","gake":"×","takashio":"×","jishin":"○","tsunami":"×","kaji":"○","naisui":"×","kazan":"×"}}
,{"type":"Feature","geometry":{"type":"Point","coordinates":[139.657,35.691]},"properties":{"Name":"和田小学校","Jusho":"東京都杉並区和田2-30-21","kouzui":"○","gake":"○","takashio":"×","jishin":"○","tsunami":"×","kaji":"○","naisui":"○","kazan":"×"}}
,{"type":"Feature","geometry":{"type":"Point","coordinates":[139.658,35.695]},"properties":{"Name":"高南中学校","Jusho":"東京都杉並区和田3-40-10","kouzui":"×","gake":"×","takashio":"×","jishin":"○","tsunami":"×","kaji":"○","naisui":"×","kazan":"×"}}
,{"type":"Feature","geometry":{"type":"Point","coordinates":[139.658,35.697]},"properties":{"Name":"杉並第十小学校","Jusho":"東京都杉並区和田3-55-49","kouzui":"×","gake":"×","takashio":"×","jishin":"○","tsunami":"×","kaji":"○","naisui":"×","kazan":"×"}}
,{"type":"Feature","geometry":{"type":"Point","coordinates":[139.743,35.738]},"properties":{"Name":"駒込小学校","Jusho":"東京都豊島区駒込3-13-1","kouzui":"○","gake":"○","takashio":"×","jishin":"○","tsunami":"×","kaji":"×","naisui":"○","kazan":"×"}}
,{"type":"Feature","geometry":{"type":"Point","coordinates":[139.742,35.736]},"properties":{"Name":"駒込中学校","Jusho":"東京都豊島区駒込4-5-1","kouzui":"○","gake":"○","takashio":"×","jishin":"○","tsunami":"×","kaji":"×","naisui":"○","kazan":"×"}}
,{"type":"Feature","geometry":{"type":"Point","coordinates":[139.738,35.736]},"properties":{"Name":"仰高小学校","Jusho":"東京都豊島区駒込5-1-19","kouzui":"○","gake":"○","takashio":"×","jishin":"○","tsunami":"×","kaji":"×","naisui":"○","kazan":"×"}}
,{"type":"Feature","geometry":{"type":"Point","coordinates":[139.7,35.736]},"properties":{"Name":"千川中学校","Jusho":"東京都豊島区高松1-9-21","kouzui":"○","gake":"○","takashio":"×","jishin":"○","tsunami":"×","kaji":"×","naisui":"○","kazan":"×"}}
,{"type":"Feature","geometry":{"type":"Point","coordinates":[139.697,35.74]},"properties":{"Name":"高松小学校","Jusho":"東京都豊島区高松2-57-22","kouzui":"○","gake":"○","takashio":"×","jishin":"○","tsunami":"×","kaji":"×","naisui":"○","kazan":"×"}}
,{"type":"Feature","geometry":{"type":"Point","coordinates":[139.714,35.717]},"properties":{"Name":"高南小学校","Jusho":"東京都豊島区高田2-12-7","kouzui":"×","gake":"×","takashio":"×","jishin":"○","tsunami":"×","kaji":"×","naisui":"×","kazan":"×"}}
,{"type":"Feature","geometry":{"type":"Point","coordinates":[139.722,35.735]},"properties":{"Name":"豊成小学校","Jusho":"東京都豊島区上池袋1-18-24","kouzui":"○","gake":"○","takashio":"×","jishin":"○","tsunami":"×","kaji":"×","naisui":"○","kazan":"×"}}
,{"type":"Feature","geometry":{"type":"Point","coordinates":[139.719,35.741]},"properties":{"Name":"池袋第一小学校","Jusho":"東京都豊島区上池袋4-28-1","kouzui":"○","gake":"○","takashio":"×","jishin":"○","tsunami":"×","kaji":"×","naisui":"○","kazan":"×"}}
,{"type":"Feature","geometry":{"type":"Point","coordinates":[139.726,35.738]},"properties":{"Name":"西巣鴨小学校","Jusho":"東京都豊島区西巣鴨1-27-1","kouzui":"○","gake":"○","takashio":"×","jishin":"○","tsunami":"×","kaji":"×","naisui":"○","kazan":"×"}}
,{"type":"Feature","geometry":{"type":"Point","coordinates":[139.729,35.742]},"properties":{"Name":"巣鴨北中学校","Jusho":"東京都豊島区西巣鴨3-17-1","kouzui":"○","gake":"○","takashio":"×","jishin":"○","tsunami":"×","kaji":"×","naisui":"○","kazan":"×"}}
,{"type":"Feature","geometry":{"type":"Point","coordinates":[139.703,35.728]},"properties":{"Name":"池袋第三小学校","Jusho":"東京都豊島区西池袋3-14-3","kouzui":"○","gake":"○","takashio":"×","jishin":"○","tsunami":"×","kaji":"×","naisui":"○","kazan":"×"}}
,{"type":"Feature","geometry":{"type":"Point","coordinates":[139.7,35.728]},"properties":{"Name":"西池袋中学校","Jusho":"東京都豊島区西池袋4-7-1","kouzui":"○","gake":"○","takashio":"×","jishin":"○","tsunami":"×","kaji":"×","naisui":"○","kazan":"×"}}
,{"type":"Feature","geometry":{"type":"Point","coordinates":[139.691,35.736]},"properties":{"Name":"西部区民事務所","Jusho":"東京都豊島区千早2-39-16","kouzui":"○","gake":"○","takashio":"×","jishin":"○","tsunami":"×","kaji":"×","naisui":"○","kazan":"×"}}
,{"type":"Feature","geometry":{"type":"Point","coordinates":[139.687,35.735]},"properties":{"Name":"千早小学校","Jusho":"東京都豊島区千早3-33-5","kouzui":"○","gake":"○","takashio":"×","jishin":"○","tsunami":"×","kaji":"×","naisui":"○","kazan":"×"}}
,{"type":"Feature","geometry":{"type":"Point","coordinates":[139.733,35.736]},"properties":{"Name":"清和小学校","Jusho":"東京都豊島区巣鴨3-14-1","kouzui":"○","gake":"○","takashio":"×","jishin":"○","tsunami":"×","kaji":"×","naisui":"○","kazan":"×"}}
,{"type":"Feature","geometry":{"type":"Point","coordinates":[139.733,35.741]},"properties":{"Name":"朝日小学校","Jusho":"東京都豊島区巣鴨5-33-1","kouzui":"○","gake":"○","takashio":"×","jishin":"○","tsunami":"×","kaji":"×","naisui":"○","kazan":"×"}}
,{"type":"Feature","geometry":{"type":"Point","coordinates":[139.705,35.736]},"properties":{"Name":"みらい館大明","Jusho":"東京都豊島区池袋3-30-8","kouzui":"○","gake":"○","takashio":"×","jishin":"○","tsunami":"×","kaji":"×","naisui":"○","kazan":"×"}}
,{"type":"Feature","geometry":{"type":"Point","coordinates":[139.709,35.738]},"properties":{"Name":"池袋小学校","Jusho":"東京都豊島区池袋4-23-8","kouzui":"○","gake":"○","takashio":"×","jishin":"○","tsunami":"×","kaji":"×","naisui":"○","kazan":"×"}}
,{"type":"Feature","geometry":{"type":"Point","coordinates":[139.715,35.741]},"properties":{"Name":"池袋本町小学校　池袋中学校（連携校）","Jusho":"東京都豊島区池袋本町1-43-1","kouzui":"○","gake":"○","takashio":"×","jishin":"○","tsunami":"×","kaji":"×","naisui":"○","kazan":"×"}}
,{"type":"Feature","geometry":{"type":"Point","coordinates":[139.715,35.744]},"properties":{"Name":"旧文成小学校","Jusho":"東京都豊島区池袋本町4-36-1","kouzui":"○","gake":"○","takashio":"×","jishin":"○","tsunami":"×","kaji":"×","naisui":"○","kazan":"×"}}
,{"type":"Feature","geometry":{"type":"Point","coordinates":[139.69,35.729]},"properties":{"Name":"長崎小学校","Jusho":"東京都豊島区長崎2-6-3","kouzui":"○","gake":"○","takashio":"×","jishin":"○","tsunami":"×","kaji":"×","naisui":"○","kazan":"×"}}
,{"type":"Feature","geometry":{"type":"Point","coordinates":[139.684,35.736]},"properties":{"Name":"明豊中学校","Jusho":"東京都豊島区長崎5-31-29","kouzui":"○","gake":"○","takashio":"×","jishin":"○","tsunami":"×","kaji":"×","naisui":"○","kazan":"×"}}
,{"type":"Feature","geometry":{"type":"Point","coordinates":[139.68,35.736]},"properties":{"Name":"さくら小学校","Jusho":"東京都豊島区長崎6-16-1","kouzui":"○","gake":"○","takashio":"×","jishin":"○","tsunami":"×","kaji":"×","naisui":"○","kazan":"×"}}
,{"type":"Feature","geometry":{"type":"Point","coordinates":[139.724,35.729]},"properties":{"Name":"朋有小学校","Jusho":"東京都豊島区東池袋4-40-1","kouzui":"○","gake":"○","takashio":"×","jishin":"○","tsunami":"×","kaji":"×","naisui":"○","kazan":"×"}}
,{"type":"Feature","geometry":{"type":"Point","coordinates":[139.735,35.729]},"properties":{"Name":"巣鴨小学校","Jusho":"東京都豊島区南大塚1-24-10","kouzui":"○","gake":"○","takashio":"×","jishin":"○","tsunami":"×","kaji":"×","naisui":"○","kazan":"×"}}
,{"type":"Feature","geometry":{"type":"Point","coordinates":[139.728,35.729]},"properties":{"Name":"西巣鴨中学校","Jusho":"東京都豊島区南大塚3-18-1","kouzui":"○","gake":"○","takashio":"×","jishin":"○","tsunami":"×","kaji":"×","naisui":"○","kazan":"×"}}
,{"type":"Feature","geometry":{"type":"Point","coordinates":[139.715,35.724]},"properties":{"Name":"南池袋小学校","Jusho":"東京都豊島区南池袋3-18-12","kouzui":"○","gake":"○","takashio":"×","jishin":"○","tsunami":"×","kaji":"×","naisui":"○","kazan":"×"}}
,{"type":"Feature","geometry":{"type":"Point","coordinates":[139.693,35.725]},"properties":{"Name":"富士見台小学校","Jusho":"東京都豊島区南長崎1-10-5","kouzui":"○","gake":"○","takashio":"×","jishin":"○","tsunami":"×","kaji":"×","naisui":"○","kazan":"×"}}
,{"type":"Feature","geometry":{"type":"Point","coordinates":[139.684,35.725]},"properties":{"Name":"南長崎スポーツ公園","Jusho":"東京都豊島区南長崎4-13-5","kouzui":"○","gake":"○","takashio":"×","jishin":"○","tsunami":"×","kaji":"×","naisui":"○","kazan":"×"}}
,{"type":"Feature","geometry":{"type":"Point","coordinates":[139.686,35.727]},"properties":{"Name":"椎名町小学校","Jusho":"東京都豊島区南長崎4-30-5","kouzui":"○","gake":"○","takashio":"×","jishin":"○","tsunami":"×","kaji":"×","naisui":"○","kazan":"×"}}
,{"type":"Feature","geometry":{"type":"Point","coordinates":[139.712,35.717]},"properties":{"Name":"千登世橋中学校","Jusho":"東京都豊島区目白1-1-1","kouzui":"○","gake":"×","takashio":"×","jishin":"○","tsunami":"×","kaji":"×","naisui":"×","kazan":"×"}}
,{"type":"Feature","geometry":{"type":"Point","coordinates":[139.709,35.721]},"properties":{"Name":"目白小学校","Jusho":"東京都豊島区目白2-11-6","kouzui":"○","gake":"○","takashio":"×","jishin":"○","tsunami":"×","kaji":"×","naisui":"○","kazan":"×"}}
,{"type":"Feature","geometry":{"type":"Point","coordinates":[139.697,35.725]},"properties":{"Name":"旧真和中学校","Jusho":"東京都豊島区目白5-24-12","kouzui":"○","gake":"○","takashio":"×","jishin":"○","tsunami":"×","kaji":"×","naisui":"○","kazan":"×"}}
,{"type":"Feature","geometry":{"type":"Point","coordinates":[139.694,35.734]},"properties":{"Name":"要小学校","Jusho":"東京都豊島区要町2-3-20","kouzui":"○","gake":"○","takashio":"×","jishin":"○","tsunami":"×","kaji":"×","naisui":"○","kazan":"×"}}
,{"type":"Feature","geometry":{"type":"Point","coordinates":[139.69,35.74]},"properties":{"Name":"豊島体育館","Jusho":"東京都豊島区要町3-47-8","kouzui":"○","gake":"○","takashio":"×","jishin":"○","tsunami":"×","kaji":"×","naisui":"○","kazan":"×"}}
,{"type":"Feature","geometry":{"type":"Point","coordinates":[139.736,35.759]},"properties":{"Name":"区立王子小学校","Jusho":"東京都北区王子2-7-1","kouzui":"×","gake":"×","takashio":"×","jishin":"○","tsunami":"×","kaji":"×","naisui":"×","kazan":"×"}}
,{"type":"Feature","geometry":{"type":"Point","coordinates":[139.736,35.758]},"properties":{"Name":"区立王子桜中学校","Jusho":"東京都北区王子2-7-1","kouzui":"×","gake":"×","takashio":"×","jishin":"○","tsunami":"×","kaji":"×","naisui":"×","kazan":"×"}}
,{"type":"Feature","geometry":{"type":"Point","coordinates":[139.738,35.765]},"properties":{"Name":"区立王子第一小学校","Jusho":"東京都北区王子5-14-18","kouzui":"×","gake":"×","takashio":"×","jishin":"○","tsunami":"×","kaji":"×","naisui":"×","kazan":"×"}}
,{"type":"Feature","geometry":{"type":"Point","coordinates":[139.735,35.763]},"properties":{"Name":"区立堀船中学校","Jusho":"東京都北区王子5-2-8","kouzui":"×","gake":"×","takashio":"×","jishin":"○","tsunami":"×","kaji":"×","naisui":"×","kazan":"×"}}
,{"type":"Feature","geometry":{"type":"Point","coordinates":[139.742,35.76]},"properties":{"Name":"区立明桜中学校","Jusho":"東京都北区王子6-3-23","kouzui":"○","gake":"×","takashio":"×","jishin":"○","tsunami":"×","kaji":"×","naisui":"×","kazan":"×"}}
,{"type":"Feature","geometry":{"type":"Point","coordinates":[139.741,35.763]},"properties":{"Name":"旧清至中学校","Jusho":"東京都北区王子6-7-3","kouzui":"×","gake":"×","takashio":"×","jishin":"○","tsunami":"×","kaji":"×","naisui":"×","kazan":"×"}}
,{"type":"Feature","geometry":{"type":"Point","coordinates":[139.733,35.756]},"properties":{"Name":"区立王子第二小学校","Jusho":"東京都北区王子本町2-2-5","kouzui":"×","gake":"×","takashio":"×","jishin":"○","tsunami":"×","kaji":"×","naisui":"×","kazan":"×"}}
,{"type":"Feature","geometry":{"type":"Point","coordinates":[139.726,35.784]},"properties":{"Name":"区立岩淵小学校","Jusho":"東京都北区岩淵町6-6","kouzui":"×","gake":"×","takashio":"×","jishin":"○","tsunami":"×","kaji":"×","naisui":"×","kazan":"×"}}
,{"type":"Feature","geometry":{"type":"Point","coordinates":[139.707,35.777]},"properties":{"Name":"区立桐ケ丘郷小学校","Jusho":"東京都北区桐ケ丘1-10-23","kouzui":"○","gake":"×","takashio":"○","jishin":"○","tsunami":"×","kaji":"×","naisui":"×","kazan":"×"}}
,{"type":"Feature","geometry":{"type":"Point","coordinates":[139.709,35.78]},"properties":{"Name":"区立桐ケ丘中学校","Jusho":"東京都北区桐ケ丘2-6-11","kouzui":"○","gake":"○","takashio":"○","jishin":"○","tsunami":"×","kaji":"×","naisui":"×","kazan":"×"}}
,{"type":"Feature","geometry":{"type":"Point","coordinates":[139.732,35.777]},"properties":{"Name":"区立なでしこ小学校","Jusho":"東京都北区志茂1-34-17","kouzui":"×","gake":"×","takashio":"×","jishin":"○","tsunami":"×","kaji":"×","naisui":"×","kazan":"×"}}
,{"type":"Feature","geometry":{"type":"Point","coordinates":[139.731,35.783]},"properties":{"Name":"志茂子ども交流館","Jusho":"東京都北区志茂5-18-3","kouzui":"×","gake":"×","takashio":"×","jishin":"○","tsunami":"×","kaji":"×","naisui":"×","kazan":"×"}}
,{"type":"Feature","geometry":{"type":"Point","coordinates":[139.723,35.757]},"properties":{"Name":"区立十条富士見中学校","Jusho":"東京都北区十条台1-9-33","kouzui":"×","gake":"×","takashio":"×","jishin":"○","tsunami":"×","kaji":"×","naisui":"×","kazan":"×"}}
,{"type":"Feature","geometry":{"type":"Point","coordinates":[139.722,35.77]},"properties":{"Name":"旧清水小学校","Jusho":"東京都北区十条仲原4-5-17","kouzui":"○","gake":"○","takashio":"○","jishin":"○","tsunami":"×","kaji":"×","naisui":"×","kazan":"×"}}
,{"type":"Feature","geometry":{"type":"Point","coordinates":[139.75,35.749]},"properties":{"Name":"区立滝野川第五小学校","Jusho":"東京都北区昭和町3-3-12","kouzui":"×","gake":"×","takashio":"×","jishin":"○","tsunami":"×","kaji":"×","naisui":"×","kazan":"×"}}
,{"type":"Feature","geometry":{"type":"Point","coordinates":[139.719,35.76]},"properties":{"Name":"区立王子第五小学校","Jusho":"東京都北区上十条2-18-17","kouzui":"○","gake":"×","takashio":"○","jishin":"○","tsunami":"×","kaji":"×","naisui":"×","kazan":"×"}}
,{"type":"Feature","geometry":{"type":"Point","coordinates":[139.717,35.759]},"properties":{"Name":"旧富士見中学校（学校法人帝京大学）","Jusho":"東京都北区上十条3-1-25","kouzui":"○","gake":"×","takashio":"○","jishin":"○","tsunami":"×","kaji":"×","naisui":"×","kazan":"×"}}
,{"type":"Feature","geometry":{"type":"Point","coordinates":[139.718,35.765]},"properties":{"Name":"区立王子第三小学校","Jusho":"東京都北区上十条5-2-3","kouzui":"○","gake":"×","takashio":"○","jishin":"○","tsunami":"×","kaji":"×","naisui":"×","kazan":"×"}}
,{"type":"Feature","geometry":{"type":"Point","coordinates":[139.729,35.772]},"properties":{"Name":"区立都の北学園","Jusho":"東京都北区神谷2-30-1","kouzui":"×","gake":"×","takashio":"×","jishin":"○","tsunami":"×","kaji":"×","naisui":"×","kazan":"×"}}
,{"type":"Feature","geometry":{"type":"Point","coordinates":[139.714,35.771]},"properties":{"Name":"区立西が丘小学校","Jusho":"東京都北区西が丘1-12-14","kouzui":"○","gake":"×","takashio":"○","jishin":"○","tsunami":"×","kaji":"×","naisui":"×","kazan":"×"}}
,{"type":"Feature","geometry":{"type":"Point","coordinates":[139.714,35.768]},"properties":{"Name":"区立梅木小学校","Jusho":"東京都北区西が丘2-21-15","kouzui":"○","gake":"○","takashio":"○","jishin":"○","tsunami":"×","kaji":"×","naisui":"×","kazan":"×"}}
,{"type":"Feature","geometry":{"type":"Point","coordinates":[139.748,35.742]},"properties":{"Name":"区立滝野川小学校","Jusho":"東京都北区西ケ原1-18-10","kouzui":"○","gake":"×","takashio":"○","jishin":"○","tsunami":"×","kaji":"×","naisui":"×","kazan":"×"}}
,{"type":"Feature","geometry":{"type":"Point","coordinates":[139.745,35.745]},"properties":{"Name":"北区防災センター　　　　　　　　　　　　　　　　　　","Jusho":"東京都北区西ケ原2-1-6","kouzui":"×","gake":"○","takashio":"×","jishin":"×","tsunami":"×","kaji":"×","naisui":"×","kazan":"×"}}
,{"type":"Feature","geometry":{"type":"Point","coordinates":[139.742,35.744]},"properties":{"Name":"区立飛鳥中学校","Jusho":"東京都北区西ケ原3-5-12","kouzui":"○","gake":"×","takashio":"○","jishin":"○","tsunami":"×","kaji":"×","naisui":"×","kazan":"×"}}
,{"type":"Feature","geometry":{"type":"Point","coordinates":[139.737,35.743]},"properties":{"Name":"区立西ケ原小学校","Jusho":"東京都北区西ケ原4-19-21","kouzui":"○","gake":"×","takashio":"○","jishin":"○","tsunami":"×","kaji":"×","naisui":"×","kazan":"×"}}
,{"type":"Feature","geometry":{"type":"Point","coordinates":[139.721,35.781]},"properties":{"Name":"区立赤羽小学校","Jusho":"東京都北区赤羽1-24-6","kouzui":"×","gake":"×","takashio":"×","jishin":"○","tsunami":"×","kaji":"×","naisui":"×","kazan":"×"}}
,{"type":"Feature","geometry":{"type":"Point","coordinates":[139.726,35.779]},"properties":{"Name":"区立赤羽岩淵中学校","Jusho":"東京都北区赤羽2-6-18","kouzui":"×","gake":"×","takashio":"×","jishin":"○","tsunami":"×","kaji":"×","naisui":"×","kazan":"×"}}
,{"type":"Feature","geometry":{"type":"Point","coordinates":[139.721,35.786]},"properties":{"Name":"区立第四岩淵小学校","Jusho":"東京都北区赤羽3-24-23","kouzui":"×","gake":"○","takashio":"×","jishin":"○","tsunami":"×","kaji":"×","naisui":"×","kazan":"×"}}
,{"type":"Feature","geometry":{"type":"Point","coordinates":[139.708,35.771]},"properties":{"Name":"区立稲付中学校","Jusho":"東京都北区赤羽西6-1-4","kouzui":"×","gake":"×","takashio":"×","jishin":"○","tsunami":"×","kaji":"×","naisui":"×","kazan":"×"}}
,{"type":"Feature","geometry":{"type":"Point","coordinates":[139.714,35.775]},"properties":{"Name":"区立赤羽台西小学校","Jusho":"東京都北区赤羽台2-1-34","kouzui":"○","gake":"○","takashio":"○","jishin":"○","tsunami":"×","kaji":"×","naisui":"×","kazan":"×"}}
,{"type":"Feature","geometry":{"type":"Point","coordinates":[139.714,35.781]},"properties":{"Name":"区立八幡小学校","Jusho":"東京都北区赤羽台3-18-5","kouzui":"×","gake":"×","takashio":"×","jishin":"○","tsunami":"×","kaji":"×","naisui":"×","kazan":"×"}}
,{"type":"Feature","geometry":{"type":"Point","coordinates":[139.725,35.773]},"properties":{"Name":"旧稲田小学校","Jusho":"東京都北区赤羽南2-23-24","kouzui":"×","gake":"×","takashio":"×","jishin":"○","tsunami":"×","kaji":"×","naisui":"×","kazan":"×"}}
,{"type":"Feature","geometry":{"type":"Point","coordinates":[139.706,35.784]},"properties":{"Name":"区立袋小学校","Jusho":"東京都北区赤羽北2-15-3","kouzui":"×","gake":"○","takashio":"×","jishin":"○","tsunami":"×","kaji":"×","naisui":"×","kazan":"×"}}
,{"type":"Feature","geometry":{"type":"Point","coordinates":[139.737,35.749]},"properties":{"Name":"区立滝野川第三小学校","Jusho":"東京都北区滝野川1-12-27","kouzui":"○","gake":"×","takashio":"○","jishin":"○","tsunami":"×","kaji":"×","naisui":"×","kazan":"×"}}
,{"type":"Feature","geometry":{"type":"Point","coordinates":[139.733,35.752]},"properties":{"Name":"旧滝野川中学校（北区役所滝野川分庁舎）","Jusho":"東京都北区滝野川2-52-10","kouzui":"○","gake":"×","takashio":"○","jishin":"○","tsunami":"×","kaji":"×","naisui":"×","kazan":"×"}}
,{"type":"Feature","geometry":{"type":"Point","coordinates":[139.728,35.751]},"properties":{"Name":"区立滝野川もみじ小学校","Jusho":"東京都北区滝野川3-72-1","kouzui":"○","gake":"×","takashio":"○","jishin":"○","tsunami":"×","kaji":"×","naisui":"×","kazan":"×"}}
,{"type":"Feature","geometry":{"type":"Point","coordinates":[139.724,35.749]},"properties":{"Name":"東京国際フランス学園　別館","Jusho":"東京都北区滝野川5-44-15","kouzui":"○","gake":"×","takashio":"○","jishin":"○","tsunami":"×","kaji":"×","naisui":"×","kazan":"×"}}
,{"type":"Feature","geometry":{"type":"Point","coordinates":[139.725,35.75]},"properties":{"Name":"区立滝野川紅葉中学校","Jusho":"東京都北区滝野川5-55-8","kouzui":"○","gake":"×","takashio":"×","jishin":"○","tsunami":"×","kaji":"×","naisui":"×","kazan":"×"}}
,{"type":"Feature","geometry":{"type":"Point","coordinates":[139.726,35.745]},"properties":{"Name":"区立滝野川第二小学校","Jusho":"東京都北区滝野川6-19-4","kouzui":"○","gake":"×","takashio":"○","jishin":"○","tsunami":"×","kaji":"×","naisui":"×","kazan":"×"}}
,{"type":"Feature","geometry":{"type":"Point","coordinates":[139.722,35.744]},"properties":{"Name":"区立谷端小学校","Jusho":"東京都北区滝野川7-12-17","kouzui":"○","gake":"×","takashio":"○","jishin":"○","tsunami":"×","kaji":"×","naisui":"×","kazan":"×"}}
,{"type":"Feature","geometry":{"type":"Point","coordinates":[139.73,35.758]},"properties":{"Name":"十条台ふれあい館","Jusho":"東京都北区中十条1-2-18","kouzui":"×","gake":"○","takashio":"×","jishin":"×","tsunami":"×","kaji":"×","naisui":"×","kazan":"×"}}
,{"type":"Feature","geometry":{"type":"Point","coordinates":[139.73,35.759]},"properties":{"Name":"旧十条台小学校","Jusho":"東京都北区中十条1-5-6","kouzui":"×","gake":"×","takashio":"×","jishin":"○","tsunami":"×","kaji":"×","naisui":"×","kazan":"×"}}
,{"type":"Feature","geometry":{"type":"Point","coordinates":[139.726,35.763]},"properties":{"Name":"区立十条小学校","Jusho":"東京都北区中十条3-1-6","kouzui":"×","gake":"×","takashio":"×","jishin":"○","tsunami":"×","kaji":"×","naisui":"×","kazan":"×"}}
,{"type":"Feature","geometry":{"type":"Point","coordinates":[139.754,35.738]},"properties":{"Name":"区立田端中学校","Jusho":"東京都北区田端4-17-1","kouzui":"×","gake":"×","takashio":"×","jishin":"○","tsunami":"×","kaji":"×","naisui":"×","kazan":"×"}}
,{"type":"Feature","geometry":{"type":"Point","coordinates":[139.757,35.737]},"properties":{"Name":"区立田端小学校","Jusho":"東京都北区田端5-4-1","kouzui":"○","gake":"○","takashio":"○","jishin":"○","tsunami":"×","kaji":"×","naisui":"×","kazan":"×"}}
,{"type":"Feature","geometry":{"type":"Point","coordinates":[139.756,35.741]},"properties":{"Name":"旧田端中学校","Jusho":"東京都北区田端6-9-1","kouzui":"○","gake":"×","takashio":"○","jishin":"○","tsunami":"×","kaji":"×","naisui":"×","kazan":"×"}}
,{"type":"Feature","geometry":{"type":"Point","coordinates":[139.768,35.74]},"properties":{"Name":"旧新町中学校（新町コミュニティアリーナ）","Jusho":"東京都北区田端新町2-27-17","kouzui":"×","gake":"×","takashio":"×","jishin":"○","tsunami":"×","kaji":"×","naisui":"×","kazan":"×"}}
,{"type":"Feature","geometry":{"type":"Point","coordinates":[139.729,35.766]},"properties":{"Name":"区立東十条小学校","Jusho":"東京都北区東十条3-14-23","kouzui":"×","gake":"×","takashio":"×","jishin":"○","tsunami":"×","kaji":"×","naisui":"×","kazan":"×"}}
,{"type":"Feature","geometry":{"type":"Point","coordinates":[139.763,35.74]},"properties":{"Name":"区立滝野川第四小学校","Jusho":"東京都北区東田端2-5-23","kouzui":"×","gake":"×","takashio":"×","jishin":"○","tsunami":"×","kaji":"×","naisui":"×","kazan":"×"}}
,{"type":"Feature","geometry":{"type":"Point","coordinates":[139.699,35.793]},"properties":{"Name":"区立西浮間小学校","Jusho":"東京都北区浮間2-7-1","kouzui":"×","gake":"×","takashio":"×","jishin":"○","tsunami":"×","kaji":"×","naisui":"×","kazan":"×"}}
,{"type":"Feature","geometry":{"type":"Point","coordinates":[139.701,35.786]},"properties":{"Name":"区立浮間小学校","Jusho":"東京都北区浮間3-4-27","kouzui":"×","gake":"×","takashio":"×","jishin":"○","tsunami":"×","kaji":"×","naisui":"×","kazan":"×"}}
,{"type":"Feature","geometry":{"type":"Point","coordinates":[139.692,35.79]},"properties":{"Name":"旧西浮間小学校","Jusho":"東京都北区浮間4-29-30","kouzui":"×","gake":"×","takashio":"×","jishin":"○","tsunami":"×","kaji":"×","naisui":"×","kazan":"×"}}
,{"type":"Feature","geometry":{"type":"Point","coordinates":[139.693,35.79]},"properties":{"Name":"区立浮間中学校","Jusho":"東京都北区浮間4-29-32","kouzui":"×","gake":"×","takashio":"×","jishin":"○","tsunami":"×","kaji":"×","naisui":"×","kazan":"×"}}
,{"type":"Feature","geometry":{"type":"Point","coordinates":[139.744,35.758]},"properties":{"Name":"区立柳田小学校","Jusho":"東京都北区豊島2-11-20","kouzui":"×","gake":"×","takashio":"×","jishin":"○","tsunami":"×","kaji":"×","naisui":"×","kazan":"×"}}
,{"type":"Feature","geometry":{"type":"Point","coordinates":[139.743,35.761]},"properties":{"Name":"区立豊川小学校","Jusho":"東京都北区豊島3-10-23","kouzui":"×","gake":"×","takashio":"×","jishin":"○","tsunami":"×","kaji":"×","naisui":"×","kazan":"×"}}
,{"type":"Feature","geometry":{"type":"Point","coordinates":[139.75,35.765]},"properties":{"Name":"旧豊島北中学校（豊島北コミュニティアリーナ）","Jusho":"東京都北区豊島5-3-13","kouzui":"×","gake":"×","takashio":"×","jishin":"○","tsunami":"×","kaji":"×","naisui":"×","kazan":"×"}}
,{"type":"Feature","geometry":{"type":"Point","coordinates":[139.75,35.766]},"properties":{"Name":"区立としま若葉小学校","Jusho":"東京都北区豊島5-3-30","kouzui":"×","gake":"×","takashio":"×","jishin":"○","tsunami":"×","kaji":"×","naisui":"×","kazan":"×"}}
,{"type":"Feature","geometry":{"type":"Point","coordinates":[139.746,35.754]},"properties":{"Name":"区立堀船小学校","Jusho":"東京都北区堀船2-11-9","kouzui":"○","gake":"×","takashio":"×","jishin":"○","tsunami":"×","kaji":"×","naisui":"×","kazan":"×"}}
,{"type":"Feature","geometry":{"type":"Point","coordinates":[139.788,35.734]},"properties":{"Name":"第一中学校","Jusho":"東京都荒川区荒川1-30-1","kouzui":"○","gake":"×","takashio":"○","jishin":"×","tsunami":"×","kaji":"×","naisui":"○","kazan":"×"}}
,{"type":"Feature","geometry":{"type":"Point","coordinates":[139.786,35.734]},"properties":{"Name":"第三峡田小学校","Jusho":"東京都荒川区荒川1-43-1","kouzui":"○","gake":"×","takashio":"○","jishin":"×","tsunami":"×","kaji":"×","naisui":"○","kazan":"×"}}
,{"type":"Feature","geometry":{"type":"Point","coordinates":[139.782,35.739]},