var tokyo={"type":"FeatureCollection","name":"tokyo","features":[
{"type":"Feature","geometry":{"type":"Point","coordinates":[139.771,35.677]},"properties":{"Name":"京橋区民館","Jusho":"東京都中央区京橋２-６-７","kouzui":"○","gake":"×","takashio":"×","jishin":"○","tsunami":"×","kaji":"×","naisui":"○","kazan":"×"}}
,{"type":"Feature","geometry":{"type":"Point","coordinates":[139.772,35.673]},"properties":{"Name":"京橋プラザ","Jusho":"東京都中央区銀座１-２５-３","kouzui":"○","gake":"×","takashio":"×","jishin":"○","tsunami":"×","kaji":"×","naisui":"○","kazan":"×"}}
,{"type":"Feature","geometry":{"type":"Point","coordinates":[139.761,35.672]},"properties":{"Name":"泰明小学校","Jusho":"東京都中央区銀座５-１-１３","kouzui":"○","gake":"×","takashio":"×","jishin":"○","tsunami":"×","kaji":"×","naisui":"○","kazan":"×"}}
,{"type":"Feature","geometry":{"type":"Point","coordinates":[139.765,35.665]},"properties":{"Name":"銀座中学校","Jusho":"東京都中央区銀座８-１９-１５","kouzui":"○","gake":"×","takashio":"×","jishin":"○","tsunami":"×","kaji":"×","naisui":"○","kazan":"×"}}
,{"type":"Feature","geometry":{"type":"Point","coordinates":[139.779,35.672]},"properties":{"Name":"中央小学校","Jusho":"東京都中央区湊１-４-１","kouzui":"○","gake":"×","takashio":"×","jishin":"○","tsunami":"×","kaji":"×","naisui":"○","kazan":"×"}}
,{"type":"Feature","geometry":{"type":"Point","coordinates":[139.776,35.669]},"properties":{"Name":"明石小学校","Jusho":"東京都中央区明石町１-１５","kouzui":"○","gake":"×","takashio":"×","jishin":"○","tsunami":"×","kaji":"×","naisui":"○","kazan":"×"}}
,{"type":"Feature","geometry":{"type":"Point","coordinates":[139.771,35.668]},"properties":{"Name":"京橋築地小学校","Jusho":"東京都中央区築地２-１３-１","kouzui":"○","gake":"×","takashio":"×","jishin":"○","tsunami":"×","kaji":"×","naisui":"○","kazan":"×"}}
,{"type":"Feature","geometry":{"type":"Point","coordinates":[139.776,35.675]},"properties":{"Name":"京華スクエア","Jusho":"東京都中央区八丁堀３-１７-９","kouzui":"○","gake":"×","takashio":"×","jishin":"○","tsunami":"×","kaji":"×","naisui":"○","kazan":"×"}}
,{"type":"Feature","geometry":{"type":"Point","coordinates":[139.782,35.676]},"properties":{"Name":"明正小学校","Jusho":"東京都中央区新川２-１３-４","kouzui":"○","gake":"×","takashio":"×","jishin":"○","tsunami":"×","kaji":"×","naisui":"○","kazan":"×"}}
,{"type":"Feature","geometry":{"type":"Point","coordinates":[139.771,35.688]},"properties":{"Name":"常盤小学校","Jusho":"東京都中央区日本橋本石町４-４-２６","kouzui":"○","gake":"×","takashio":"×","jishin":"○","tsunami":"×","kaji":"×","naisui":"○","kazan":"×"}}
,{"type":"Feature","geometry":{"type":"Point","coordinates":[139.777,35.691]},"properties":{"Name":"十思スクエア","Jusho":"東京都中央区日本橋小伝馬町５-１","kouzui":"○","gake":"×","takashio":"×","jishin":"○","tsunami":"×","kaji":"×","naisui":"○","kazan":"×"}}
,{"type":"Feature","geometry":{"type":"Point","coordinates":[139.782,35.685]},"properties":{"Name":"日本橋小学校","Jusho":"東京都中央区日本橋人形町１-１-１７","kouzui":"○","gake":"×","takashio":"×","jishin":"○","tsunami":"×","kaji":"×","naisui":"○","kazan":"×"}}
,{"type":"Feature","geometry":{"type":"Point","coordinates":[139.788,35.683]},"properties":{"Name":"有馬小学校","Jusho":"東京都中央区日本橋蛎殻町２-１０-２３","kouzui":"○","gake":"×","takashio":"×","jishin":"○","tsunami":"×","kaji":"×","naisui":"○","kazan":"×"}}
,{"type":"Feature","geometry":{"type":"Point","coordinates":[139.784,35.689]},"properties":{"Name":"久松小学校","Jusho":"東京都中央区日本橋久松町７-２","kouzui":"○","gake":"×","takashio":"×","jishin":"○","tsunami":"×","kaji":"×","naisui":"○","kazan":"×"}}
,{"type":"Feature","geometry":{"type":"Point","coordinates":[139.787,35.692]},"properties":{"Name":"日本橋中学校","Jusho":"東京都中央区東日本橋１-１０-１","kouzui":"○","gake":"×","takashio":"×","jishin":"○","tsunami":"×","kaji":"×","naisui":"○","kazan":"×"}}
,{"type":"Feature","geometry":{"type":"Point","coordinates":[139.777,35.68]},"properties":{"Name":"阪本小学校","Jusho":"東京都中央区日本橋兜町１５-３（坂本町公園内）","kouzui":"○","gake":"×","takashio":"×","jishin":"○","tsunami":"×","kaji":"×","naisui":"○","kazan":"×"}}
,{"type":"Feature","geometry":{"type":"Point","coordinates":[139.785,35.669]},"properties":{"Name":"佃島小学校","Jusho":"東京都中央区佃２-３-１","kouzui":"○","gake":"×","takashio":"×","jishin":"○","tsunami":"○","kaji":"×","naisui":"○","kazan":"×"}}
,{"type":"Feature","geometry":{"type":"Point","coordinates":[139.785,35.668]},"properties":{"Name":"佃中学校","Jusho":"東京都中央区佃２-３-２","kouzui":"○","gake":"×","takashio":"×","jishin":"○","tsunami":"○","kaji":"×","naisui":"○","kazan":"×"}}
,{"type":"Feature","geometry":{"type":"Point","coordinates":[139.78,35.661]},"properties":{"Name":"月島第一小学校","Jusho":"東京都中央区月島４-１５-１","kouzui":"○","gake":"×","takashio":"×","jishin":"○","tsunami":"○","kaji":"×","naisui":"○","kazan":"×"}}
,{"type":"Feature","geometry":{"type":"Point","coordinates":[139.776,35.66]},"properties":{"Name":"月島第二小学校","Jusho":"東京都中央区勝どき１-１２-２","kouzui":"○","gake":"×","takashio":"×","jishin":"○","tsunami":"○","kaji":"×","naisui":"○","kazan":"×"}}
,{"type":"Feature","geometry":{"type":"Point","coordinates":[139.786,35.659]},"properties":{"Name":"月島第三小学校","Jusho":"東京都中央区晴海１-４-１","kouzui":"○","gake":"×","takashio":"○","jishin":"○","tsunami":"×","kaji":"×","naisui":"○","kazan":"×"}}
,{"type":"Feature","geometry":{"type":"Point","coordinates":[139.785,35.66]},"properties":{"Name":"晴海中学校","Jusho":"東京都中央区晴海１-５-３","kouzui":"○","gake":"×","takashio":"○","jishin":"○","tsunami":"×","kaji":"×","naisui":"○","kazan":"×"}}
,{"type":"Feature","geometry":{"type":"Point","coordinates":[139.771,35.653]},"properties":{"Name":"豊海小学校","Jusho":"東京都中央区勝どき６-６-２","kouzui":"○","gake":"×","takashio":"○","jishin":"○","tsunami":"○","kaji":"×","naisui":"○","kazan":"×"}}
,{"type":"Feature","geometry":{"type":"Point","coordinates":[139.772,35.671]},"properties":{"Name":"中央区役所","Jusho":"東京都中央区築地１-１-１","kouzui":"○","gake":"×","takashio":"×","jishin":"×","tsunami":"×","kaji":"×","naisui":"○","kazan":"×"}}
,{"type":"Feature","geometry":{"type":"Point","coordinates":[139.784,35.682]},"properties":{"Name":"日本橋区民センター","Jusho":"東京都中央区日本橋蛎殻町１-３１-１","kouzui":"○","gake":"×","takashio":"×","jishin":"×","tsunami":"×","kaji":"×","naisui":"○","kazan":"×"}}
,{"type":"Feature","geometry":{"type":"Point","coordinates":[139.782,35.662]},"properties":{"Name":"月島区民センター","Jusho":"東京都中央区月島４-１-１","kouzui":"○","gake":"×","takashio":"×","jishin":"×","tsunami":"○","kaji":"×","naisui":"○","kazan":"×"}}
,{"type":"Feature","geometry":{"type":"Point","coordinates":[139.775,35.652]},"properties":{"Name":"ほっとプラザはるみ","Jusho":"東京都中央区晴海５-２-３","kouzui":"○","gake":"×","takashio":"○","jishin":"○","tsunami":"×","kaji":"×","naisui":"○","kazan":"×"}}
,{"type":"Feature","geometry":{"type":"Point","coordinates":[139.746,35.733]},"properties":{"Name":"六義園","Jusho":"東京都文京区本駒込6-16-3","kouzui":"×","gake":"×","takashio":"×","jishin":"×","tsunami":"×","kaji":"○","naisui":"×","kazan":"×"}}
,{"type":"Feature","geometry":{"type":"Point","coordinates":[139.763,35.712]},"properties":{"Name":"東京大学","Jusho":"東京都文京区本郷7-3-1","kouzui":"×","gake":"×","takashio":"×","jishin":"×","tsunami":"×","kaji":"○","naisui":"×","kazan":"×"}}
,{"type":"Feature","geometry":{"type":"Point","coordinates":[139.748,35.705]},"properties":{"Name":"後楽園一帯","Jusho":"東京都文京区後楽1-6-6","kouzui":"×","gake":"×","takashio":"×","jishin":"×","tsunami":"×","kaji":"○","naisui":"×","kazan":"×"}}
,{"type":"Feature","geometry":{"type":"Point","coordinates":[139.732,35.719]},"properties":{"Name":"お茶の水女子大学一帯・教育の森公園一帯","Jusho":"東京都文京区大塚2-1-1 文京区大塚3-29","kouzui":"×","gake":"×","takashio":"×","jishin":"×","tsunami":"×","kaji":"○","naisui":"×","kazan":"×"}}
,{"type":"Feature","geometry":{"type":"Point","coordinates":[139.727,35.721]},"properties":{"Name":"護国寺一帯","Jusho":"東京都文京区大塚5-40-1","kouzui":"×","gake":"×","takashio":"×","jishin":"×","tsunami":"×","kaji":"○","naisui":"×","kazan":"×"}}
,{"type":"Feature","geometry":{"type":"Point","coordinates":[139.744,35.72]},"properties":{"Name":"小石川植物園","Jusho":"東京都文京区白山3-7-1","kouzui":"×","gake":"×","takashio":"×","jishin":"×","tsunami":"×","kaji":"○","naisui":"×","kazan":"×"}}
,{"type":"Feature","geometry":{"type":"Point","coordinates":[139.721,35.715]},"properties":{"Name":"目白台運動公園付近一帯","Jusho":"東京都文京区目白台1-19・20","kouzui":"×","gake":"×","takashio":"×","jishin":"×","tsunami":"×","kaji":"○","naisui":"×","kazan":"×"}}
,{"type":"Feature","geometry":{"type":"Point","coordinates":[139.679,35.659]},"properties":{"Name":"都立国際高等学校","Jusho":"東京都目黒区駒場2-19-59","kouzui":"×","gake":"×","takashio":"×","jishin":"○","tsunami":"×","kaji":"×","naisui":"×","kazan":"×"}}
,{"type":"Feature","geometry":{"type":"Point","coordinates":[139.682,35.66]},"properties":{"Name":"駒場小学校","Jusho":"東京都目黒区駒場3-11-13","kouzui":"○","gake":"○","takashio":"×","jishin":"○","tsunami":"×","kaji":"×","naisui":"○","kazan":"×"}}
,{"type":"Feature","geometry":{"type":"Point","coordinates":[139.687,35.655]},"properties":{"Name":"第一中学校","Jusho":"東京都目黒区大橋2-11-1","kouzui":"○","gake":"○","takashio":"×","jishin":"○","tsunami":"×","kaji":"×","naisui":"○","kazan":"×"}}
,{"type":"Feature","geometry":{"type":"Point","coordinates":[139.686,35.655]},"properties":{"Name":"都立駒場高等学校","Jusho":"東京都目黒区大橋2-18-1","kouzui":"×","gake":"×","takashio":"×","jishin":"○","tsunami":"×","kaji":"×","naisui":"×","kazan":"×"}}
,{"type":"Feature","geometry":{"type":"Point","coordinates":[139.693,35.652]},"properties":{"Name":"菅刈小学校","Jusho":"東京都目黒区青葉台3-3-26","kouzui":"○","gake":"×","takashio":"×","jishin":"○","tsunami":"×","kaji":"×","naisui":"○","kazan":"×"}}
,{"type":"Feature","geometry":{"type":"Point","coordinates":[139.693,35.65]},"properties":{"Name":"菅刈公園","Jusho":"東京都目黒区青葉台2-11-25","kouzui":"×","gake":"×","takashio":"×","jishin":"○","tsunami":"×","kaji":"×","naisui":"×","kazan":"×"}}
,{"type":"Feature","geometry":{"type":"Point","coordinates":[139.69,35.646]},"properties":{"Name":"東山中学校","Jusho":"東京都目黒区東山1-24-31","kouzui":"○","gake":"○","takashio":"×","jishin":"○","tsunami":"×","kaji":"×","naisui":"○","kazan":"×"}}
,{"type":"Feature","geometry":{"type":"Point","coordinates":[139.686,35.647]},"properties":{"Name":"東山小学校","Jusho":"東京都目黒区東山2-24-25","kouzui":"○","gake":"○","takashio":"×","jishin":"○","tsunami":"×","kaji":"×","naisui":"○","kazan":"×"}}
,{"type":"Feature","geometry":{"type":"Point","coordinates":[139.692,35.644]},"properties":{"Name":"烏森小学校","Jusho":"東京都目黒区上目黒3-37-27","kouzui":"○","gake":"○","takashio":"×","jishin":"○","tsunami":"×","kaji":"×","naisui":"○","kazan":"×"}}
,{"type":"Feature","geometry":{"type":"Point","coordinates":[139.703,35.639]},"properties":{"Name":"めぐろ学校サポートセンター","Jusho":"東京都目黒区中目黒3-6-10","kouzui":"○","gake":"○","takashio":"×","jishin":"○","tsunami":"×","kaji":"×","naisui":"○","kazan":"×"}}
,{"type":"Feature","geometry":{"type":"Point","coordinates":[139.699,35.64]},"properties":{"Name":"中目黒小学校","Jusho":"東京都目黒区中目黒3-13-32","kouzui":"○","gake":"○","takashio":"×","jishin":"○","tsunami":"×","kaji":"×","naisui":"○","kazan":"×"}}
,{"type":"Feature","geometry":{"type":"Point","coordinates":[139.709,35.638]},"properties":{"Name":"田道小学校","Jusho":"東京都目黒区目黒1-15-28","kouzui":"×","gake":"○","takashio":"×","jishin":"○","tsunami":"×","kaji":"×","naisui":"×","kazan":"×"}}
,{"type":"Feature","geometry":{"type":"Point","coordinates":[139.709,35.634]},"properties":{"Name":"下目黒小学校","Jusho":"東京都目黒区目黒2-7-9","kouzui":"×","gake":"○","takashio":"×","jishin":"○","tsunami":"×","kaji":"×","naisui":"×","kazan":"×"}}
,{"type":"Feature","geometry":{"type":"Point","coordinates":[139.708,35.631]},"properties":{"Name":"大鳥中学校","Jusho":"東京都目黒区下目黒3-23-18","kouzui":"○","gake":"○","takashio":"×","jishin":"○","tsunami":"×","kaji":"×","naisui":"○","kazan":"×"}}
,{"type":"Feature","geometry":{"type":"Point","coordinates":[139.699,35.627]},"properties":{"Name":"不動小学校","Jusho":"東京都目黒区下目黒6-11-35","kouzui":"○","gake":"○","takashio":"×","jishin":"○","tsunami":"×","kaji":"×","naisui":"○","kazan":"×"}}
,{"type":"Feature","geometry":{"type":"Point","coordinates":[139.697,35.629]},"properties":{"Name":"（旧）第四中学校","Jusho":"東京都目黒区下目黒6-18-2","kouzui":"○","gake":"○","takashio":"×","jishin":"○","tsunami":"×","kaji":"×","naisui":"○","kazan":"×"}}
,{"type":"Feature","geometry":{"type":"Point","coordinates":[139.69,35.639]},"properties":{"Name":"上目黒小学校","Jusho":"東京都目黒区五本木1-12-13","kouzui":"○","gake":"○","takashio":"×","jishin":"○","tsunami":"×","kaji":"×","naisui":"○","kazan":"×"}}
,{"type":"Feature","geometry":{"type":"Point","coordinates":[139.694,35.637]},"properties":{"Name":"都立目黒高等学校","Jusho":"東京都目黒区祐天寺2-7-15","kouzui":"×","gake":"×","takashio":"×","jishin":"○","tsunami":"×","kaji":"×","naisui":"×","kazan":"×"}}
,{"type":"Feature","geometry":{"type":"Point","coordinates":[139.698,35.632]},"properties":{"Name":"油面小学校","Jusho":"東京都目黒区中町1-5-4","kouzui":"○","gake":"○","takashio":"×","jishin":"○","tsunami":"×","kaji":"×","naisui":"○","kazan":"×"}}
,{"type":"Feature","geometry":{"type":"Point","coordinates":[139.694,35.635]},"properties":{"Name":"目黒中央中学校","Jusho":"東京都目黒区中町2-37-38","kouzui":"○","gake":"○","takashio":"×","jishin":"○","tsunami":"×","kaji":"×","naisui":"○","kazan":"×"}}
,{"type":"Feature","geometry":{"type":"Point","coordinates":[139.688,35.634]},"properties":{"Name":"五本木小学校","Jusho":"東京都目黒区五本木2-24-3","kouzui":"○","gake":"○","takashio":"×","jishin":"○","tsunami":"×","kaji":"×","naisui":"○","kazan":"×"}}
,{"type":"Feature","geometry":{"type":"Point","coordinates":[139.69,35.628]},"properties":{"Name":"鷹番小学校","Jusho":"東京都目黒区中央町1-20-26","kouzui":"○","gake":"○","takashio":"×","jishin":"○","tsunami":"×","kaji":"×","naisui":"○","kazan":"×"}}
,{"type":"Feature","geometry":{"type":"Point","coordinates":[139.682,35.627]},"properties":{"Name":"碑文谷公園及び碑文谷体育館","Jusho":"東京都目黒区碑文谷6-9-11、6-12-43","kouzui":"○","gake":"○","takashio":"×","jishin":"○","tsunami":"×","kaji":"×","naisui":"○","kazan":"×"}}
,{"type":"Feature","geometry":{"type":"Point","coordinates":[139.695,35.623]},"properties":{"Name":"月光原小学校","Jusho":"東京都目黒区目黒本町4-15-3","kouzui":"○","gake":"○","takashio":"×","jishin":"○","tsunami":"×","kaji":"×","naisui":"○","kazan":"×"}}
,{"type":"Feature","geometry":{"type":"Point","coordinates":[139.696,35.618]},"properties":{"Name":"向原小学校","Jusho":"東京都目黒区目黒本町6-7-15","kouzui":"×","gake":"○","takashio":"×","jishin":"○","tsunami":"×","kaji":"×","naisui":"×","kazan":"×"}}
,{"type":"Feature","geometry":{"type":"Point","coordinates":[139.692,35.623]},"properties":{"Name":"第七中学校","Jusho":"東京都目黒区碑文谷1-1-33","kouzui":"○","gake":"○","takashio":"×","jishin":"○","tsunami":"×","kaji":"×","naisui":"○","kazan":"×"}}
,{"type":"Feature","geometry":{"type":"Point","coordinates":[139.691,35.619]},"properties":{"Name":"碑小学校","Jusho":"東京都目黒区碑文谷1-18-2","kouzui":"○","gake":"○","takashio":"×","jishin":"○","tsunami":"×","kaji":"×","naisui":"○","kazan":"×"}}
,{"type":"Feature","geometry":{"type":"Point","coordinates":[139.691,35.616]},"properties":{"Name":"原町小学校","Jusho":"東京都目黒区原町2-18-12","kouzui":"○","gake":"○","takashio":"×","jishin":"○","tsunami":"×","kaji":"×","naisui":"○","kazan":"×"}}
,{"type":"Feature","geometry":{"type":"Point","coordinates":[139.695,35.613]},"properties":{"Name":"第九中学校","Jusho":"東京都目黒区洗足1-29-26","kouzui":"○","gake":"○","takashio":"×","jishin":"○","tsunami":"×","kaji":"×","naisui":"○","kazan":"×"}}
,{"type":"Feature","geometry":{"type":"Point","coordinates":[139.682,35.62]},"properties":{"Name":"第八中学校","Jusho":"東京都目黒区碑文谷4-19-25","kouzui":"○","gake":"○","takashio":"×","jishin":"○","tsunami":"×","kaji":"×","naisui":"○","kazan":"×"}}
,{"type":"Feature","geometry":{"type":"Point","coordinates":[139.683,35.615]},"properties":{"Name":"大岡山小学校","Jusho":"東京都目黒区平町2-3-1","kouzui":"○","gake":"○","takashio":"×","jishin":"○","tsunami":"×","kaji":"×","naisui":"○","kazan":"×"}}
,{"type":"Feature","geometry":{"type":"Point","coordinates":[139.678,35.613]},"properties":{"Name":"中根小学校","Jusho":"東京都目黒区緑が丘1-1-1","kouzui":"○","gake":"○","takashio":"×","jishin":"○","tsunami":"×","kaji":"×","naisui":"○","kazan":"×"}}
,{"type":"Feature","geometry":{"type":"Point","coordinates":[139.679,35.609]},"properties":{"Name":"第十一中学校","Jusho":"東京都目黒区緑が丘1-8-1","kouzui":"○","gake":"○","takashio":"×","jishin":"○","tsunami":"×","kaji":"×","naisui":"○","kazan":"×"}}
,{"type":"Feature","geometry":{"type":"Point","coordinates":[139.673,35.61]},"properties":{"Name":"緑ヶ丘小学校","Jusho":"東京都目黒区緑が丘2-13-1","kouzui":"○","gake":"○","takashio":"×","jishin":"○","tsunami":"×","kaji":"×","naisui":"○","kazan":"×"}}
,{"type":"Feature","geometry":{"type":"Point","coordinates":[139.667,35.615]},"properties":{"Name":"宮前小学校","Jusho":"東京都目黒区八雲3-13-21","kouzui":"○","gake":"○","takashio":"×","jishin":"○","tsunami":"×","kaji":"×","naisui":"○","kazan":"×"}}
,{"type":"Feature","geometry":{"type":"Point","coordinates":[139.673,35.621]},"properties":{"Name":"めぐろ区民キャンパス","Jusho":"東京都目黒区八雲1-1-1","kouzui":"○","gake":"○","takashio":"×","jishin":"○","tsunami":"×","kaji":"×","naisui":"○","kazan":"×"}}
,{"type":"Feature","geometry":{"type":"Point","coordinates":[139.671,35.621]},"properties":{"Name":"都立桜修館中等教育学校","Jusho":"東京都目黒区八雲1-1-2","kouzui":"×","gake":"×","takashio":"×","jishin":"○","tsunami":"×","kaji":"×","naisui":"×","kazan":"×"}}
,{"type":"Feature","geometry":{"type":"Point","coordinates":[139.671,35.618]},"properties":{"Name":"八雲小学校","Jusho":"東京都目黒区八雲2-5-1","kouzui":"○","gake":"○","takashio":"×","jishin":"○","tsunami":"×","kaji":"×","naisui":"○","kazan":"×"}}
,{"type":"Feature","geometry":{"type":"Point","coordinates":[139.669,35.624]},"properties":{"Name":"第十中学校","Jusho":"東京都目黒区八雲5-2-1","kouzui":"○","gake":"○","takashio":"×","jishin":"○","tsunami":"×","kaji":"×","naisui":"○","kazan":"×"}}
,{"type":"Feature","geometry":{"type":"Point","coordinates":[139.668,35.627]},"properties":{"Name":"東根小学校","Jusho":"東京都目黒区東が丘1-20-1","kouzui":"○","gake":"○","takashio":"×","jishin":"○","tsunami":"×","kaji":"×","naisui":"○","kazan":"×"}}
,{"type":"Feature","geometry":{"type":"Point","coordinates":[139.599,35.635]},"properties":{"Name":"明正小学校","Jusho":"東京都世田谷区成城３−３−１","kouzui":"○","gake":"×","takashio":"×","jishin":"×","tsunami":"×","kaji":"×","naisui":"×","kazan":"×"}}
,{"type":"Feature","geometry":{"type":"Point","coordinates":[139.605,35.632]},"properties":{"Name":"砧小学校","Jusho":"東京都世田谷区喜多見６−９−１","kouzui":"○","gake":"×","takashio":"×","jishin":"×","tsunami":"×","kaji":"×","naisui":"×","kazan":"×"}}
,{"type":"Feature","geometry":{"type":"Point","coordinates":[139.601,35.634]},"properties":{"Name":"砧中学校","Jusho":"東京都世田谷区成城１−１０−１","kouzui":"○","gake":"×","takashio":"×","jishin":"×","tsunami":"×","kaji":"×","naisui":"×","kazan":"×"}}
,{"type":"Feature","geometry":{"type":"Point","coordinates":[139.626,35.636]},"properties":{"Name":"用賀小学校","Jusho":"東京都世田谷区上用賀６−１４−１","kouzui":"○","gake":"×","takashio":"×","jishin":"×","tsunami":"×","kaji":"×","naisui":"×","kazan":"×"}}
,{"type":"Feature","geometry":{"type":"Point","coordinates":[139.627,35.63]},"properties":{"Name":"用賀中学校","Jusho":"東京都世田谷区上用賀５−１５−１","kouzui":"○","gake":"×","takashio":"×","jishin":"×","tsunami":"×","kaji":"×","naisui":"×","kazan":"×"}}
,{"type":"Feature","geometry":{"type":"Point","coordinates":[139.631,35.629]},"properties":{"Name":"京西小学校","Jusho":"東京都世田谷区用賀４−２７−４","kouzui":"○","gake":"×","takashio":"×","jishin":"×","tsunami":"×","kaji":"×","naisui":"×","kazan":"×"}}
,{"type":"Feature","geometry":{"type":"Point","coordinates":[139.632,35.619]},"properties":{"Name":"瀬田小学校","Jusho":"東京都世田谷区瀬田２−１５−１","kouzui":"○","gake":"○","takashio":"×","jishin":"×","tsunami":"×","kaji":"×","naisui":"×","kazan":"×"}}
,{"type":"Feature","geometry":{"type":"Point","coordinates":[139.633,35.618]},"properties":{"Name":"瀬田中学校","Jusho":"東京都世田谷区瀬田２−１７−１","kouzui":"○","gake":"×","takashio":"×","jishin":"×","tsunami":"×","kaji":"×","naisui":"×","kazan":"×"}}
,{"type":"Feature","geometry":{"type":"Point","coordinates":[139.642,35.624]},"properties":{"Name":"桜町小学校","Jusho":"東京都世田谷区用賀１−５−１","kouzui":"○","gake":"×","takashio":"×","jishin":"×","tsunami":"×","kaji":"×","naisui":"×","kazan":"×"}}
,{"type":"Feature","geometry":{"type":"Point","coordinates":[139.643,35.617]},"properties":{"Name":"中町小学校","Jusho":"東京都世田谷区中町４−２３−１","kouzui":"○","gake":"×","takashio":"×","jishin":"×","tsunami":"×","kaji":"×","naisui":"×","kazan":"×"}}
,{"type":"Feature","geometry":{"type":"Point","coordinates":[139.644,35.611]},"properties":{"Name":"玉川小学校","Jusho":"東京都世田谷区中町２−２９−１","kouzui":"○","gake":"○","takashio":"×","jishin":"×","tsunami":"×","kaji":"×","naisui":"×","kazan":"×"}}
,{"type":"Feature","geometry":{"type":"Point","coordinates":[139.68,35.599]},"properties":{"Name":"東玉川小学校","Jusho":"東京都世田谷区奥沢１−１−１","kouzui":"○","gake":"×","takashio":"×","jishin":"×","tsunami":"×","kaji":"×","naisui":"×","kazan":"×"}}
,{"type":"Feature","geometry":{"type":"Point","coordinates":[139.643,35.617]},"properties":{"Name":"玉川中学校","Jusho":"東京都世田谷区中町４−２１−１","kouzui":"○","gake":"×","takashio":"×","jishin":"×","tsunami":"×","kaji":"×","naisui":"×","kazan":"×"}}
,{"type":"Feature","geometry":{"type":"Point","coordinates":[139.654,35.616]},"properties":{"Name":"等々力小学校","Jusho":"東京都世田谷区等々力７−２６−１","kouzui":"○","gake":"×","takashio":"×","jishin":"×","tsunami":"×","kaji":"×","naisui":"×","kazan":"×"}}
,{"type":"Feature","geometry":{"type":"Point","coordinates":[139.654,35.605]},"properties":{"Name":"尾山台小学校","Jusho":"東京都世田谷区尾山台３−１１−１","kouzui":"○","gake":"○","takashio":"×","jishin":"×","tsunami":"×","kaji":"×","naisui":"×","kazan":"×"}}
,{"type":"Feature","geometry":{"type":"Point","coordinates":[139.656,35.606]},"properties":{"Name":"尾山台中学校","Jusho":"東京都世田谷区尾山台３−２７−２３","kouzui":"○","gake":"×","takashio":"×","jishin":"×","tsunami":"×","kaji":"×","naisui":"×","kazan":"×"}}
,{"type":"Feature","geometry":{"type":"Point","coordinates":[139.667,35.603]},"properties":{"Name":"八幡小学校","Jusho":"東京都世田谷区玉川田園調布２−１７−１５","kouzui":"○","gake":"×","takashio":"×","jishin":"×","tsunami":"×","kaji":"×","naisui":"×","kazan":"×"}}
,{"type":"Feature","geometry":{"type":"Point","coordinates":[139.661,35.611]},"properties":{"Name":"八幡中学校","Jusho":"東京都世田谷区等々力６−４−１","kouzui":"○","gake":"×","takashio":"×","jishin":"×","tsunami":"×","kaji":"×","naisui":"×","kazan":"×"}}
,{"type":"Feature","geometry":{"type":"Point","coordinates":[139.66,35.603]},"properties":{"Name":"九品仏小学校","Jusho":"東京都世田谷区奥沢８−１２−１","kouzui":"○","gake":"×","takashio":"×","jishin":"×","tsunami":"×","kaji":"×","naisui":"×","kazan":"×"}}
,{"type":"Feature","geometry":{"type":"Point","coordinates":[139.675,35.6]},"properties":{"Name":"奥沢小学校","Jusho":"東京都世田谷区奥沢３−１−１","kouzui":"○","gake":"×","takashio":"×","jishin":"×","tsunami":"×","kaji":"×","naisui":"×","kazan":"×"}}
,{"type":"Feature","geometry":{"type":"Point","coordinates":[139.612,35.63]},"properties":{"Name":"区立総合運動場体育館","Jusho":"東京都世田谷大蔵４−６−１","kouzui":"○","gake":"×","takashio":"×","jishin":"×","tsunami":"×","kaji":"×","naisui":"×","kazan":"×"}}
,{"type":"Feature","geometry":{"type":"Point","coordinates":[139.621,35.625]},"properties":{"Name":"聖ドミニコ学園","Jusho":"東京都世田谷区岡本１−１０−１","kouzui":"○","gake":"×","takashio":"×","jishin":"×","tsunami":"×","kaji":"×","naisui":"×","kazan":"×"}}
,{"type":"Feature","geometry":{"type":"Point","coordinates":[139.613,35.617]},"properties":{"Name":"鎌田区民集会所","Jusho":"東京都世田谷区鎌田２−１−２４","kouzui":"○","gake":"×","takashio":"×","jishin":"×","tsunami":"×","kaji":"×","naisui":"×","kazan":"×"}}
,{"type":"Feature","geometry":{"type":"Point","coordinates":[139.613,35.621]},"properties":{"Name":"砧南中学校","Jusho":"東京都世田谷区鎌田３−１３−２０","kouzui":"○","gake":"×","takashio":"×","jishin":"×","tsunami":"×","kaji":"×","naisui":"×","kazan":"×"}}
,{"type":"Feature","geometry":{"type":"Point","coordinates":[139.609,35.618]},"properties":{"Name":"駒澤大学玉川校舎","Jusho":"東京都世田谷区宇奈根１−１−１","kouzui":"○","gake":"×","takashio":"×","jishin":"×","tsunami":"×","kaji":"×","naisui":"×","kazan":"×"}}
,{"type":"Feature","geometry":{"type":"Point","coordinates":[139.611,35.62]},"properties":{"Name":"ゆうぽうと世田谷レクセンター","Jusho":"東京都世田谷区鎌田２−１７−１","kouzui":"○","gake":"×","takashio":"×","jishin":"×","tsunami":"×","kaji":"×","naisui":"×","kazan":"×"}}
,{"type":"Feature","geometry":{"type":"Point","coordinates":[139.613,35.622]},"properties":{"Name":"鎌田区民センター","Jusho":"東京都世田谷区鎌田３−３５−１","kouzui":"○","gake":"×","takashio":"×","jishin":"×","tsunami":"×","kaji":"×","naisui":"×","kazan":"×"}}
,{"type":"Feature","geometry":{"type":"Point","coordinates":[139.612,35.625]},"properties":{"Name":"氷川神社","Jusho":"東京都世田谷区大蔵６−６−７","kouzui":"○","gake":"×","takashio":"×","jishin":"×","tsunami":"×","kaji":"×","naisui":"×","kazan":"×"}}
,{"type":"Feature","geometry":{"type":"Point","coordinates":[139.601,35.641]},"properties":{"Name":"砧総合支所","Jusho":"東京都世田谷区成城６−２−１","kouzui":"×","gake":"○","takashio":"×","jishin":"×","tsunami":"×","kaji":"×","naisui":"×","kazan":"×"}}
,{"type":"Feature","geometry":{"type":"Point","coordinates":[139.59,35.637]},"properties":{"Name":"喜多見地区会館","Jusho":"東京都世田谷区喜多見８−２３−２３","kouzui":"×","gake":"○","takashio":"×","jishin":"×","tsunami":"×","kaji":"×","naisui":"×","kazan":"×"}}
,{"type":"Feature","geometry":{"type":"Point","coordinates":[139.619,35.625]},"properties":{"Name":"岡本地区会館","Jusho":"東京都世田谷区岡本１−２５−４","kouzui":"×","gake":"○","takashio":"×","jishin":"×","tsunami":"×","kaji":"×","naisui":"×","kazan":"×"}}
,{"type":"Feature","geometry":{"type":"Point","coordinates":[139.611,35.635]},"properties":{"Name":"大蔵地区会館","Jusho":"東京都世田谷区砧３−５−６","kouzui":"×","gake":"○","takashio":"×","jishin":"×","tsunami":"×","kaji":"×","naisui":"×","kazan":"×"}}
,{"type":"Feature","geometry":{"type":"Point","coordinates":[139.643,35.601]},"properties":{"Name":"野毛区民集会所","Jusho":"東京都世田谷区野毛２−４−４","kouzui":"×","gake":"○","takashio":"×","jishin":"×","tsunami":"×","kaji":"×","naisui":"×","kazan":"×"}}
,{"type":"Feature","geometry":{"type":"Point","coordinates":[139.645,35.648]},"properties":{"Name":"宮坂区民センター","Jusho":"東京都世田谷区宮坂１−２４−６","kouzui":"×","gake":"○","takashio":"×","jishin":"×","tsunami":"×","kaji":"×","naisui":"×","kazan":"×"}}
,{"type":"Feature","geometry":{"type":"Point","coordinates":[139.641,35.641]},"properties":{"Name":"世田谷地区会館","Jusho":"東京都世田谷区世田谷２−２５−１０","kouzui":"×","gake":"○","takashio":"×","jishin":"×","tsunami":"×","kaji":"×","naisui":"×","kazan":"×"}}
,{"type":"Feature","geometry":{"type":"Point","coordinates":[139.677,35.653]},"properties":{"Name":"三宿地区会館","Jusho":"東京都世田谷区三宿２−７−１０","kouzui":"×","gake":"○","takashio":"×","jishin":"×","tsunami":"×","kaji":"×","naisui":"×","kazan":"×"}}
,{"type":"Feature","geometry":{"type":"Point","coordinates":[139.673,35.659]},"properties":{"Name":"池之上青少年会館","Jusho":"東京都世田谷区代沢２−３７ー１８","kouzui":"×","gake":"○","takashio":"×","jishin":"×","tsunami":"×","kaji":"×","naisui":"×","kazan":"×"}}
,{"type":"Feature","geometry":{"type":"Point","coordinates":[139.598,35.634]},"properties":{"Name":"成城さくら児童館","Jusho":"東京都世田谷区成城３−１８−２３","kouzui":"×","gake":"○","takashio":"×","jishin":"×","tsunami":"×","kaji":"×","naisui":"×","kazan":"×"}}
,{"type":"Feature","geometry":{"type":"Point","coordinates":[139.627,35.621]},"properties":{"Name":"瀬田地区会館","Jusho":"東京都世田谷区瀬田４−１８−１１","kouzui":"×","gake":"○","takashio":"×","jishin":"×","tsunami":"×","kaji":"×","naisui":"×","kazan":"×"}}
,{"type":"Feature","geometry":{"type":"Point","coordinates":[139.652,35.606]},"properties":{"Name":"尾山台地区会館","Jusho":"東京都世田谷区等々力２−１７−１４","kouzui":"×","gake":"○","takashio":"×","jishin":"×","tsunami":"×","kaji":"×","naisui":"×","kazan":"×"}}
,{"type":"Feature","geometry":{"type":"Point","coordinates":[139.641,35.611]},"properties":{"Name":"上野毛地区会館","Jusho":"東京都世田谷区中町２−３３−１１","kouzui":"×","gake":"○","takashio":"×","jishin":"×","tsunami":"×","kaji":"×","naisui":"×","kazan":"×"}}
,{"type":"Feature","geometry":{"type":"Point","coordinates":[139.637,35.706]},"properties":{"Name":"杉並第一小学校","Jusho":"東京都杉並区阿佐谷北１−５−27","kouzui":"×","gake":"×","takashio":"×","jishin":"○","tsunami":"×","kaji":"○","naisui":"×","kazan":"×"}}
,{"type":"Feature","geometry":{"type":"Point","coordinates":[139.632,35.693]},"properties":{"Name":"杉並第二小学校","Jusho":"東京都杉並区成 田 西３−４−１","kouzui":"○","gake":"○","takashio":"×","jishin":"○","tsunami":"×","kaji":"○","naisui":"○","kazan":"×"}}
,{"type":"Feature","geometry":{"type":"Point","coordinates":[139.653,35.707]},"properties":{"Name":"杉並第四小学校","Jusho":"東京都杉並区高円寺北２−14−13","kouzui":"×","gake":"×","takashio":"×","jishin":"○","tsunami":"×","kaji":"○","naisui":"×","kazan":"×"}}
,{"type":"Feature","geometry":{"type":"Point","coordinates":[139.631,35.703]},"properties":{"Name":"杉並第七小学校","Jusho":"東京都杉並区阿佐谷南３−19−２","kouzui":"×","gake":"×","takashio":"×","jishin":"○","tsunami":"×","kaji":"○","naisui":"×","kazan":"×"}}
,{"type":"Feature","geometry":{"type":"Point","coordinates":[139.623,35.695]},"properties":{"Name":"西田小学校","Jusho":"東京都杉並区荻窪１−38−15","kouzui":"×","gake":"×","takashio":"×","jishin":"○","tsunami":"×","kaji":"○","naisui":"×","kazan":"×"}}
,{"type":"Feature","geometry":{"type":"Point","coordinates":[139.639,35.691]},"properties":{"Name":"東田小学校","Jusho":"東京都杉並区成 田 東１−21−１","kouzui":"×","gake":"×","takashio":"×","jishin":"○","tsunami":"×","kaji":"○","naisui":"×","kazan":"×"}}
,{"type":"Feature","geometry":{"type":"Point","coordinates":[139.644,35.708]},"properties":{"Name":"馬橋小学校","Jusho":"東京都杉並区高円寺北４−28−５","kouzui":"×","gake":"×","takashio":"×","jishin":"○","tsunami":"×","kaji":"○","naisui":"×","kazan":"×"}}
,{"type":"Feature","geometry":{"type":"Point","coordinates":[139.655,35.707]},"properties":{"Name":"高円寺中学校","Jusho":"東京都杉並区高円寺北１−４−11","kouzui":"×","gake":"×","takashio":"×","jishin":"○","tsunami":"×","kaji":"○","naisui":"×","kazan":"×"}}
,{"type":"Feature","geometry":{"type":"Point","coordinates":[139.641,35.712]},"properties":{"Name":"杉森中学校","Jusho":"東京都杉並区阿佐谷北５−45−24","kouzui":"×","gake":"×","takashio":"×","jishin":"○","tsunami":"×","kaji":"○","naisui":"×","kazan":"×"}}
,{"type":"Feature","geometry":{"type":"Point","coordinates":[139.636,35.7]},"properties":{"Name":"阿佐ヶ谷中学校","Jusho":"東京都杉並区阿佐谷南１−17−３","kouzui":"×","gake":"×","takashio":"×","jishin":"○","tsunami":"×","kaji":"○","naisui":"×","kazan":"×"}}
,{"type":"Feature","geometry":{"type":"Point","coordinates":[139.635,35.694]},"properties":{"Name":"東田中学校","Jusho":"東京都杉並区成田東３−19−17","kouzui":"×","gake":"×","takashio":"×","jishin":"○","tsunami":"×","kaji":"○","naisui":"×","kazan":"×"}}
,{"type":"Feature","geometry":{"type":"Point","coordinates":[139.622,35.697]},"properties":{"Name":"松溪中学校","Jusho":"東京都杉並区荻窪２−３−１","kouzui":"×","gake":"×","takashio":"×","jishin":"○","tsunami":"×","kaji":"○","naisui":"×","kazan":"×"}}
,{"type":"Feature","geometry":{"type":"Point","coordinates":[139.609,35.712]},"properties":{"Name":"桃井第一小学校","Jusho":"東京都杉並区桃井２−６−１","kouzui":"×","gake":"×","takashio":"×","jishin":"○","tsunami":"×","kaji":"○","naisui":"×","kazan":"×"}}
,{"type":"Feature","geometry":{"type":"Point","coordinates":[139.619,35.722]},"properties":{"Name":"桃井第五小学校","Jusho":"東京都杉並区下井草４−22−４","kouzui":"×","gake":"×","takashio":"×","jishin":"○","tsunami":"×","kaji":"○","naisui":"×","kazan":"×"}}
,{"type":"Feature","geometry":{"type":"Point","coordinates":[139.61,35.721]},"properties":{"Name":"四宮小学校","Jusho":"東京都杉並区上井草２−12−26","kouzui":"×","gake":"×","takashio":"×","jishin":"○","tsunami":"×","kaji":"○","naisui":"×","kazan":"×"}}
,{"type":"Feature","geometry":{"type":"Point","coordinates":[139.621,35.717]},"properties":{"Name":"沓掛小学校","Jusho":"東京都杉並区清水３−１−９","kouzui":"×","gake":"×","takashio":"×","jishin":"○","tsunami":"×","kaji":"○","naisui":"×","kazan":"×"}}
,{"type":"Feature","geometry":{"type":"Point","coordinates":[139.619,35.728]},"properties":{"Name":"八成小学校","Jusho":"東京都杉並区井草２−25−４","kouzui":"×","gake":"×","takashio":"×","jishin":"○","tsunami":"×","kaji":"○","naisui":"×","kazan":"×"}}
,{"type":"Feature","geometry":{"type":"Point","coordinates":[139.63,35.718]},"properties":{"Name":"東原中学校","Jusho":"東京都杉並区下井草１−28−５","kouzui":"×","gake":"×","takashio":"×","jishin":"○","tsunami":"×","kaji":"○","naisui":"×","kazan":"×"}}
,{"type":"Feature","geometry":{"type":"Point","coordinates":[139.619,35.72]},"properties":{"Name":"中瀬中学校","Jusho":"東京都杉並区下井草４−３−29","kouzui":"×","gake":"×","takashio":"×","jishin":"○","tsunami":"×","kaji":"○","naisui":"×","kazan":"×"}}
,{"type":"Feature","geometry":{"type":"Point","coordinates":[139.611,35.718]},"properties":{"Name":"井荻中学校","Jusho":"東京都杉並区今川２−13−24","kouzui":"×","gake":"×","takashio":"×","jishin":"○","tsunami":"×","kaji":"○","naisui":"×","kazan":"×"}}
,{"type":"Feature","geometry":{"type":"Point","coordinates":[139.631,35.672]},"properties":{"Name":"高井戸第三小学校","Jusho":"東京都杉並区下高井戸４−16−24","kouzui":"×","gake":"×","takashio":"×","jishin":"○","tsunami":"×","kaji":"○","naisui":"×","kazan":"×"}}
,{"type":"Feature","geometry":{"type":"Point","coordinates":[139.629,35.685]},"properties":{"Name":"浜田山小学校","Jusho":"東京都杉並区浜 田 山４−23−１","kouzui":"×","gake":"×","takashio":"×","jishin":"○","tsunami":"×","kaji":"○","naisui":"×","kazan":"×"}}
,{"type":"Feature","geometry":{"type":"Point","coordinates":[139.657,35.676]},"properties":{"Name":"旧新泉小学校","Jusho":"東京都杉並区和泉１−44−26","kouzui":"×","gake":"×","takashio":"×","jishin":"○","tsunami":"×","kaji":"○","naisui":"×","kazan":"×"}}
,{"type":"Feature","geometry":{"type":"Point","coordinates":[139.659,35.68]},"properties":{"Name":"方南小学校","Jusho":"東京都杉並区方南１−52−14","kouzui":"×","gake":"×","takashio":"×","jishin":"○","tsunami":"×","kaji":"○","naisui":"×","kazan":"×"}}
,{"type":"Feature","geometry":{"type":"Point","coordinates":[139.639,35.673]},"properties":{"Name":"永福小学校","Jusho":"東京都杉並区永福２−16−33","kouzui":"×","gake":"×","takashio":"×","jishin":"○","tsunami":"×","kaji":"○","naisui":"×","kazan":"×"}}
,{"type":"Feature","geometry":{"type":"Point","coordinates":[139.635,35.673]},"properties":{"Name":"向陽中学校","Jusho":"東京都杉並区下高井戸３−24−１","kouzui":"×","gake":"×","takashio":"×","jishin":"○","tsunami":"×","kaji":"○","naisui":"×","kazan":"×"}}
,{"type":"Feature","geometry":{"type":"Point","coordinates":[139.655,35.685]},"properties":{"Name":"泉南中学校","Jusho":"東京都杉並区堀ノ内１−３−１","kouzui":"×","gake":"×","takashio":"×","jishin":"○","tsunami":"×","kaji":"○","naisui":"×","kazan":"×"}}
,{"type":"Feature","geometry":{"type":"Point","coordinates":[139.633,35.713]},"properties":{"Name":"杉並第九小学校","Jusho":"東京都杉並区本天沼１−２−19","kouzui":"×","gake":"×","takashio":"×","jishin":"○","tsunami":"×","kaji":"○","naisui":"×","kazan":"×"}}
,{"type":"Feature","geometry":{"type":"Point","coordinates":[139.617,35.701]},"properties":{"Name":"桃井第二小学校","Jusho":"東京都杉並区荻窪５−10−25","kouzui":"×","gake":"×","takashio":"×","jishin":"○","tsunami":"×","kaji":"○","naisui":"×","kazan":"×"}}
,{"type":"Feature","geometry":{"type":"Point","coordinates":[139.623,35.711]},"properties":{"Name":"天沼小学校","Jusho":"東京都杉並区天沼２−46−３","kouzui":"×","gake":"×","takashio":"×","jishin":"○","tsunami":"×","kaji":"○","naisui":"×","kazan":"×"}}
,{"type":"Feature","geometry":{"type":"Point","coordinates":[139.621,35.712]},"properties":{"Name":"天沼中学校","Jusho":"東京都杉並区本天沼３−10−20","kouzui":"×","gake":"×","takashio":"×","jishin":"○","tsunami":"×","kaji":"○","naisui":"×","kazan":"×"}}
,{"type":"Feature","geometry":{"type":"Point","coordinates":[139.619,35.708]},"properties":{"Name":"保育室若杉","Jusho":"東京都杉並区天沼３−15−20","kouzui":"×","gake":"×","takashio":"×","jishin":"○","tsunami":"×","kaji":"○","naisui":"×","kazan":"×"}}
,{"type":"Feature","geometry":{"type":"Point","coordinates":[139.609,35.7]},"properties":{"Name":"神明中学校","Jusho":"東京都杉並区南荻窪２−37−28","kouzui":"×","gake":"×","takashio":"×","jishin":"○","tsunami":"×","kaji":"○","naisui":"×","kazan":"×"}}
,{"type":"Feature","geometry":{"type":"Point","coordinates":[139.656,35.7]},"properties":{"Name":"杉並第三小学校","Jusho":"東京都杉並区高円寺南１−15−13","kouzui":"×","gake":"×","takashio":"×","jishin":"○","tsunami":"×","kaji":"○","naisui":"×","kazan":"×"}}
,{"type":"Feature","geometry":{"type":"Point","coordinates":[139.643,35.702]},"properties":{"Name":"杉並第六小学校","Jusho":"東京都杉並区阿佐谷南１−24−21","kouzui":"×","gake":"×","takashio":"×","jishin":"○","tsunami":"×","kaji":"○","naisui":"×","kazan":"×"}}
,{"type":"Feature","geometry":{"type":"Point","coordinates":[139.651,35.701]},"properties":{"Name":"杉並第八小学校","Jusho":"東京都杉並区高円寺南２−40−24","kouzui":"×","gake":"×","takashio":"×","jishin":"○","tsunami":"×","kaji":"○","naisui":"×","kazan":"×"}}
,{"type":"Feature","geometry":{"type":"Point","coordinates":[139.658,35.697]},"properties":{"Name":"杉並第十小学校","Jusho":"東京都杉並区和田３−55−49","kouzui":"×","gake":"×","takashio":"×","jishin":"○","tsunami":"×","kaji":"○","naisui":"×","kazan":"×"}}
,{"type":"Feature","geometry":{"type":"Point","coordinates":[139.65,35.683]},"properties":{"Name":"大宮小学校","Jusho":"東京都杉並区堀ノ内１−12−16","kouzui":"×","gake":"×","takashio":"×","jishin":"○","tsunami":"×","kaji":"○","naisui":"×","kazan":"×"}}
,{"type":"Feature","geometry":{"type":"Point","coordinates":[139.647,35.693]},"properties":{"Name":"堀之内小学校","Jusho":"東京都杉並区堀ノ内３−24−11","kouzui":"×","gake":"×","takashio":"×","jishin":"○","tsunami":"×","kaji":"○","naisui":"×","kazan":"×"}}
,{"type":"Feature","geometry":{"type":"Point","coordinates":[139.657,35.691]},"properties":{"Name":"和田小学校","Jusho":"東京都杉並区和田２−30−21","kouzui":"○","gake":"○","takashio":"×","jishin":"○","tsunami":"×","kaji":"○","naisui":"○","kazan":"×"}}
,{"type":"Feature","geometry":{"type":"Point","coordinates":[139.65,35.686]},"properties":{"Name":"済美小学校","Jusho":"東京都杉並区堀ノ内１−17−24","kouzui":"×","gake":"×","takashio":"×","jishin":"○","tsunami":"×","kaji":"○","naisui":"×","kazan":"×"}}
,{"type":"Feature","geometry":{"type":"Point","coordinates":[139.643,35.687]},"properties":{"Name":"松ノ木小学校","Jusho":"東京都杉並区松ノ木１−２−26","kouzui":"×","gake":"×","takashio":"×","jishin":"○","tsunami":"×","kaji":"○","naisui":"×","kazan":"×"}}
,{"type":"Feature","geometry":{"type":"Point","coordinates":[139.658,35.695]},"properties":{"Name":"高南中学校","Jusho":"東京都杉並区和田３−40−10","kouzui":"×","gake":"×","takashio":"×","jishin":"○","tsunami":"×","kaji":"○","naisui":"×","kazan":"×"}}
,{"type":"Feature","geometry":{"type":"Point","coordinates":[139.641,35.686]},"properties":{"Name":"松ノ木中学校","Jusho":"東京都杉並区松ノ木１−４−１","kouzui":"×","gake":"×","takashio":"×","jishin":"○","tsunami":"×","kaji":"○","naisui":"×","kazan":"×"}}
,{"type":"Feature","geometry":{"type":"Point","coordinates":[139.649,35.686]},"properties":{"Name":"大宮中学校","Jusho":"東京都杉並区堀ノ内１−16−38","kouzui":"○","gake":"○","takashio":"×","jishin":"○","tsunami":"×","kaji":"○","naisui":"○","kazan":"×"}}
,{"type":"Feature","geometry":{"type":"Point","coordinates":[139.659,35.69]},"properties":{"Name":"和田中学校","Jusho":"東京都杉並区和田２−21−８","kouzui":"×","gake":"×","takashio":"×","jishin":"○","tsunami":"×","kaji":"○","naisui":"×","kazan":"×"}}
,{"type":"Feature","geometry":{"type":"Point","coordinates":[139.612,35.695]},"properties":{"Name":"荻窪小学校","Jusho":"東京都杉並区宮前２−13−18","kouzui":"×","gake":"×","takashio":"×","jishin":"○","tsunami":"×","kaji":"○","naisui":"×","kazan":"×"}}
,{"type":"Feature","geometry":{"type":"Point","coordinates":[139.614,35.684]},"properties":{"Name":"高井戸小学校","Jusho":"東京都杉並区高井戸西２−２−１","kouzui":"×","gake":"×","takashio":"×","jishin":"○","tsunami":"×","kaji":"○","naisui":"×","kazan":"×"}}
,{"type":"Feature","geometry":{"type":"Point","coordinates":[139.6,35.692]},"properties":{"Name":"高井戸第二小学校","Jusho":"東京都杉並区久我山４−49−１","kouzui":"×","gake":"×","takashio":"×","jishin":"○","tsunami":"×","kaji":"○","naisui":"×","kazan":"×"}}
,{"type":"Feature","geometry":{"type":"Point","coordinates":[139.602,35.698]},"properties":{"Name":"高井戸第四小学校","Jusho":"東京都杉並区西荻南１−８−16","kouzui":"×","gake":"×","takashio":"×","jishin":"○","tsunami":"×","kaji":"○","naisui":"×","kazan":"×"}}
,{"type":"Feature","geometry":{"type":"Point","coordinates":[139.593,35.7]},"properties":{"Name":"松庵小学校","Jusho":"東京都杉並区松庵２−23−24","kouzui":"×","gake":"×","takashio":"×","jishin":"○","tsunami":"×","kaji":"○","naisui":"×","kazan":"×"}}
,{"type":"Feature","geometry":{"type":"Point","coordinates":[139.607,35.679]},"properties":{"Name":"富士見丘小学校","Jusho":"東京都杉並区上高井戸２−16−13","kouzui":"×","gake":"×","takashio":"×","jishin":"○","tsunami":"×","kaji":"○","naisui":"×","kazan":"×"}}
,{"type":"Feature","geometry":{"type":"Point","coordinates":[139.62,35.68]},"properties":{"Name":"高井戸東小学校","Jusho":"東京都杉並区高井戸東１−12−１","kouzui":"×","gake":"×","takashio":"×","jishin":"○","tsunami":"×","kaji":"○","naisui":"×","kazan":"×"}}
,{"type":"Feature","geometry":{"type":"Point","coordinates":[139.606,35.687]},"properties":{"Name":"久我山小学校","Jusho":"東京都杉並区久我山５−18−７","kouzui":"×","gake":"×","takashio":"×","jishin":"○","tsunami":"×","kaji":"○","naisui":"×","kazan":"×"}}
,{"type":"Feature","geometry":{"type":"Point","coordinates":[139.611,35.693]},"properties":{"Name":"宮前中学校","Jusho":"東京都杉並区宮前２−12−１","kouzui":"×","gake":"×","takashio":"×","jishin":"○","tsunami":"×","kaji":"○","naisui":"×","kazan":"×"}}
,{"type":"Feature","geometry":{"type":"Point","coordinates":[139.606,35.682]},"properties":{"Name":"富士見丘中学校","Jusho":"東京都杉並区久我山２−20−１","kouzui":"×","gake":"×","takashio":"×","jishin":"○","tsunami":"×","kaji":"○","naisui":"×","kazan":"×"}}
,{"type":"Feature","geometry":{"type":"Point","coordinates":[139.623,35.681]},"properties":{"Name":"高井戸中学校","Jusho":"東京都杉並区高井戸東１−28−１","kouzui":"×","gake":"×","takashio":"×","jishin":"○","tsunami":"×","kaji":"○","naisui":"×","kazan":"×"}}
,{"type":"Feature","geometry":{"type":"Point","coordinates":[139.602,35.692]},"properties":{"Name":"西宮中学校","Jusho":"東京都杉並区宮前５−１−25","kouzui":"×","gake":"×","takashio":"×","jishin":"○","tsunami":"×","kaji":"○","naisui":"×","kazan":"×"}}
,{"type":"Feature","geometry":{"type":"Point","coordinates":[139.602,35.705]},"properties":{"Name":"桃井第三小学校","Jusho":"東京都杉並区西荻北２−10−７","kouzui":"×","gake":"×","takashio":"×","jishin":"○","tsunami":"×","kaji":"○","naisui":"×","kazan":"×"}}
,{"type":"Feature","geometry":{"type":"Point","coordinates":[139.594,35.717]},"properties":{"Name":"桃井第四小学校","Jusho":"東京都杉並区善福寺３−３−５","kouzui":"×","gake":"×","takashio":"×","jishin":"○","tsunami":"×","kaji":"○","naisui":"×","kazan":"×"}}
,{"type":"Feature","geometry":{"type":"Point","coordinates":[139.596,35.711]},"properties":{"Name":"井荻小学校","Jusho":"東京都杉並区善福寺１−10−19","kouzui":"×","gake":"×","takashio":"×","jishin":"○","tsunami":"×","kaji":"○","naisui":"×","kazan":"×"}}
,{"type":"Feature","geometry":{"type":"Point","coordinates":[139.602,35.72]},"properties":{"Name":"三谷小学校","Jusho":"東京都杉並区上井草３−14−12","kouzui":"×","gake":"×","takashio":"×","jishin":"○","tsunami":"×","kaji":"○","naisui":"×","kazan":"×"}}
,{"type":"Feature","geometry":{"type":"Point","coordinates":[139.603,35.722]},"properties":{"Name":"井草中学校","Jusho":"東京都杉並区上井草３−20−11","kouzui":"×","gake":"×","takashio":"×","jishin":"○","tsunami":"×","kaji":"○","naisui":"×","kazan":"×"}}
,{"type":"Feature","geometry":{"type":"Point","coordinates":[139.597,35.71]},"properties":{"Name":"荻窪中学校","Jusho":"東京都杉並区善福寺１−８−３","kouzui":"×","gake":"×","takashio":"×","jishin":"○","tsunami":"×","kaji":"○","naisui":"×","kazan":"×"}}
,{"type":"Feature","geometry":{"type":"Point","coordinates":[139.649,35.674]},"properties":{"Name":"杉並和泉学園","Jusho":"東京都杉並区和泉２−17−14","kouzui":"×","gake":"×","takashio":"×","jishin":"○","tsunami":"×","kaji":"○","naisui":"×","kazan":"×"}}
,{"type":"Feature","geometry":{"type":"Point","coordinates":[139.644,35.71]},"properties":{"Name":"馬橋公園","Jusho":"東京都杉並区高円寺北４−35−５","kouzui":"×","gake":"×","takashio":"×","jishin":"○","tsunami":"×","kaji":"○","naisui":"×","kazan":"×"}}
,{"type":"Feature","geometry":{"type":"Point","coordinates":[139.625,35.675]},"properties":{"Name":"塚山公園","Jusho":"東京都杉並区下高井戸５−23−12","kouzui":"×","gake":"×","takashio":"×","jishin":"○","tsunami":"×","kaji":"○","naisui":"×","kazan":"×"}}
,{"type":"Feature","geometry":{"type":"Point","coordinates":[139.619,35.699]},"properties":{"Name":"荻窪地域区民センター","Jusho":"東京都杉並区荻窪２−34−20","kouzui":"○","gake":"○","takashio":"×","jishin":"×","tsunami":"×","kaji":"×","naisui":"○","kazan":"×"}}
,{"type":"Feature","geometry":{"type":"Point","coordinates":[139.608,35.71]},"properties":{"Name":"杉並会館","Jusho":"東京都杉並区上荻３−29−５","kouzui":"○","gake":"○","takashio":"×","jishin":"×","tsunami":"×","kaji":"×","naisui":"○","kazan":"×"}}
,{"type":"Feature","geometry":{"type":"Point","coordinates":[139.789,35.733]},"properties":{"Name":"第六瑞光小学校","Jusho":"東京都荒川区南千住1-4-11","kouzui":"○","gake":"×","takashio":"×","jishin":"×","tsunami":"×","kaji":"×","naisui":"×","kazan":"×"}}
,{"type":"Feature","geometry":{"type":"Point","coordinates":[139.791,35.735]},"properties":{"Name":"瑞光小学校","Jusho":"東京都荒川区南千住1-51-1","kouzui":"○","gake":"×","takashio":"×","jishin":"×","tsunami":"×","kaji":"×","naisui":"×","kazan":"×"}}
,{"type":"Feature","geometry":{"type":"Point","coordinates":[139.806,35.731]},"properties":{"Name":"石浜ふれあい館","Jusho":"東京都荒川区南千住3-28-2","kouzui":"○","gake":"×","takashio":"×","jishin":"×","tsunami":"×","kaji":"×","naisui":"×","kazan":"×"}}
,{"type":"Feature","geometry":{"type":"Point","coordinates":[139.795,35.734]},"properties":{"Name":"第二瑞光小学校","Jusho":"東京都荒川区南千住5-8-1","kouzui":"○","gake":"×","takashio":"×","jishin":"×","tsunami":"×","kaji":"×","naisui":"×","kazan":"×"}}
,{"type":"Feature","geometry":{"type":"Point","coordinates":[139.791,35.738]},"properties":{"Name":"南千住ふれあい館","Jusho":"東京都荒川区南千住6-36-13","kouzui":"○","gake":"×","takashio":"×","jishin":"×","tsunami":"×","kaji":"×","naisui":"×","kazan":"×"}}
,{"type":"Feature","geometry":{"type":"Point","coordinates":[139.792,35.737]},"properties":{"Name":"荒川工業高等学校","Jusho":"東京都荒川区南千住6-42-1","kouzui":"○","gake":"×","takashio":"×","jishin":"×","tsunami":"×","kaji":"×","naisui":"×","kazan":"×"}}
,{"type":"Feature","geometry":{"type":"Point","coordinates":[139.798,35.733]},"properties":{"Name":"南千住駅前ふれあい館","Jusho":"東京都荒川区南千住7-1-1","kouzui":"○","gake":"×","takashio":"×","jishin":"×","tsunami":"×","kaji":"×","naisui":"×","kazan":"×"}}
,{"type":"Feature","geometry":{"type":"Point","coordinates":[139.799,35.736]},"properties":{"Name":"第三瑞光小学校","Jusho":"東京都荒川区南千住7-9-1","kouzui":"○","gake":"×","takashio":"×","jishin":"×","tsunami":"×","kaji":"×","naisui":"×","kazan":"×"}}
,{"type":"Feature","geometry":{"type":"Point","coordinates":[139.8,35.736]},"properties":{"Name":"南千住第二中学校","Jusho":"東京都荒川区南千住7-25-1","kouzui":"○","gake":"×","takashio":"×","jishin":"×","tsunami":"×","kaji":"×","naisui":"×","kazan":"×"}}
,{"type":"Feature","geometry":{"type":"Point","coordinates":[139.807,35.735]},"properties":{"Name":"汐入ふれあい館","Jusho":"東京都荒川区南千住8-2-2","kouzui":"○","gake":"×","takashio":"×","jishin":"×","tsunami":"×","kaji":"×","naisui":"×","kazan":"×"}}
,{"type":"Feature","geometry":{"type":"Point","coordinates":[139.807,35.735]},"properties":{"Name":"汐入小学校","Jusho":"東京都荒川区南千住8-2-3","kouzui":"○","gake":"×","takashio":"×","jishin":"×","tsunami":"×","kaji":"×","naisui":"×","kazan":"×"}}
,{"type":"Feature","geometry":{"type":"Point","coordinates":[139.812,35.739]},"properties":{"Name":"汐入東小学校","Jusho":"東京都荒川区南千住8-9-3","kouzui":"○","gake":"×","takashio":"×","jishin":"×","tsunami":"×","kaji":"×","naisui":"×","kazan":"×"}}
,{"type":"Feature","geometry":{"type":"Point","coordinates":[139.811,35.738]},"properties":{"Name":"第三中学校","Jusho":"東京都荒川区南千住8-10-1","kouzui":"○","gake":"×","takashio":"×","jishin":"×","tsunami":"×","kaji":"×","naisui":"×","kazan":"×"}}
,{"type":"Feature","geometry":{"type":"Point","coordinates":[139.788,35.735]},"properties":{"Name":"第一中学校","Jusho":"東京都荒川区荒川1-30-1","kouzui":"○","gake":"×","takashio":"×","jishin":"×","tsunami":"×","kaji":"×","naisui":"×","kazan":"×"}}
,{"type":"Feature","geometry":{"type":"Point","coordinates":[139.786,35.734]},"properties":{"Name":"第三峡田小学校","Jusho":"東京都荒川区荒川1-43-1","kouzui":"○","gake":"×","takashio":"×","jishin":"×","tsunami":"×","kaji":"×","naisui":"×","kazan":"×"}}
,{"type":"Feature","geometry":{"type":"Point","coordinates":[139.782,35.738]},"properties":{"Name":"第二峡田小学校","Jusho":"東京都荒川区荒川2-30-1","kouzui":"○","gake":"×","takashio":"×","jishin":"×","tsunami":"×","kaji":"×","naisui":"×","kazan":"×"}}
,{"type":"Feature","geometry":{"type":"Point","coordinates":[139.784,35.734]},"properties":{"Name":"峡田ふれあい館","Jusho":"東京都荒川区荒川3-3-10","kouzui":"○","gake":"×","takashio":"×","jishin":"×","tsunami":"×","kaji":"×","naisui":"×","kazan":"×"}}
,{"type":"Feature","geometry":{"type":"Point","coordinates":[139.78,35.735]},"properties":{"Name":"生涯学習・教育センター","Jusho":"東京都荒川区荒川3-49-1","kouzui":"○","gake":"×","takashio":"×","jishin":"×","tsunami":"×","kaji":"×","naisui":"×","kazan":"×"}}
,{"type":"Feature","geometry":{"type":"Point","coordinates":[139.777,35.736]},"properties":{"Name":"峡田小学校","Jusho":"東京都荒川区荒川3-77-1","kouzui":"○","gake":"×","takashio":"×","jishin":"×","tsunami":"×","kaji":"×","naisui":"×","kazan":"×"}}
,{"type":"Feature","geometry":{"type":"Point","coordinates":[139.775,35.74]},"properties":{"Name":"花の木ひろば館","Jusho":"東京都荒川区荒川5-50-5","kouzui":"○","gake":"×","takashio":"×","jishin":"×","tsunami":"×","kaji":"×","naisui":"×","kazan":"×"}}
,{"type":"Feature","geometry":{"type":"Point","coordinates":[139.779,35.743]},"properties":{"Name":"第九峡田小学校","Jusho":"東京都荒川区荒川6-8-1","kouzui":"○","gake":"×","takashio":"×","jishin":"×","tsunami":"×","kaji":"×","naisui":"×","kazan":"×"}}
,{"type":"Feature","geometry":{"type":"Point","coordinates":[139.776,35.741]},"properties":{"Name":"第四中学校","Jusho":"東京都荒川区荒川6-57-1","kouzui":"○","gake":"×","takashio":"×","jishin":"×","tsunami":"×","kaji":"×","naisui":"×","kazan":"×"}}
,{"type":"Feature","geometry":{"type":"Point","coordinates":[139.784,35.743]},"properties":{"Name":"荒川山吹ふれあい館","Jusho":"東京都荒川区荒川7-6-8","kouzui":"○","gake":"×","takashio":"×","jishin":"×","tsunami":"×","kaji":"×","naisui":"×","kazan":"×"}}
,{"type":"Feature","geometry":{"type":"Point","coordinates":[139.786,35.744]},"properties":{"Name":"町屋ふれあい館","Jusho":"東京都荒川区町屋1-35-8","kouzui":"○","gake":"×","takashio":"×","jishin":"×","tsunami":"×","kaji":"×","naisui":"×","kazan":"×"}}
,{"type":"Feature","geometry":{"type":"Point","coordinates":[139.787,35.745]},"properties":{"Name":"第五中学校","Jusho":"東京都荒川区町屋1-37-16","kouzui":"○","gake":"×","takashio":"×","jishin":"×","tsunami":"×","kaji":"×","naisui":"×","kazan":"×"}}
,{"type":"Feature","geometry":{"type":"Point","coordinates":[139.78,35.745]},"properties":{"Name":"第四峡田小学校","Jusho":"東京都荒川区町屋2-11-6","kouzui":"○","gake":"×","takashio":"×","jishin":"×","tsunami":"×","kaji":"×","naisui":"×","kazan":"×"}}
,{"type":"Feature","geometry":{"type":"Point","coordinates":[139.782,35.748]},"properties":{"Name":"第五峡田小学校","Jusho":"東京都荒川区町屋3-17-24","kouzui":"○","gake":"×","takashio":"×","jishin":"×","tsunami":"×","kaji":"×","naisui":"×","kazan":"×"}}
,{"type":"Feature","geometry":{"type":"Point","coordinates":[139.777,35.749]},"properties":{"Name":"大門小学校","Jusho":"東京都荒川区町屋4-27-8","kouzui":"○","gake":"×","takashio":"×","jishin":"×","tsunami":"×","kaji":"×","naisui":"×","kazan":"×"}}
,{"type":"Feature","geometry":{"type":"Point","coordinates":[139.779,35.751]},"properties":{"Name":"原中学校","Jusho":"東京都荒川区町屋5-12-6","kouzui":"○","gake":"×","takashio":"×","jishin":"×","tsunami":"×","kaji":"×","naisui":"×","kazan":"×"}}
,{"type":"Feature","geometry":{"type":"Point","coordinates":[139.783,35.75]},"properties":{"Name":"荒木田ふれあい館","Jusho":"東京都荒川区町屋6-13-2","kouzui":"○","gake":"×","takashio":"×","jishin":"×","tsunami":"×","kaji":"×","naisui":"×","kazan":"×"}}
,{"type":"Feature","geometry":{"type":"Point","coordinates":[139.788,35.748]},"properties":{"Name":"第七峡田小学校","Jusho":"東京都荒川区町屋8-19-12","kouzui":"○","gake":"×","takashio":"×","jishin":"×","tsunami":"×","kaji":"×","naisui":"×","kazan":"×"}}
,{"type":"Feature","geometry":{"type":"Point","coordinates":[139.773,35.743]},"properties":{"Name":"第九中学校","Jusho":"東京都荒川区東尾久2-23-5","kouzui":"○","gake":"×","takashio":"×","jishin":"×","tsunami":"×","kaji":"×","naisui":"×","kazan":"×"}}
,{"type":"Feature","geometry":{"type":"Point","coordinates":[139.769,35.743]},"properties":{"Name":"赤土小学校","Jusho":"東京都荒川区東尾久2-43-9","kouzui":"○","gake":"×","takashio":"×","jishin":"×","tsunami":"×","kaji":"×","naisui":"×","kazan":"×"}}
,{"type":"Feature","geometry":{"type":"Point","coordinates":[139.774,35.745]},"properties":{"Name":"東尾久ひろば館","Jusho":"東京都荒川区東尾久3-5-3","kouzui":"○","gake":"×","takashio":"×","jishin":"×","tsunami":"×","kaji":"×","naisui":"×","kazan":"×"}}
,{"type":"Feature","geometry":{"type":"Point","coordinates":[139.769,35.747]},"properties":{"Name":"尾久小学校","Jusho":"東京都荒川区東尾久5-6-7","kouzui":"○","gake":"×","takashio":"×","jishin":"×","tsunami":"×","kaji":"×","naisui":"×","kazan":"×"}}
,{"type":"Feature","geometry":{"type":"Point","coordinates":[139.769,35.748]},"properties":{"Name":"男女平等推進センター","Jusho":"東京都荒川区東尾久5-9-3","kouzui":"○","gake":"×","takashio":"×","jishin":"×","tsunami":"×","kaji":"×","naisui":"×","kazan":"×"}}
,{"type":"Feature","geometry":{"type":"Point","coordinates":[139.765,35.746]},"properties":{"Name":"尾久宮前小学校","Jusho":"東京都荒川区西尾久1-4-17","kouzui":"○","gake":"×","takashio":"×","jishin":"×","tsunami":"×","kaji":"×","naisui":"×","kazan":"×"}}
,{"type":"Feature","geometry":{"type":"Point","coordinates":[139.763,35.75]},"properties":{"Name":"尾久ふれあい館","Jusho":"東京都荒川区西尾久2-25-13","kouzui":"○","gake":"×","takashio":"×","jishin":"×","tsunami":"×","kaji":"×","naisui":"×","kazan":"×"}}
,{"type":"Feature","geometry":{"type":"Point","coordinates":[139.764,35.753]},"properties":{"Name":"尾久八幡中学校","Jusho":"東京都荒川区西尾久3-13-1","kouzui":"○","gake":"×","takashio":"×","jishin":"×","tsunami":"×","kaji":"×","naisui":"×","kazan":"×"}}
,{"type":"Feature","geometry":{"type":"Point","coordinates":[139.758,35.746]},"properties":{"Name":"第七中学校","Jusho":"東京都荒川区西尾久4-30-28","kouzui":"○","gake":"×","takashio":"×","jishin":"×","tsunami":"×","kaji":"×","naisui":"×","kazan":"×"}}
,{"type":"Feature","geometry":{"type":"Point","coordinates":[139.758,35.75]},"properties":{"Name":"尾久西小学校","Jusho":"東京都荒川区西尾久5-27-12","kouzui":"○","gake":"×","takashio":"×","jishin":"×","tsunami":"×","kaji":"×","naisui":"×","kazan":"×"}}
,{"type":"Feature","geometry":{"type":"Point","coordinates":[139.754,35.752]},"properties":{"Name":"尾久第六小学校","Jusho":"東京都荒川区西尾久8-26-9","kouzui":"○","gake":"×","takashio":"×","jishin":"×","tsunami":"×","kaji":"×","naisui":"×","kazan":"×"}}
,{"type":"Feature","geometry":{"type":"Point","coordinates":[139.753,35.752]},"properties":{"Name":"西尾久ふれあい館","Jusho":"東京都荒川区西尾久8-33-31","kouzui":"○","gake":"×","takashio":"×","jishin":"×","tsunami":"×","kaji":"×","naisui":"×","kazan":"×"}}
,{"type":"Feature","geometry":{"type":"Point","coordinates":[139.781,35.729]},"properties":{"Name":"第三日暮里小学校","Jusho":"東京都荒川区東日暮里3-10-17","kouzui":"○","gake":"×","takashio":"×","jishin":"×","tsunami":"×","kaji":"×","naisui":"×","kazan":"×"}}
,{"type":"Feature","geometry":{"type":"Point","coordinates":[139.781,35.73]},"properties":{"Name":"夕やけこやけふれあい館","Jusho":"東京都荒川区東日暮里3-11-19","kouzui":"○","gake":"×","takashio":"×","jishin":"×","tsunami":"×","kaji":"×","naisui":"×","kazan":"×"}}
,{"type":"Feature","geometry":{"type":"Point","coordinates":[139.778,35.728]},"properties":{"Name":"第二日暮里小学校","Jusho":"東京都荒川区東日暮里5-2-1","kouzui":"○","gake":"×","takashio":"×","jishin":"×","tsunami":"×","kaji":"×","naisui":"×","kazan":"×"}}
,{"type":"Feature","geometry":{"type":"Point","coordinates":[139.778,35.726]},"properties":{"Name":"竹台高等学校","Jusho":"東京都荒川区東日暮里5-14-1","kouzui":"○","gake":"×","takashio":"×","jishin":"×","tsunami":"×","kaji":"×","naisui":"×","kazan":"×"}}
,{"type":"Feature","geometry":{"type":"Point","coordinates":[139.773,35.731]},"properties":{"Name":"日暮里ひろば館","Jusho":"東京都荒川区西日暮里2-10-9","kouzui":"○","gake":"×","takashio":"×","jishin":"×","tsunami":"×","kaji":"×","naisui":"×","kazan":"×"}}
,{"type":"Feature","geometry":{"type":"Point","coordinates":[139.773,35.731]},"properties":{"Name":"ひぐらし小学校","Jusho":"東京都荒川区西日暮里2-32-5","kouzui":"○","gake":"×","takashio":"×","jishin":"×","tsunami":"×","kaji":"×","naisui":"×","kazan":"×"}}
,{"type":"Feature","geometry":{"type":"Point","coordinates":[139.772,35.731]},"properties":{"Name":"西日暮里二丁目ひろば館","Jusho":"東京都荒川区西日暮里2-32-25","kouzui":"○","gake":"×","takashio":"×","jishin":"×","tsunami":"×","kaji":"×","naisui":"×","kazan":"×"}}
,{"type":"Feature","geometry":{"type":"Point","coordinates":[139.772,35.733]},"properties":{"Name":"諏訪台中学校","Jusho":"東京都荒川区西日暮里2-36-8","kouzui":"○","gake":"×","takashio":"×","jishin":"×","tsunami":"×","kaji":"×","naisui":"×","kazan":"×"}}
,{"type":"Feature","geometry":{"type":"Point","coordinates":[139.768,35.73]},"properties":{"Name":"諏訪台ひろば館","Jusho":"東京都荒川区西日暮里3-3-12","kouzui":"○","gake":"×","takashio":"×","jishin":"×","tsunami":"×","kaji":"×","naisui":"×","kazan":"×"}}
,{"type":"Feature","geometry":{"type":"Point","coordinates":[139.766,35.731]},"properties":{"Name":"第一日暮里小学校","Jusho":"東京都荒川区西日暮里3-7-15","kouzui":"○","gake":"×","takashio":"×","jishin":"×","tsunami":"×","kaji":"×","naisui":"×","kazan":"×"}}
,{"type":"Feature","geometry":{"type":"Point","coordinates":[139.771,35.736]},"properties":{"Name":"西日暮里ふれあい館","Jusho":"東京都荒川区西日暮里6-24-4","kouzui":"○","gake":"×","takashio":"×","jishin":"×","tsunami":"×","kaji":"×","naisui":"×","kazan":"×"}}
,{"type":"Feature","geometry":{"type":"Point","coordinates":[139.77,35.735]},"properties":{"Name":"第六日暮里小学校","Jusho":"東京都荒川区西日暮里6-35-16","kouzui":"○","gake":"×","takashio":"×","jishin":"×","tsunami":"×","kaji":"×","naisui":"×","kazan":"×"}}
,{"type":"Feature","geometry":{"type":"Point","coordinates":[139.653,35.741]},"properties":{"Name":"南町小学校","Jusho":"東京都練馬区練馬2-7-5","kouzui":"×","gake":"×","takashio":"×","jishin":"○","tsunami":"×","kaji":"○","naisui":"×","kazan":"×"}}
,{"type":"Feature","geometry":{"type":"Point","coordinates":[139.667,35.743]},"properties":{"Name":"開進第三小学校","Jusho":"東京都練馬区桜台2-18-1","kouzui":"×","gake":"×","takashio":"×","jishin":"○","tsunami":"×","kaji":"○","naisui":"×","kazan":"×"}}
,{"type":"Feature","geometry":{"type":"Point","coordinates":[139.658,35.742]},"properties":{"Name":"開進第二小学校","Jusho":"東京都練馬区桜台5-10-5","kouzui":"×","gake":"×","takashio":"×","jishin":"○","tsunami":"×","kaji":"○","naisui":"×","kazan":"×"}}
,{"type":"Feature","geometry":{"type":"Point","coordinates":[139.672,35.748]},"properties":{"Name":"開進第四小学校","Jusho":"東京都練馬区羽沢2-33-1","kouzui":"×","gake":"×","takashio":"×","jishin":"○","tsunami":"×","kaji":"○","naisui":"×","kazan":"×"}}
,{"type":"Feature","geometry":{"type":"Point","coordinates":[139.68,35.744]},"properties":{"Name":"小竹小学校","Jusho":"東京都練馬区小竹町2-6-7","kouzui":"×","gake":"×","takashio":"×","jishin":"○","tsunami":"×","kaji":"○","naisui":"×","kazan":"×"}}
,{"type":"Feature","geometry":{"type":"Point","coordinates":[139.677,35.736]},"properties":{"Name":"旭丘小学校","Jusho":"東京都練馬区旭丘2-21-1","kouzui":"×","gake":"×","takashio":"×","jishin":"○","tsunami":"×","kaji":"○","naisui":"×","kazan":"×"}}
,{"type":"Feature","geometry":{"type":"Point","coordinates":[139.662,35.737]},"properties":{"Name":"豊玉第二小学校","Jusho":"東京都練馬区豊玉上2-16-1","kouzui":"×","gake":"×","takashio":"×","jishin":"○","tsunami":"×","kaji":"○","naisui":"×","kazan":"×"}}
,{"type":"Feature","geometry":{"type":"Point","coordinates":[139.668,35.733]},"properties":{"Name":"豊玉東小学校","Jusho":"東京都練馬区豊玉北1-16-1","kouzui":"×","gake":"×","takashio":"×","jishin":"○","tsunami":"×","kaji":"○","naisui":"×","kazan":"×"}}
,{"type":"Feature","geometry":{"type":"Point","coordinates":[139.652,35.733]},"properties":{"Name":"豊玉小学校","Jusho":"東京都練馬区豊玉中4-2-20","kouzui":"×","gake":"×","takashio":"×","jishin":"○","tsunami":"×","kaji":"○","naisui":"×","kazan":"×"}}
,{"type":"Feature","geometry":{"type":"Point","coordinates":[139.656,35.728]},"properties":{"Name":"豊玉南小学校","Jusho":"東京都練馬区豊玉南2-14-1","kouzui":"×","gake":"×","takashio":"×","jishin":"○","tsunami":"×","kaji":"○","naisui":"×","kazan":"×"}}
,{"type":"Feature","geometry":{"type":"Point","coordinates":[139.635,35.737]},"properties":{"Name":"練馬第三小学校","Jusho":"東京都練馬区貫井1-36-15","kouzui":"×","gake":"×","takashio":"×","jishin":"○","tsunami":"×","kaji":"○","naisui":"×","kazan":"×"}}
,{"type":"Feature","geometry":{"type":"Point","coordinates":[139.634,35.742]},"properties":{"Name":"練馬第二小学校","Jusho":"東京都練馬区貫井2-31-13","kouzui":"×","gake":"×","takashio":"×","jishin":"○","tsunami":"×","kaji":"○","naisui":"×","kazan":"×"}}
,{"type":"Feature","geometry":{"type":"Point","coordinates":[139.641,35.741]},"properties":{"Name":"向山小学校","Jusho":"東京都練馬区向山2-14-11","kouzui":"×","gake":"×","takashio":"×","jishin":"○","tsunami":"×","kaji":"○","naisui":"×","kazan":"×"}}
,{"type":"Feature","geometry":{"type":"Point","coordinates":[139.635,35.734]},"properties":{"Name":"中村西小学校","Jusho":"東京都練馬区中村北4-17-1","kouzui":"×","gake":"×","takashio":"×","jishin":"○","tsunami":"×","kaji":"○","naisui":"×","kazan":"×"}}
,{"type":"Feature","geometry":{"type":"Point","coordinates":[139.644,35.731]},"properties":{"Name":"中村小学校","Jusho":"東京都練馬区中村2-8-1","kouzui":"×","gake":"×","takashio":"×","jishin":"○","tsunami":"×","kaji":"○","naisui":"×","kazan":"×"}}
,{"type":"Feature","geometry":{"type":"Point","coordinates":[139.602,35.754]},"properties":{"Name":"泉新小学校","Jusho":"東京都練馬区三原台3-18-30","kouzui":"×","gake":"×","takashio":"×","jishin":"○","tsunami":"×","kaji":"○","naisui":"×","kazan":"×"}}
,{"type":"Feature","geometry":{"type":"Point","coordinates":[139.614,35.751]},"properties":{"Name":"谷原小学校","Jusho":"東京都練馬区谷原2-9-26","kouzui":"×","gake":"×","takashio":"×","jishin":"○","tsunami":"×","kaji":"○","naisui":"×","kazan":"×"}}
,{"type":"Feature","geometry":{"type":"Point","coordinates":[139.614,35.755]},"properties":{"Name":"北原小学校","Jusho":"東京都練馬区谷原4-9-1","kouzui":"×","gake":"×","takashio":"×","jishin":"○","tsunami":"×","kaji":"○","naisui":"×","kazan":"×"}}
,{"type":"Feature","geometry":{"type":"Point","coordinates":[139.623,35.745]},"properties":{"Name":"富士見台小学校","Jusho":"東京都練馬区富士見台4-16-10","kouzui":"×","gake":"×","takashio":"×","jishin":"○","tsunami":"×","kaji":"○","naisui":"×","kazan":"×"}}
,{"type":"Feature","geometry":{"type":"Point","coordinates":[139.617,35.734]},"properties":{"Name":"南が丘小学校","Jusho":"東京都練馬区南田中2-13-1","kouzui":"×","gake":"×","takashio":"×","jishin":"○","tsunami":"×","kaji":"○","naisui":"×","kazan":"×"}}
,{"type":"Feature","geometry":{"type":"Point","coordinates":[139.62,35.737]},"properties":{"Name":"石神井東小学校","Jusho":"東京都練馬区南田中3-9-1","kouzui":"×","gake":"×","takashio":"×","jishin":"○","tsunami":"×","kaji":"○","naisui":"×","kazan":"×"}}
,{"type":"Feature","geometry":{"type":"Point","coordinates":[139.611,35.737]},"properties":{"Name":"南田中小学校","Jusho":"東京都練馬区南田中5-15-37","kouzui":"×","gake":"○","takashio":"×","jishin":"○","tsunami":"×","kaji":"○","naisui":"×","kazan":"×"}}
,{"type":"Feature","geometry":{"type":"Point","coordinates":[139.607,35.746]},"properties":{"Name":"光和小学校","Jusho":"東京都練馬区石神井町2-16-34","kouzui":"×","gake":"×","takashio":"×","jishin":"○","tsunami":"×","kaji":"○","naisui":"×","kazan":"×"}}
,{"type":"Feature","geometry":{"type":"Point","coordinates":[139.605,35.732]},"properties":{"Name":"下石神井小学校","Jusho":"東京都練馬区下石神井2-20-18","kouzui":"×","gake":"×","takashio":"×","jishin":"○","tsunami":"×","kaji":"○","naisui":"×","kazan":"×"}}
,{"type":"Feature","geometry":{"type":"Point","coordinates":[139.589,35.728]},"properties":{"Name":"上石神井小学校","Jusho":"東京都練馬区上石神井4-10-9","kouzui":"×","gake":"×","takashio":"×","jishin":"○","tsunami":"×","kaji":"○","naisui":"×","kazan":"×"}}
,{"type":"Feature","geometry":{"type":"Point","coordinates":[139.599,35.736]},"properties":{"Name":"石神井小学校","Jusho":"東京都練馬区石神井台1-1-25","kouzui":"×","gake":"×","takashio":"×","jishin":"○","tsunami":"×","kaji":"○","naisui":"×","kazan":"×"}}
,{"type":"Feature","geometry":{"type":"Point","coordinates":[139.588,35.736]},"properties":{"Name":"上石神井北小学校","Jusho":"東京都練馬区石神井台5-1-32","kouzui":"×","gake":"×","takashio":"×","jishin":"○","tsunami":"×","kaji":"○","naisui":"×","kazan":"×"}}
,{"type":"Feature","geometry":{"type":"Point","coordinates":[139.581,35.735]},"properties":{"Name":"石神井台小学校","Jusho":"東京都練馬区石神井台8-6-33","kouzui":"×","gake":"×","takashio":"×","jishin":"○","tsunami":"×","kaji":"○","naisui":"×","kazan":"×"}}
,{"type":"Feature","geometry":{"type":"Point","coordinates":[139.58,35.724]},"properties":{"Name":"石神井西小学校","Jusho":"東京都練馬区関町北1-1-5","kouzui":"×","gake":"×","takashio":"×","jishin":"○","tsunami":"×","kaji":"○","naisui":"×","kazan":"×"}}
,{"type":"Feature","geometry":{"type":"Point","coordinates":[139.572,35.725]},"properties":{"Name":"関町小学校","Jusho":"東京都練馬区関町北3-23-34","kouzui":"×","gake":"○","takashio":"×","jishin":"○","tsunami":"×","kaji":"○","naisui":"×","kazan":"×"}}
,{"type":"Feature","geometry":{"type":"Point","coordinates":[139.574,35.733]},"properties":{"Name":"関町北小学校","Jusho":"東京都練馬区関町北5-13-40","kouzui":"×","gake":"×","takashio":"×","jishin":"○","tsunami":"×","kaji":"○","naisui":"×","kazan":"×"}}
,{"type":"Feature","geometry":{"type":"Point","coordinates":[139.581,35.718]},"properties":{"Name":"立野小学校","Jusho":"東京都練馬区立野町17-13","kouzui":"×","gake":"×","takashio":"×","jishin":"○","tsunami":"×","kaji":"○","naisui":"×","kazan":"×"}}
,{"type":"Feature","geometry":{"type":"Point","coordinates":[139.58,35.763]},"properties":{"Name":"大泉第三小学校","Jusho":"東京都練馬区大泉学園町3-22-1","kouzui":"×","gake":"×","takashio":"×","jishin":"○","tsunami":"×","kaji":"○","naisui":"×","kazan":"×"}}
,{"type":"Feature","geometry":{"type":"Point","coordinates":[139.594,35.766]},"properties":{"Name":"大泉学園小学校","Jusho":"東京都練馬区大泉学園町4-7-1","kouzui":"×","gake":"×","takashio":"×","jishin":"○","tsunami":"×","kaji":"○","naisui":"×","kazan":"×"}}
,{"type":"Feature","geometry":{"type":"Point","coordinates":[139.586,35.766]},"properties":{"Name":"大泉学園緑小学校","Jusho":"東京都練馬区大泉学園町5-11-47","kouzui":"×","gake":"×","takashio":"×","jishin":"○","tsunami":"×","kaji":"○","naisui":"×","kazan":"×"}}
,{"type":"Feature","geometry":{"type":"Point","coordinates":[139.591,35.777]},"properties":{"Name":"大泉学園桜小学校","Jusho":"東京都練馬区大泉学園町9-2-2","kouzui":"×","gake":"×","takashio":"×","jishin":"○","tsunami":"×","kaji":"○","naisui":"×","kazan":"×"}}
,{"type":"Feature","geometry":{"type":"Point","coordinates":[139.602,35.759]},"properties":{"Name":"橋戸小学校","Jusho":"東京都練馬区大泉町2-11-25","kouzui":"×","gake":"×","takashio":"×","jishin":"○","tsunami":"×","kaji":"○","naisui":"×","kazan":"×"}}
,{"type":"Feature","geometry":{"type":"Point","coordinates":[139.599,35.766]},"properties":{"Name":"大泉第一小学校","Jusho":"東京都練馬区大泉町3-16-23","kouzui":"×","gake":"○","takashio":"×","jishin":"○","tsunami":"×","kaji":"○","naisui":"×","kazan":"×"}}
,{"type":"Feature","geometry":{"type":"Point","coordinates":[139.596,35.762]},"properties":{"Name":"大泉北小学校","Jusho":"東京都練馬区大泉町4-28-22","kouzui":"×","gake":"×","takashio":"×","jishin":"○","tsunami":"×","kaji":"○","naisui":"×","kazan":"×"}}
,{"type":"Feature","geometry":{"type":"Point","coordinates":[139.591,35.749]},"properties":{"Name":"大泉東小学校","Jusho":"東京都練馬区東大泉1-22-1","kouzui":"×","gake":"×","takashio":"×","jishin":"○","tsunami":"×","kaji":"○","naisui":"×","kazan":"×"}}
,{"type":"Feature","geometry":{"type":"Point","coordinates":[139.584,35.752]},"properties":{"Name":"大泉小学校","Jusho":"東京都練馬区東大泉4-25-1","kouzui":"×","gake":"×","takashio":"×","jishin":"○","tsunami":"×","kaji":"○","naisui":"×","kazan":"×"}}
,{"type":"Feature","geometry":{"type":"Point","coordinates":[139.581,35.745]},"properties":{"Name":"大泉南小学校","Jusho":"東京都練馬区東大泉6-28-1","kouzui":"×","gake":"×","takashio":"×","jishin":"○","tsunami":"×","kaji":"○","naisui":"×","kazan":"×"}}
,{"type":"Feature","geometry":{"type":"Point","coordinates":[139.573,35.745]},"properties":{"Name":"大泉第二小学校","Jusho":"東京都練馬区南大泉4-29-11","kouzui":"×","gake":"×","takashio":"×","jishin":"○","tsunami":"×","kaji":"○","naisui":"×","kazan":"×"}}
,{"type":"Feature","geometry":{"type":"Point","coordinates":[139.572,35.751]},"properties":{"Name":"大泉第六小学校","Jusho":"東京都練馬区南大泉5-25-29","kouzui":"×","gake":"×","takashio":"×","jishin":"○","tsunami":"×","kaji":"○","naisui":"×","kazan":"×"}}
,{"type":"Feature","geometry":{"type":"Point","coordinates":[139.573,35.756]},"properties":{"Name":"大泉第四小学校","Jusho":"東京都練馬区西大泉1-24-1","kouzui":"×","gake":"×","takashio":"×","jishin":"○","tsunami":"×","kaji":"○","naisui":"×","kazan":"×"}}
,{"type":"Feature","geometry":{"type":"Point","coordinates":[139.572,35.765]},"properties":{"Name":"大泉西小学校","Jusho":"東京都練馬区西大泉4-25-1","kouzui":"×","gake":"×","takashio":"×","jishin":"○","tsunami":"×","kaji":"○","naisui":"×","kazan":"×"}}
,{"type":"Feature","geometry":{"type":"Point","coordinates":[139.628,35.773]},"properties":{"Name":"旭町小学校","Jusho":"東京都練馬区旭町2-29-1","kouzui":"×","gake":"○","takashio":"×","jishin":"○","tsunami":"×","kaji":"○","naisui":"×","kazan":"×"}}
,{"type":"Feature","geometry":{"type":"Point","coordinates":[139.637,35.768]},"properties":{"Name":"光が丘第八小学校","Jusho":"東京都練馬区光が丘1-4-1","kouzui":"×","gake":"×","takashio":"×","jishin":"○","tsunami":"×","kaji":"○","naisui":"×","kazan":"×"}}
,{"type":"Feature","geometry":{"type":"Point","coordinates":[139.635,35.762]},"properties":{"Name":"光が丘秋の陽小学校","Jusho":"東京都練馬区光が丘2-1-1","kouzui":"×","gake":"×","takashio":"×","jishin":"○","tsunami":"×","kaji":"○","naisui":"×","kazan":"×"}}
,{"type":"Feature","geometry":{"type":"Point","coordinates":[139.631,35.757]},"properties":{"Name":"光が丘夏の雲小学校","Jusho":"東京都練馬区光が丘3-6-1","kouzui":"×","gake":"×","takashio":"×","jishin":"○","tsunami":"×","kaji":"○","naisui":"×","kazan":"×"}}
,{"type":"Feature","geometry":{"type":"Point","coordinates":[139.626,35.755]},"properties":{"Name":"光が丘春の風小学校","Jusho":"東京都練馬区光が丘7-2-1","kouzui":"×","gake":"×","takashio":"×","jishin":"○","tsunami":"×","kaji":"○","naisui":"×","kazan":"×"}}
,{"type":"Feature","geometry":{"type":"Point","coordinates":[139.642,35.759]},"properties":{"Name":"田柄第二小学校","Jusho":"東京都練馬区田柄1-5-27","kouzui":"×","gake":"×","takashio":"×","jishin":"○","tsunami":"×","kaji":"○","naisui":"×","kazan":"×"}}
,{"type":"Feature","geometry":{"type":"Point","coordinates":[139.644,35.766]},"properties":{"Name":"田柄小学校","Jusho":"東京都練馬区田柄2-19-19","kouzui":"×","gake":"×","takashio":"×","jishin":"○","tsunami":"×","kaji":"○","naisui":"×","kazan":"×"}}
,{"type":"Feature","geometry":{"type":"Point","coordinates":[139.647,35.752]},"properties":{"Name":"練馬東小学校","Jusho":"東京都練馬区春日町1-30-11","kouzui":"×","gake":"×","takashio":"×","jishin":"○","tsunami":"×","kaji":"○","naisui":"×","kazan":"×"}}
,{"type":"Feature","geometry":{"type":"Point","coordinates":[139.64,35.747]},"properties":{"Name":"春日小学校","Jusho":"東京都練馬区春日町5-12-1","kouzui":"×","gake":"×","takashio":"×","jishin":"○","tsunami":"×","kaji":"○","naisui":"×","kazan":"×"}}
,{"type":"Feature","geometry":{"type":"Point","coordinates":[139.636,35.753]},"properties":{"Name":"練馬小学校","Jusho":"東京都練馬区春日町6-11-36","kouzui":"×","gake":"×","takashio":"×","jishin":"○","tsunami":"×","kaji":"○","naisui":"×","kazan":"×"}}
,{"type":"Feature","geometry":{"type":"Point","coordinates":[139.627,35.75]},"properties":{"Name":"高松小学校","Jusho":"東京都練馬区高松3-16-1","kouzui":"×","gake":"×","takashio":"×","jishin":"○","tsunami":"×","kaji":"○","naisui":"×","kazan":"×"}}
,{"type":"Feature","geometry":{"type":"Point","coordinates":[139.624,35.762]},"properties":{"Name":"光が丘四季の香小学校","Jusho":"東京都練馬区高松5-24-1","kouzui":"×","gake":"×","takashio":"×","jishin":"○","tsunami":"×","kaji":"○","naisui":"×","kazan":"×"}}
,{"type":"Feature","geometry":{"type":"Point","coordinates":[139.615,35.763]},"properties":{"Name":"豊渓小学校","Jusho":"東京都練馬区土支田2-26-28","kouzui":"×","gake":"×","takashio":"×","jishin":"○","tsunami":"×","kaji":"○","naisui":"×","kazan":"×"}}
,{"type":"Feature","geometry":{"type":"Point","coordinates":[139.611,35.769]},"properties":{"Name":"八坂小学校","Jusho":"東京都練馬区土支田4-48-1","kouzui":"×","gake":"×","takashio":"×","jishin":"○","tsunami":"×","kaji":"○","naisui":"×","kazan":"×"}}
,{"type":"Feature","geometry":{"type":"Point","coordinates":[139.664,35.765]},"properties":{"Name":"北町小学校","Jusho":"東京都練馬区北町1-14-11","kouzui":"×","gake":"×","takashio":"×","jishin":"○","tsunami":"×","kaji":"○","naisui":"×","kazan":"×"}}
,{"type":"Feature","geometry":{"type":"Point","coordinates":[139.654,35.762]},"properties":{"Name":"北町西小学校","Jusho":"東京都練馬区北町7-3-8","kouzui":"×","gake":"×","takashio":"×","jishin":"○","tsunami":"×","kaji":"○","naisui":"×","kazan":"×"}}
,{"type":"Feature","geometry":{"type":"Point","coordinates":[139.667,35.758]},"properties":{"Name":"仲町小学校","Jusho":"東京都練馬区氷川台2-18-24","kouzui":"×","gake":"×","takashio":"×","jishin":"○","tsunami":"×","kaji":"○","naisui":"×","kazan":"×"}}
,{"type":"Feature","geometry":{"type":"Point","coordinates":[139.658,35.755]},"properties":{"Name":"開進第一小学校","Jusho":"東京都練馬区早宮2-1-31","kouzui":"×","gake":"×","takashio":"×","jishin":"○","tsunami":"×","kaji":"○","naisui":"×","kazan":"×"}}
,{"type":"Feature","geometry":{"type":"Point","coordinates":[139.651,35.752]},"properties":{"Name":"早宮小学校","Jusho":"東京都練馬区早宮4-10-17","kouzui":"×","gake":"×","takashio":"×","jishin":"○","tsunami":"×","kaji":"○","naisui":"×","kazan":"×"}}
,{"type":"Feature","geometry":{"type":"Point","coordinates":[139.653,35.743]},"properties":{"Name":"開進第二中学校","Jusho":"東京都練馬区練馬2-27-28","kouzui":"×","gake":"×","takashio":"×","jishin":"○","tsunami":"×","kaji":"○","naisui":"×","kazan":"×"}}
,{"type":"Feature","geometry":{"type":"Point","coordinates":[139.666,35.746]},"properties":{"Name":"開進第三中学校","Jusho":"東京都練馬区桜台3-28-1","kouzui":"×","gake":"○","takashio":"×","jishin":"○","tsunami":"×","kaji":"○","naisui":"×","kazan":"×"}}
,{"type":"Feature","geometry":{"type":"Point","coordinates":[139.673,35.751]},"properties":{"Name":"開進第四中学校","Jusho":"東京都練馬区羽沢3-24-1","kouzui":"×","gake":"×","takashio":"×","jishin":"○","tsunami":"×","kaji":"○","naisui":"×","kazan":"×"}}
,{"type":"Feature","geometry":{"type":"Point","coordinates":[139.678,35.738]},"properties":{"Name":"旭丘中学校","Jusho":"東京都練馬区旭丘2-40-1","kouzui":"×","gake":"×","takashio":"×","jishin":"○","tsunami":"×","kaji":"○","naisui":"×","kazan":"×"}}
,{"type":"Feature","geometry":{"type":"Point","coordinates":[139.664,35.735]},"properties":{"Name":"豊玉第二中学校","Jusho":"東京都練馬区豊玉北2-24-5","kouzui":"×","gake":"×","takashio":"×","jishin":"○","tsunami":"×","kaji":"○","naisui":"×","kazan":"×"}}
,{"type":"Feature","geometry":{"type":"Point","coordinates":[139.658,35.729]},"properties":{"Name":"豊玉中学校","Jusho":"東京都練馬区豊玉南2-1-20","kouzui":"×","gake":"×","takashio":"×","jishin":"○","tsunami":"×","kaji":"○","naisui":"×","kazan":"×"}}
,{"type":"Feature","geometry":{"type":"Point","coordinates":[139.633,35.74]},"properties":{"Name":"貫井中学校","Jusho":"東京都練馬区貫井2-14-13","kouzui":"×","gake":"×","takashio":"×","jishin":"○","tsunami":"×","kaji":"○","naisui":"×","kazan":"×"}}
,{"type":"Feature","geometry":{"type":"Point","coordinates":[139.645,35.728]},"properties":{"Name":"中村中学校","Jusho":"東京都練馬区中村南1-32-21","kouzui":"×","gake":"×","takashio":"×","jishin":"○","tsunami":"×","kaji":"○","naisui":"×","kazan":"×"}}
,{"type":"Feature","geometry":{"type":"Point","coordinates":[139.6,35.755]},"properties":{"Name":"三原台中学校","Jusho":"東京都練馬区三原台3-13-41","kouzui":"×","gake":"×","takashio":"×","jishin":"○","tsunami":"×","kaji":"○","naisui":"×","kazan":"×"}}
,{"type":"Feature","geometry":{"type":"Point","coordinates":[139.615,35.755]},"properties":{"Name":"谷原中学校","Jusho":"東京都練馬区谷原4-10-5","kouzui":"×","gake":"×","takashio":"×","jishin":"○","tsunami":"×","kaji":"○","naisui":"×","kazan":"×"}}
,{"type":"Feature","geometry":{"type":"Point","coordinates":[139.617,35.742]},"properties":{"Name":"石神井東中学校","Jusho":"東京都練馬区高野台1-8-34","kouzui":"×","gake":"×","takashio":"×","jishin":"○","tsunami":"×","kaji":"○","naisui":"×","kazan":"×"}}
,{"type":"Feature","geometry":{"type":"Point","coordinates":[139.613,35.734]},"properties":{"Name":"南が丘中学校","Jusho":"東京都練馬区南田中4-8-23","kouzui":"×","gake":"×","takashio":"×","jishin":"○","tsunami":"×","kaji":"○","naisui":"×","kazan":"×"}}
,{"type":"Feature","geometry":{"type":"Point","coordinates":[139.609,35.73]},"properties":{"Name":"石神井南中学校","Jusho":"東京都練馬区下石神井2-7-23","kouzui":"×","gake":"×","takashio":"×","jishin":"○","tsunami":"×","kaji":"○","naisui":"×","kazan":"×"}}
,{"type":"Feature","geometry":{"type":"Point","coordinates":[139.588,35.729]},"properties":{"Name":"上石神井中学校","Jusho":"東京都練馬区上石神井4-15-27","kouzui":"×","gake":"×","takashio":"×","jishin":"○","tsunami":"×","kaji":"○","naisui":"×","kazan":"×"}}
,{"type":"Feature","geometry":{"type":"Point","coordinates":[139.596,35.741]},"properties":{"Name":"石神井中学校","Jusho":"東京都練馬区石神井台1-32-1","kouzui":"×","gake":"×","takashio":"×","jishin":"○","tsunami":"×","kaji":"○","naisui":"×","kazan":"×"}}
,{"type":"Feature","geometry":{"type":"Point","coordinates":[139.575,35.731]},"properties":{"Name":"関中学校","Jusho":"東京都練馬区関町北4-34-23","kouzui":"×","gake":"×","takashio":"×","jishin":"○","tsunami":"×","kaji":"○","naisui":"×","kazan":"×"}}
,{"type":"Feature","geometry":{"type":"Point","coordinates":[139.581,35.721]},"properties":{"Name":"石神井西中学校","Jusho":"東京都練馬区関町南3-10-3","kouzui":"×","gake":"×","takashio":"×","jishin":"○","tsunami":"×","kaji":"○","naisui":"×","kazan":"×"}}
,{"type":"Feature","geometry":{"type":"Point","coordinates":[139.59,35.767]},"properties":{"Name":"大泉学園中学校","Jusho":"東京都練馬区大泉学園町4-17-32","kouzui":"×","gake":"×","takashio":"×","jishin":"○","tsunami":"×","kaji":"○","naisui":"×","kazan":"×"}}
,{"type":"Feature","geometry":{"type":"Point","coordinates":[139.592,35.777]},"properties":{"Name":"大泉学園桜中学校","Jusho":"東京都練馬区大泉学園町9-2-1","kouzui":"×","gake":"×","takashio":"×","jishin":"○","tsunami":"×","kaji":"○","naisui":"×","kazan":"×"}}
,{"type":"Feature","geometry":{"type":"Point","coordinates":[139.596,35.759]},"properties":{"Name":"大泉北中学校","Jusho":"東京都練馬区大泉町5-4-32","kouzui":"×","gake":"×","takashio":"×","jishin":"○","tsunami":"×","kaji":"○","naisui":"×","kazan":"×"}}
,{"type":"Feature","geometry":{"type":"Point","coordinates":[139.585,35.752]},"properties":{"Name":"大泉中学校","Jusho":"東京都練馬区東大泉4-27-35","kouzui":"×","gake":"×","takashio":"×","jishin":"○","tsunami":"×","kaji":"○","naisui":"×","kazan":"×"}}
,{"type":"Feature","geometry":{"type":"Point","coordinates":[139.585,35.745]},"properties":{"Name":"大泉第二中学校","Jusho":"東京都練馬区東大泉6-21-1","kouzui":"×","gake":"×","takashio":"×","jishin":"○","tsunami":"×","kaji":"○","naisui":"×","kazan":"×"}}
,{"type":"Feature","geometry":{"type":"Point","coordinates":[139.58,35.758]},"properties":{"Name":"大泉西中学校","Jusho":"東京都練馬区西大泉3-19-27","kouzui":"×","gake":"×","takashio":"×","jishin":"○","tsunami":"×","kaji":"○","naisui":"×","kazan":"×"}}
,{"type":"Feature","geometry":{"type":"Point","coordinates":[139.628,35.774]},"properties":{"Name":"豊渓中学校","Jusho":"東京都練馬区旭町3-5-10","kouzui":"×","gake":"×","takashio":"×","jishin":"○","tsunami":"×","kaji":"○","naisui":"×","kazan":"×"}}
,{"type":"Feature","geometry":{"type":"Point","coordinates":[139.634,35.762]},"properties":{"Name":"光が丘第四中学校","Jusho":"東京都練馬区光が丘2-5-1","kouzui":"×","gake":"×","takashio":"×","jishin":"○","tsunami":"×","kaji":"○","naisui":"×","kazan":"×"}}
,{"type":"Feature","geometry":{"type":"Point","coordinates":[139.631,35.755]},"properties":{"Name":"光が丘第三中学校","Jusho":"東京都練馬区光が丘3-2-1","kouzui":"×","gake":"×","takashio":"×","jishin":"○","tsunami":"×","kaji":"○","naisui":"×","kazan":"×"}}
,{"type":"Feature","geometry":{"type":"Point","coordinates":[139.622,35.76]},"properties":{"Name":"光が丘第一中学校","Jusho":"東京都練馬区光が丘6-5-1","kouzui":"×","gake":"×","takashio":"×","jishin":"○","tsunami":"×","kaji":"○","naisui":"×","kazan":"×"}}
,{"type":"Feature","geometry":{"type":"Point","coordinates":[139.626,35.754]},"properties":{"Name":"光が丘第二中学校","Jusho":"東京都練馬区光が丘7-1-1","kouzui":"×","gake":"×","takashio":"×","jishin":"○","tsunami":"×","kaji":"○","naisui":"×","kazan":"×"}}
,{"type":"Feature","geometry":{"type":"Point","coordinates":[139.642,35.76]},"properties":{"Name":"田柄中学校","Jusho":"東京都練馬区田柄3-3-1","kouzui":"×","gake":"×","takashio":"×","jishin":"○","tsunami":"×","kaji":"○","naisui":"×","kazan":"×"}}
,{"type":"Feature","geometry":{"type":"Point","coordinates":[139.648,35.757]},"properties":{"Name":"練馬東中学校","Jusho":"東京都練馬区春日町2-14-22","kouzui":"×","gake":"×","takashio":"×","jishin":"○","tsunami":"×","kaji":"○","naisui":"×","kazan":"×"}}
,{"type":"Feature","geometry":{"type":"Point","coordinates":[139.635,35.748]},"properties":{"Name":"練馬中学校","Jusho":"東京都練馬区高松1-24-1","kouzui":"×","gake":"×","takashio":"×","jishin":"○","tsunami":"×","kaji":"○","naisui":"×","kazan":"×"}}
,{"type":"Feature","geometry":{"type":"Point","coordinates":[139.612,35.77]},"properties":{"Name":"八坂中学校","Jusho":"東京都練馬区土支田4-47-21","kouzui":"×","gake":"×","takashio":"×","jishin":"○","tsunami":"×","kaji":"○","naisui":"×","kazan":"×"}}
,{"type":"Feature","geometry":{"type":"Point","coordinates":[139.657,35.767]},"properties":{"Name":"北町中学校","Jusho":"東京都練馬区北町3-1-34","kouzui":"×","gake":"×","takashio":"×","jishin":"○","tsunami":"×","kaji":"○","naisui":"×","kazan":"×"}}
,{"type":"Feature","geometry":{"type":"Point","coordinates":[139.659,35.753]},"properties":{"Name":"開進第一中学校","Jusho":"東京都練馬区早宮1-16-50","kouzui":"×","gake":"×","takashio":"×","jishin":"○","tsunami":"×","kaji":"○","naisui":"×","kazan":"×"}}
,{"type":"Feature","geometry":{"type":"Point","coordinates":[139.674,35.735]},"properties":{"Name":"旭丘地域集会所","Jusho":"東京都練馬区旭丘1-58-10","kouzui":"○","gake":"×","takashio":"×","jishin":"×","tsunami":"×","kaji":"×","naisui":"○","kazan":"×"}}
,{"type":"Feature","geometry":{"type":"Point","coordinates":[139.673,35.739]},"properties":{"Name":"小竹地域集会所","Jusho":"東京都練馬区小竹町1-63-2","kouzui":"○","gake":"×","takashio":"×","jishin":"×","tsunami":"×","kaji":"×","naisui":"○","kazan":"×"}}
,{"type":"Feature","geometry":{"type":"Point","coordinates":[139.671,35.74]},"properties":{"Name":"栄町敬老館","Jusho":"東京都練馬区栄町40-7","kouzui":"○","gake":"×","takashio":"×","jishin":"×","tsunami":"×","kaji":"×","naisui":"○","kazan":"×"}}
,{"type":"Feature","geometry":{"type":"Point","coordinates":[139.661,35.733]},"properties":{"Name":"豊玉北地区区民館","Jusho":"東京都練馬区豊玉北3-7-9","kouzui":"○","gake":"×","takashio":"×","jishin":"×","tsunami":"×","kaji":"×","naisui":"○","kazan":"×"}}
,{"type":"Feature","geometry":{"type":"Point","coordinates":[139.642,35.732]},"properties":{"Name":"中村敬老館","Jusho":"東京都練馬区中村2-25-3","kouzui":"○","gake":"×","takashio":"×","jishin":"×","tsunami":"×","kaji":"×","naisui":"○","kazan":"×"}}
,{"type":"Feature","geometry":{"type":"Point","coordinates":[139.643,35.73]},"properties":{"Name":"中村地域集会所","Jusho":"東京都練馬区中村南2-23-12","kouzui":"○","gake":"×","takashio":"×","jishin":"×","tsunami":"×","kaji":"×","naisui":"○","kazan":"×"}}
,{"type":"Feature","geometry":{"type":"Point","coordinates":[139.667,35.739]},"properties":{"Name":"桜台地域集会所","Jusho":"東京都練馬区桜台1-22-9","kouzui":"○","gake":"×","takashio":"×","jishin":"×","tsunami":"×","kaji":"×","naisui":"○","kazan":"×"}}
,{"type":"Feature","geometry":{"type":"Point","coordinates":[139.663,35.746]},"properties":{"Name":"桜台地区区民館","Jusho":"東京都練馬区桜台3-39-17","kouzui":"○","gake":"○","takashio":"×","jishin":"×","tsunami":"×","kaji":"×","naisui":"○","kazan":"×"}}
,{"type":"Feature","geometry":{"type":"Point","coordinates":[139.65,35.74]},"properties":{"Name":"厚生文化会館","Jusho":"東京都練馬区練馬4-2-3","kouzui":"○","gake":"×","takashio":"×","jishin":"×","tsunami":"×","kaji":"×","naisui":"○","kazan":"×"}}
,{"type":"Feature","geometry":{"type":"Point","coordinates":[139.647,35.742]},"properties":{"Name":"向山庭園","Jusho":"東京都練馬区向山3-1-21","kouzui":"○","gake":"×","takashio":"×","jishin":"×","tsunami":"×","kaji":"×","naisui":"○","kazan":"×"}}
,{"type":"Feature","geometry":{"type":"Point","coordinates":[139.639,35.744]},"properties":{"Name":"向山地域集会所","Jusho":"東京都練馬区向山4-21-12","kouzui":"○","gake":"×","takashio":"×","jishin":"×","tsunami":"×","kaji":"×","naisui":"○","kazan":"×"}}
,{"type":"Feature","geometry":{"type":"Point","coordinates":[139.636,35.738]},"properties":{"Name":"貫井地区区民館","Jusho":"東京都練馬区貫井1-9-1","kouzui":"○","gake":"×","takashio":"×","jishin":"×","tsunami":"×","kaji":"×","naisui":"○","kazan":"×"}}
,{"type":"Feature","geometry":{"type":"Point","coordinates":[139.667,35.757]},"properties":{"Name":"氷川台地区区民館","Jusho":"東京都練馬区氷川台2-16-14","kouzui":"○","gake":"×","takashio":"×","jishin":"×","tsunami":"×","kaji":"×","naisui":"○","kazan":"×"}}
,{"type":"Feature","geometry":{"type":"Point","coordinates":[139.659,35.754]},"properties":{"Name":"早宮地域集会所","Jusho":"東京都練馬区早宮1-44-19","kouzui":"○","gake":"×","takashio":"×","jishin":"×","tsunami":"×","kaji":"×","naisui":"○","kazan":"×"}}
,{"type":"Feature","geometry":{"type":"Point","coordinates":[139.651,35.751]},"properties":{"Name":"早宮地区区民館","Jusho":"東京都練馬区早宮4-14-5","kouzui":"○","gake":"×","takashio":"×","jishin":"×","tsunami":"×","kaji":"×","naisui":"○","kazan":"×"}}
,{"type":"Feature","geometry":{"type":"Point","coordinates":[139.646,35.757]},"properties":{"Name":"春日町敬老館","Jusho":"東京都練馬区春日町2-28-3","kouzui":"○","gake":"×","takashio":"×","jishin":"×","tsunami":"×","kaji":"×","naisui":"○","kazan":"×"}}
,{"type":"Feature","geometry":{"type":"Point","coordinates":[139.639,35.748]},"properties":{"Name":"春日町南地区区民館","Jusho":"東京都練馬区春日町5-20-25","kouzui":"○","gake":"×","takashio":"×","jishin":"×","tsunami":"×","kaji":"×","naisui":"○","kazan":"×"}}
,{"type":"Feature","geometry":{"type":"Point","coordinates":[139.639,35.751]},"properties":{"Name":"春日町地域集会所","Jusho":"東京都練馬区春日町5-30-1","kouzui":"○","gake":"×","takashio":"×","jishin":"×","tsunami":"×","kaji":"×","naisui":"○","kazan":"×"}}
,{"type":"Feature","geometry":{"type":"Point","coordinates":[139.625,35.75]},"properties":{"Name":"高松地区区民館","Jusho":"東京都練馬区高松3-24-27","kouzui":"○","gake":"×","takashio":"×","jishin":"×","tsunami":"×","kaji":"×","naisui":"○","kazan":"×"}}
,{"type":"Feature","geometry":{"type":"Point","coordinates":[139.625,35.763]},"properties":{"Name":"旭町南地区区民館","Jusho":"東京都練馬区高松5-23-15","kouzui":"○","gake":"×","takashio":"×","jishin":"×","tsunami":"×","kaji":"×","naisui":"○","kazan":"×"}}
,{"type":"Feature","geometry":{"type":"Point","coordinates":[139.66,35.768]},"properties":{"Name":"北町地区区民館","Jusho":"東京都練馬区北町2-26-1","kouzui":"○","gake":"×","takashio":"×","jishin":"×","tsunami":"×","kaji":"×","naisui":"○","kazan":"×"}}
,{"type":"Feature","geometry":{"type":"Point","coordinates":[139.655,35.762]},"properties":{"Name":"北町第二地区区民館","Jusho":"東京都練馬区北町6-24-101","kouzui":"○","gake":"×","takashio":"×","jishin":"×","tsunami":"×","kaji":"×","naisui":"○","kazan":"×"}}
,{"type":"Feature","geometry":{"type":"Point","coordinates":[139.65,35.768]},"properties":{"Name":"北町地域集会所","Jusho":"東京都練馬区北町8-28-10","kouzui":"○","gake":"×","takashio":"×","jishin":"×","tsunami":"×","kaji":"×","naisui":"○","kazan":"×"}}
,{"type":"Feature","geometry":{"type":"Point","coordinates":[139.645,35.764]},"properties":{"Name":"田柄地域集会所","Jusho":"東京都練馬区田柄2-6-22","kouzui":"○","gake":"×","takashio":"×","jishin":"×","tsunami":"×","kaji":"×","naisui":"○","kazan":"×"}}
,{"type":"Feature","geometry":{"type":"Point","coordinates":[139.637,35.762]},"properties":{"Name":"田柄地区区民館","Jusho":"東京都練馬区田柄3-28-13","kouzui":"○","gake":"×","takashio":"×","jishin":"×","tsunami":"×","kaji":"×","naisui":"○","kazan":"×"}}
,{"type":"Feature","geometry":{"type":"Point","coordinates":[139.63,35.759]},"properties":{"Name":"光が丘区民センター","Jusho":"東京都練馬区光が丘2-9-6","kouzui":"○","gake":"×","takashio":"×","jishin":"×","tsunami":"×","kaji":"×","naisui":"○","kazan":"×"}}
,{"type":"Feature","geometry":{"type":"Point","coordinates":[139.626,35.758]},"properties":{"Name":"光が丘地区区民館","Jusho":"東京都練馬区光が丘3-9-4","kouzui":"○","gake":"×","takashio":"×","jishin":"×","tsunami":"×","kaji":"×","naisui":"○","kazan":"×"}}
,{"type":"Feature","geometry":{"type":"Point","coordinates":[139.629,35.773]},"properties":{"Name":"旭町北地区区民館","Jusho":"東京都練馬区旭町2-30-16","kouzui":"○","gake":"×","takashio":"×","jishin":"×","tsunami":"×","kaji":"×","naisui":"○","kazan":"×"}}
,{"type":"Feature","geometry":{"type":"Point","coordinates":[139.625,35.774]},"properties":{"Name":"旭町地域集会所","Jusho":"東京都練馬区旭町3-11-6","kouzui":"○","gake":"○","takashio":"×","jishin":"×","tsunami":"×","kaji":"×","naisui":"○","kazan":"×"}}
,{"type":"Feature","geometry":{"type":"Point","coordinates":[139.614,35.763]},"properties":{"Name":"土支田中央地域集会所","Jusho":"東京都練馬区土支田2-32-8","kouzui":"○","gake":"○","takashio":"×","jishin":"×","tsunami":"×","kaji":"×","naisui":"○","kazan":"×"}}
,{"type":"Feature","geometry":{"type":"Point","coordinates":[139.612,35.764]},"properties":{"Name":"土支田地域集会所","Jusho":"東京都練馬区土支田2-40-21","kouzui":"○","gake":"○","takashio":"×","jishin":"×","tsunami":"×","kaji":"×","naisui":"○","kazan":"×"}}
,{"type":"Feature","geometry":{"type":"Point","coordinates":[139.624,35.739]},"properties":{"Name":"富士見台地区区民館","Jusho":"東京都練馬区富士見台3-10-1","kouzui":"○","gake":"×","takashio":"×","jishin":"×","tsunami":"×","kaji":"×","naisui":"○","kazan":"×"}}
,{"type":"Feature","geometry":{"type":"Point","coordinates":[139.617,35.733]},"properties":{"Name":"南田中地域集会所","Jusho":"東京都練馬区南田中2-18-36","kouzui":"○","gake":"×","takashio":"×","jishin":"×","tsunami":"×","kaji":"×","naisui":"○","kazan":"×"}}
,{"type":"Feature","geometry":{"type":"Point","coordinates":[139.612,35.738]},"properties":{"Name":"南田中敬老館","Jusho":"東京都練馬区南田中5-15-25","kouzui":"○","gake":"○","takashio":"×","jishin":"×","tsunami":"×","kaji":"×","naisui":"○","kazan":"×"}}
,{"type":"Feature","geometry":{"type":"Point","coordinates":[139.616,35.741]},"properties":{"Name":"練馬高野台駅前地域集会所","Jusho":"東京都練馬区高野台1-7-29","kouzui":"○","gake":"×","takashio":"×","jishin":"×","tsunami":"×","kaji":"×","naisui":"○","kazan":"×"}}
,{"type":"Feature","geometry":{"type":"Point","coordinates":[139.621,35.748]},"properties":{"Name":"高野台敬老館","Jusho":"東京都練馬区高野台2-25-1","kouzui":"○","gake":"×","takashio":"×","jishin":"×","tsunami":"×","kaji":"×","naisui":"○","kazan":"×"}}
,{"type":"Feature","geometry":{"type":"Point","coordinates":[139.612,35.746]},"properties":{"Name":"高野台地域集会所","Jusho":"東京都練馬区高野台3-28-11","kouzui":"○","gake":"×","takashio":"×","jishin":"×","tsunami":"×","kaji":"×","naisui":"○","kazan":"×"}}
,{"type":"Feature","geometry":{"type":"Point","coordinates":[139.613,35.751]},"properties":{"Name":"谷原地域集会所","Jusho":"東京都練馬区谷原5-6-7","kouzui":"○","gake":"×","takashio":"×","jishin":"×","tsunami":"×","kaji":"×","naisui":"○","kazan":"×"}}
,{"type":"Feature","geometry":{"type":"Point","coordinates":[139.606,35.757]},"properties":{"Name":"三原台敬老館","Jusho":"東京都練馬区三原台2-11-29","kouzui":"○","gake":"×","takashio":"×","jishin":"×","tsunami":"×","kaji":"×","naisui":"○","kazan":"×"}}
,{"type":"Feature","geometry":{"type":"Point","coordinates":[139.599,35.754]},"properties":{"Name":"三原台地域集会所","Jusho":"東京都練馬区三原台3-13-17","kouzui":"○","gake":"×","takashio":"×","jishin":"×","tsunami":"×","kaji":"×","naisui":"○","kazan":"×"}}
,{"type":"Feature","geometry":{"type":"Point","coordinates":[139.598,35.745]},"properties":{"Name":"石神井敬老館","Jusho":"東京都練馬区石神井町7-28-21","kouzui":"○","gake":"×","takashio":"×","jishin":"×","tsunami":"×","kaji":"×","naisui":"○","kazan":"×"}}
,{"type":"Feature","geometry":{"type":"Point","coordinates":[139.602,35.745]},"properties":{"Name":"男女共同参画センター えーる","Jusho":"東京都練馬区石神井町8-1-10","kouzui":"○","gake":"×","takashio":"×","jishin":"×","tsunami":"×","kaji":"×","naisui":"○","kazan":"×"}}
,{"type":"Feature","geometry":{"type":"Point","coordinates":[139.592,35.736]},"properties":{"Name":"石神井台みどり地域集会所","Jusho":"東京都練馬区石神井台2-13-6","kouzui":"○","gake":"×","takashio":"×","jishin":"×","tsunami":"×","kaji":"×","naisui":"○","kazan":"×"}}
,{"type":"Feature","geometry":{"type":"Point","coordinates":[139.59,35.736]},"properties":{"Name":"石神井台敬老館","Jusho":"東京都練馬区石神井台2-18-13","kouzui":"○","gake":"×","takashio":"×","jishin":"×","tsunami":"×","kaji":"×","naisui":"○","kazan":"×"}}
,{"type":"Feature","geometry":{"type":"Point","coordinates":[139.586,35.732]},"properties":{"Name":"石神井台地域集会所","Jusho":"東京都練馬区石神井台4-5-14","kouzui":"○","gake":"×","takashio":"×","jishin":"×","tsunami":"×","kaji":"×","naisui":"○","kazan":"×"}}
,{"type":"Feature","geometry":{"type":"Point","coordinates":[139.592,35.725]},"properties":{"Name":"上石神井南地域集会所","Jusho":"東京都練馬区上石神井1-6-16","kouzui":"○","gake":"×","takashio":"×","jishin":"×","tsunami":"×","kaji":"×","naisui":"○","kazan":"×"}}
,{"type":"Feature","geometry":{"type":"Point","coordinates":[139.592,35.729]},"properties":{"Name":"上石神井北地域集会所","Jusho":"東京都練馬区上石神井2-36-18","kouzui":"○","gake":"×","takashio":"×","jishin":"×","tsunami":"×","kaji":"×","naisui":"○","kazan":"×"}}
,{"type":"Feature","geometry":{"type":"Point","coordinates":[139.604,35.734]},"properties":{"Name":"下石神井地区区民館","Jusho":"東京都練馬区下石神井6-8-15","kouzui":"○","gake":"×","takashio":"×","jishin":"×","tsunami":"×","kaji":"×","naisui":"○","kazan":"×"}}
,{"type":"Feature","geometry":{"type":"Point","coordinates":[139.587,35.752]},"properties":{"Name":"東大泉中央地域集会所","Jusho":"東京都練馬区東大泉3-18-9","kouzui":"○","gake":"×","takashio":"×","jishin":"×","tsunami":"×","kaji":"×","naisui":"○","kazan":"×"}}
,{"type":"Feature","geometry":{"type":"Point","coordinates":[139.588,35.756]},"properties":{"Name":"東大泉地区区民館","Jusho":"東京都練馬区東大泉3-53-1","kouzui":"○","gake":"×","takashio":"×","jishin":"×","tsunami":"×","kaji":"×","naisui":"○","kazan":"×"}}
,{"type":"Feature","geometry":{"type":"Point","coordinates":[139.587,35.748]},"properties":{"Name":"勤労福祉会館","Jusho":"東京都練馬区東大泉5-40-36","kouzui":"○","gake":"×","takashio":"×","jishin":"×","tsunami":"×","kaji":"×","naisui":"○","kazan":"×"}}
,{"type":"Feature","geometry":{"type":"Point","coordinates":[139.577,35.742]},"properties":{"Name":"東大泉敬老館","Jusho":"東京都練馬区東大泉7-20-1","kouzui":"○","gake":"×","takashio":"×","jishin":"×","tsunami":"×","kaji":"×","naisui":"○","kazan":"×"}}
,{"type":"Feature","geometry":{"type":"Point","coordinates":[139.58,35.743]},"properties":{"Name":"東大泉地域集会所","Jusho":"東京都練馬区東大泉7-27-51","kouzui":"○","gake":"×","takashio":"×","jishin":"×","tsunami":"×","kaji":"×","naisui":"○","kazan":"×"}}
,{"type":"Feature","geometry":{"type":"Point","coordinates":[139.579,35.76]},"properties":{"Name":"西大泉敬老館","Jusho":"東京都練馬区西大泉3-21-16","kouzui":"○","gake":"×","takashio":"×","jishin":"×","tsunami":"×","kaji":"×","naisui":"○","kazan":"×"}}
,{"type":"Feature","geometry":{"type":"Point","coordinates":[139.572,35.76]},"properties":{"Name":"西大泉地区区民館","Jusho":"東京都練馬区西大泉5-3-32","kouzui":"○","gake":"×","takashio":"×","jishin":"×","tsunami":"×","kaji":"×","naisui":"○","kazan":"×"}}
,{"type":"Feature","geometry":{"type":"Point","coordinates":[139.57,35.739]},"properties":{"Name":"南大泉地区区民館","Jusho":"東京都練馬区南大泉2-19-26","kouzui":"○","gake":"×","takashio":"×","jishin":"×","tsunami":"×","kaji":"×","naisui":"○","kazan":"×"}}
,{"type":"Feature","geometry":{"type":"Point","coordinates":[139.574,35.751]},"properties":{"Name":"南大泉地域集会所","Jusho":"東京都練馬区南大泉5-26-19","kouzui":"○","gake":"×","takashio":"×","jishin":"×","tsunami":"×","kaji":"×","naisui":"○","kazan":"×"}}
,{"type":"Feature","geometry":{"type":"Point","coordinates":[139.588,35.766]},"properties":{"Name":"大泉北地域集会所","Jusho":"東京都練馬区大泉学園町4-21-1","kouzui":"○","gake":"×","takashio":"×","jishin":"×","tsunami":"×","kaji":"×","naisui":"○","kazan":"×"}}
,{"type":"Feature","geometry":{"type":"Point","coordinates":[139.583,35.771]},"properties":{"Name":"大泉学園町地域集会所","Jusho":"東京都練馬区大泉学園町6-20-36","kouzui":"○","gake":"×","takashio":"×","jishin":"×","tsunami":"×","kaji":"×","naisui":"○","kazan":"×"}}
,{"type":"Feature","geometry":{"type":"Point","coordinates":[139.593,35.773]},"properties":{"Name":"大泉学園地区区民館","Jusho":"東京都練馬区大泉学園町8-9-5","kouzui":"○","gake":"×","takashio":"×","jishin":"×","tsunami":"×","kaji":"×","naisui":"○","kazan":"×"}}
,{"type":"Feature","geometry":{"type":"Point","coordinates":[139.604,35.765]},"properties":{"Name":"北大泉地区区民館","Jusho":"東京都練馬区大泉町2-41-26","kouzui":"○","gake":"×","takashio":"×","jishin":"×","tsunami":"×","kaji":"×","naisui":"○","kazan":"×"}}
,{"type":"Feature","geometry":{"type":"Point","coordinates":[139.596,35.764]},"properties":{"Name":"大泉町地域集会所","Jusho":"東京都練馬区大泉町4-35-17","kouzui":"○","gake":"×","takashio":"×","jishin":"×","tsunami":"×","kaji":"×","naisui":"○","kazan":"×"}}
,{"type":"Feature","geometry":{"type":"Point","coordinates":[139.578,35.725]},"properties":{"Name":"関区民センター","Jusho":"東京都練馬区関町北1-7-2","kouzui":"○","gake":"○","takashio":"×","jishin":"×","tsunami":"×","kaji":"×","naisui":"○","kazan":"×"}}
,{"type":"Feature","geometry":{"type":"Point","coordinates":[139.577,35.73]},"properties":{"Name":"関町北地区区民館","Jusho":"東京都練馬区関町北4-12-21","kouzui":"○","gake":"×","takashio":"×","jishin":"×","tsunami":"×","kaji":"×","naisui":"○","kazan":"×"}}
,{"type":"Feature","geometry":{"type":"Point","coordinates":[139.568,35.721]},"properties":{"Name":"関町地域集会所","Jusho":"東京都練馬区関町南4-22-1","kouzui":"○","gake":"×","takashio":"×","jishin":"×","tsunami":"×","kaji":"×","naisui":"○","kazan":"×"}}
,{"type":"Feature","geometry":{"type":"Point","coordinates":[139.582,35.719]},"properties":{"Name":"立野地区区民館","Jusho":"東京都練馬区立野町15-42","kouzui":"○","gake":"×","takashio":"×","jishin":"×","tsunami":"×","kaji":"×","naisui":"○","kazan":"×"}}
,{"type":"Feature","geometry":{"type":"Point","coordinates":[139.65,35.733]},"properties":{"Name":"豊玉地域集会所","Jusho":"東京都練馬区豊玉中4-13-6","kouzui":"○","gake":"×","takashio":"×","jishin":"×","tsunami":"×","kaji":"×","naisui":"○","kazan":"×"}}
,{"type":"Feature","geometry":{"type":"Point","coordinates":[139.869,35.787]},"properties":{"Name":"水元公園・江戸川緑地一帯","Jusho":"東京都葛飾区東金町 水元公園","kouzui":"×","gake":"×","takashio":"×","jishin":"○","tsunami":"×","kaji":"○","naisui":"×","kazan":"×"}}
,{"type":"Feature","geometry":{"type":"Point","coordinates":[139.863,35.771]},"properties":{"Name":"東京理科大学一帯","Jusho":"東京都葛飾区南水元 新宿","kouzui":"×","gake":"×","takashio":"×","jishin":"○","tsunami":"×","kaji":"○","naisui":"×","kazan":"×"}}
,{"type":"Feature","geometry":{"type":"Point","coordinates":[139.881,35.761]},"properties":{"Name":"柴又野球場・ 江戸川緑地一帯","Jusho":"東京都葛飾区金町浄水場 柴又","kouzui":"×","gake":"×","takashio":"×","jishin":"○","tsunami":"×","kaji":"○","naisui":"×","kazan":"×"}}
,{"type":"Feature","geometry":{"type":"Point","coordinates":[139.873,35.749]},"properties":{"Name":"都営高砂団地一帯","Jusho":"東京都葛飾区鎌倉 高砂","kouzui":"×","gake":"×","takashio":"×","jishin":"○","tsunami":"×","kaji":"○","naisui":"×","kazan":"×"}}
,{"type":"Feature","geometry":{"type":"Point","coordinates":[139.862,35.737]},"properties":{"Name":"奥戸運動場","Jusho":"東京都葛飾区奥戸 高砂","kouzui":"×","gake":"×","takashio":"×","jishin":"○","tsunami":"×","kaji":"○","naisui":"×","kazan":"×"}}
,{"type":"Feature","geometry":{"type":"Point","coordinates":[139.831,35.732]},"properties":{"Name":"新四ツ木橋地区東岸","Jusho":"東京都葛飾区小菅 東四つ木 堀切 四つ木","kouzui":"×","gake":"×","takashio":"×","jishin":"○","tsunami":"×","kaji":"○","naisui":"×","kazan":"×"}}
,{"type":"Feature","geometry":{"type":"Point","coordinates":[139.854,35.715]},"properties":{"Name":"新小岩公園・平井大橋地区","Jusho":"東京都葛飾区西新小岩","kouzui":"×","gake":"×","takashio":"×","jishin":"○","tsunami":"×","kaji":"○","naisui":"×","kazan":"×"}}
,{"type":"Feature","geometry":{"type":"Point","coordinates":[139.842,35.758]},"properties":{"Name":"上千葉砂原公園一帯","Jusho":"東京都葛飾区西亀有","kouzui":"×","gake":"×","takashio":"×","jishin":"○","tsunami":"×","kaji":"○","naisui":"×","kazan":"×"}}
,{"type":"Feature","geometry":{"type":"Point","coordinates":[139.852,35.747]},"properties":{"Name":"区役所・青戸団地一帯","Jusho":"東京都葛飾区青戸 立石","kouzui":"×","gake":"×","takashio":"×","jishin":"○","tsunami":"×","kaji":"○","naisui":"×","kazan":"×"}}
,{"type":"Feature","geometry":{"type":"Point","coordinates":[139.282,35.685]},"properties":{"Name":"浅川河川敷","Jusho":"東京都八王子市（長沼橋付近～市立上壱分方小学校付近）","kouzui":"×","gake":"○","takashio":"×","jishin":"○","tsunami":"×","kaji":"×","naisui":"×","kazan":"×"}}
,{"type":"Feature","geometry":{"type":"Point","coordinates":[139.324,35.652]},"properties":{"Name":"富士森公園","Jusho":"東京都八王子市台町２−２","kouzui":"○","gake":"○","takashio":"×","jishin":"○","tsunami":"×","kaji":"×","naisui":"○","kazan":"×"}}
,{"type":"Feature","geometry":{"type":"Point","coordinates":[139.289,35.649]},"properties":{"Name":"陵南公園","Jusho":"東京都八王子市長房町、 東浅川町","kouzui":"×","gake":"○","takashio":"×","jishin":"○","tsunami":"×","kaji":"×","naisui":"×","kazan":"×"}}
,{"type":"Feature","geometry":{"type":"Point","coordinates":[139.34,35.672]},"properties":{"Name":"小宮公園","Jusho":"東京都八王子市大谷町、 暁町二丁目","kouzui":"○","gake":"○","takashio":"×","jishin":"○","tsunami":"×","kaji":"×","naisui":"○","kazan":"×"}}
,{"type":"Feature","geometry":{"type":"Point","coordinates":[139.314,35.682]},