var yamagata={"type":"FeatureCollection","name":"yamagata","features":[
{"type":"Feature","geometry":{"type":"Point","coordinates":[140.361,38.265]},"properties":{"Name":"鈴川コミュニティセンター","Jusho":"山形県山形市山家町2-4-48","kouzui":"○","gake":"○","takashio":"×","jishin":"○","tsunami":"×","kaji":"×","naisui":"×","kazan":"○"}}
,{"type":"Feature","geometry":{"type":"Point","coordinates":[140.344,38.287]},"properties":{"Name":"千歳コミュニティセンター","Jusho":"山形県山形市落合町1087-1","kouzui":"○","gake":"○","takashio":"×","jishin":"○","tsunami":"×","kaji":"×","naisui":"×","kazan":"○"}}
,{"type":"Feature","geometry":{"type":"Point","coordinates":[140.294,38.256]},"properties":{"Name":"飯塚コミュニティセンター","Jusho":"山形県山形市横道7","kouzui":"○","gake":"○","takashio":"×","jishin":"○","tsunami":"×","kaji":"×","naisui":"×","kazan":"○"}}
,{"type":"Feature","geometry":{"type":"Point","coordinates":[140.292,38.267]},"properties":{"Name":"椹沢コミュニティセンター","Jusho":"山形県山形市金石田8-2","kouzui":"×","gake":"○","takashio":"×","jishin":"○","tsunami":"×","kaji":"×","naisui":"×","kazan":"○"}}
,{"type":"Feature","geometry":{"type":"Point","coordinates":[140.339,38.311]},"properties":{"Name":"出羽コミュニティセンター","Jusho":"山形県山形市大字千手堂404-1","kouzui":"○","gake":"○","takashio":"×","jishin":"○","tsunami":"×","kaji":"×","naisui":"×","kazan":"○"}}
,{"type":"Feature","geometry":{"type":"Point","coordinates":[140.306,38.282]},"properties":{"Name":"金井コミュニティセンター","Jusho":"山形県山形市大字陣場903","kouzui":"○","gake":"○","takashio":"×","jishin":"○","tsunami":"×","kaji":"×","naisui":"×","kazan":"○"}}
,{"type":"Feature","geometry":{"type":"Point","coordinates":[140.369,38.3]},"properties":{"Name":"楯山コミュニティセンター","Jusho":"山形県山形市大字風間1181-1","kouzui":"○","gake":"○","takashio":"×","jishin":"○","tsunami":"×","kaji":"×","naisui":"×","kazan":"○"}}
,{"type":"Feature","geometry":{"type":"Point","coordinates":[140.34,38.221]},"properties":{"Name":"滝山コミュニティセンター","Jusho":"山形県山形市上桜田1-17-26","kouzui":"○","gake":"×","takashio":"×","jishin":"○","tsunami":"×","kaji":"×","naisui":"×","kazan":"○"}}
,{"type":"Feature","geometry":{"type":"Point","coordinates":[140.382,38.241]},"properties":{"Name":"東沢コミュニティセンター","Jusho":"山形県山形市大字妙見寺4","kouzui":"○","gake":"○","takashio":"×","jishin":"○","tsunami":"×","kaji":"×","naisui":"×","kazan":"○"}}
,{"type":"Feature","geometry":{"type":"Point","coordinates":[140.403,38.292]},"properties":{"Name":"高瀬コミュニティセンター","Jusho":"山形県山形市大字下東山1360","kouzui":"○","gake":"○","takashio":"×","jishin":"○","tsunami":"×","kaji":"×","naisui":"×","kazan":"○"}}
,{"type":"Feature","geometry":{"type":"Point","coordinates":[140.307,38.307]},"properties":{"Name":"大郷コミュニティセンター","Jusho":"山形県山形市大字中野543","kouzui":"×","gake":"○","takashio":"×","jishin":"○","tsunami":"×","kaji":"×","naisui":"×","kazan":"○"}}
,{"type":"Feature","geometry":{"type":"Point","coordinates":[140.3,38.236]},"properties":{"Name":"南沼原コミュニティセンター","Jusho":"山形県山形市南館西19-11","kouzui":"×","gake":"○","takashio":"×","jishin":"○","tsunami":"×","kaji":"×","naisui":"×","kazan":"○"}}
,{"type":"Feature","geometry":{"type":"Point","coordinates":[140.319,38.326]},"properties":{"Name":"明治コミュニティセンター","Jusho":"山形県山形市大字渋江979","kouzui":"○","gake":"○","takashio":"×","jishin":"○","tsunami":"×","kaji":"×","naisui":"×","kazan":"○"}}
,{"type":"Feature","geometry":{"type":"Point","coordinates":[140.306,38.2]},"properties":{"Name":"南山形コミュニティセンター","Jusho":"山形県山形市大字松原203-1","kouzui":"○","gake":"○","takashio":"×","jishin":"○","tsunami":"×","kaji":"×","naisui":"×","kazan":"×"}}
,{"type":"Feature","geometry":{"type":"Point","coordinates":[140.256,38.269]},"properties":{"Name":"大曽根コミュニティセンター","Jusho":"山形県山形市大字上反田811-2","kouzui":"○","gake":"○","takashio":"×","jishin":"○","tsunami":"×","kaji":"×","naisui":"×","kazan":"○"}}
,{"type":"Feature","geometry":{"type":"Point","coordinates":[140.425,38.312]},"properties":{"Name":"山寺コミュニティセンター","Jusho":"山形県山形市大字山寺517-1","kouzui":"○","gake":"×","takashio":"×","jishin":"○","tsunami":"×","kaji":"×","naisui":"×","kazan":"○"}}
,{"type":"Feature","geometry":{"type":"Point","coordinates":[140.319,38.193]},"properties":{"Name":"蔵王コミュニティセンター","Jusho":"山形県山形市蔵王半郷1028","kouzui":"○","gake":"×","takashio":"×","jishin":"○","tsunami":"×","kaji":"×","naisui":"×","kazan":"○"}}
,{"type":"Feature","geometry":{"type":"Point","coordinates":[140.27,38.236]},"properties":{"Name":"西山形コミュニティセンター","Jusho":"山形県山形市大字柏倉3800","kouzui":"○","gake":"○","takashio":"×","jishin":"×","tsunami":"×","kaji":"×","naisui":"×","kazan":"○"}}
,{"type":"Feature","geometry":{"type":"Point","coordinates":[140.266,38.251]},"properties":{"Name":"村木沢コミュニティセンター","Jusho":"山形県山形市大字村木沢1672-1","kouzui":"○","gake":"○","takashio":"×","jishin":"○","tsunami":"×","kaji":"×","naisui":"×","kazan":"○"}}
,{"type":"Feature","geometry":{"type":"Point","coordinates":[140.279,38.217]},"properties":{"Name":"本沢コミュニティセンター","Jusho":"山形県山形市大字長谷堂1070-1","kouzui":"○","gake":"○","takashio":"×","jishin":"○","tsunami":"×","kaji":"×","naisui":"×","kazan":"○"}}
,{"type":"Feature","geometry":{"type":"Point","coordinates":[140.352,38.249]},"properties":{"Name":"東部公民館及び福祉文化センター","Jusho":"山形県山形市小白川町二丁目3-47","kouzui":"○","gake":"○","takashio":"×","jishin":"○","tsunami":"×","kaji":"×","naisui":"×","kazan":"○"}}
,{"type":"Feature","geometry":{"type":"Point","coordinates":[140.321,38.241]},"properties":{"Name":"西部公民館","Jusho":"山形県山形市篭田1-2-23","kouzui":"○","gake":"○","takashio":"×","jishin":"○","tsunami":"×","kaji":"×","naisui":"×","kazan":"○"}}
,{"type":"Feature","geometry":{"type":"Point","coordinates":[140.341,38.24]},"properties":{"Name":"南部公民館","Jusho":"山形県山形市小荷駄町7-110","kouzui":"○","gake":"○","takashio":"×","jishin":"○","tsunami":"×","kaji":"×","naisui":"×","kazan":"○"}}
,{"type":"Feature","geometry":{"type":"Point","coordinates":[140.341,38.268]},"properties":{"Name":"北部公民館","Jusho":"山形県山形市宮町4-17-13","kouzui":"○","gake":"○","takashio":"×","jishin":"○","tsunami":"×","kaji":"×","naisui":"×","kazan":"○"}}
,{"type":"Feature","geometry":{"type":"Point","coordinates":[140.323,38.268]},"properties":{"Name":"江南公民館","Jusho":"山形県山形市江南1-1-27","kouzui":"○","gake":"○","takashio":"×","jishin":"○","tsunami":"×","kaji":"×","naisui":"×","kazan":"○"}}
,{"type":"Feature","geometry":{"type":"Point","coordinates":[140.322,38.254]},"properties":{"Name":"霞城公民館及び福祉文化センター","Jusho":"山形県山形市城西町2-2-15","kouzui":"○","gake":"○","takashio":"×","jishin":"○","tsunami":"×","kaji":"×","naisui":"×","kazan":"○"}}
,{"type":"Feature","geometry":{"type":"Point","coordinates":[140.319,38.223]},"properties":{"Name":"元木公民館","Jusho":"山形県山形市元木3-4-8","kouzui":"○","gake":"○","takashio":"×","jishin":"○","tsunami":"×","kaji":"×","naisui":"×","kazan":"○"}}
,{"type":"Feature","geometry":{"type":"Point","coordinates":[140.336,38.25]},"properties":{"Name":"第一小学校（体育館）","Jusho":"山形県山形市本町1-5-24","kouzui":"○","gake":"○","takashio":"×","jishin":"○","tsunami":"×","kaji":"×","naisui":"×","kazan":"○"}}
,{"type":"Feature","geometry":{"type":"Point","coordinates":[140.335,38.25]},"properties":{"Name":"第一小学校（グラウンド）","Jusho":"山形県山形市本町1-5-24","kouzui":"×","gake":"×","takashio":"×","jishin":"○","tsunami":"×","kaji":"×","naisui":"×","kazan":"×"}}
,{"type":"Feature","geometry":{"type":"Point","coordinates":[140.331,38.245]},"properties":{"Name":"第二小学校（体育館）","Jusho":"山形県山形市香澄町3-9-38","kouzui":"○","gake":"○","takashio":"×","jishin":"○","tsunami":"×","kaji":"×","naisui":"×","kazan":"○"}}
,{"type":"Feature","geometry":{"type":"Point","coordinates":[140.33,38.245]},"properties":{"Name":"第二小学校（グラウンド）","Jusho":"山形県山形市香澄町3-9-38","kouzui":"×","gake":"×","takashio":"×","jishin":"○","tsunami":"×","kaji":"×","naisui":"×","kazan":"×"}}
,{"type":"Feature","geometry":{"type":"Point","coordinates":[140.339,38.263]},"properties":{"Name":"第三小学校（体育館）","Jusho":"山形県山形市宮町5-7-58","kouzui":"○","gake":"○","takashio":"×","jishin":"○","tsunami":"×","kaji":"×","naisui":"×","kazan":"○"}}
,{"type":"Feature","geometry":{"type":"Point","coordinates":[140.338,38.263]},"properties":{"Name":"第三小学校（グラウンド）","Jusho":"山形県山形市宮町5-7-58","kouzui":"×","gake":"×","takashio":"×","jishin":"○","tsunami":"×","kaji":"×","naisui":"×","kazan":"×"}}
,{"type":"Feature","geometry":{"type":"Point","coordinates":[140.337,38.258]},"properties":{"Name":"第四小学校（体育館）","Jusho":"山形県山形市相生町4-37","kouzui":"○","gake":"○","takashio":"×","jishin":"○","tsunami":"×","kaji":"×","naisui":"×","kazan":"○"}}
,{"type":"Feature","geometry":{"type":"Point","coordinates":[140.337,38.258]},"properties":{"Name":"第四小学校（グラウンド）","Jusho":"山形県山形市相生町4-37","kouzui":"×","gake":"×","takashio":"×","jishin":"○","tsunami":"×","kaji":"×","naisui":"×","kazan":"×"}}
,{"type":"Feature","geometry":{"type":"Point","coordinates":[140.345,38.248]},"properties":{"Name":"第五小学校（体育館）","Jusho":"山形県山形市東原町1-1-9","kouzui":"○","gake":"○","takashio":"×","jishin":"○","tsunami":"×","kaji":"×","naisui":"×","kazan":"○"}}
,{"type":"Feature","geometry":{"type":"Point","coordinates":[140.345,38.247]},"properties":{"Name":"第五小学校（グラウンド）","Jusho":"山形県山形市東原町1-1-9","kouzui":"×","gake":"×","takashio":"×","jishin":"○","tsunami":"×","kaji":"×","naisui":"×","kazan":"×"}}
,{"type":"Feature","geometry":{"type":"Point","coordinates":[140.333,38.238]},"properties":{"Name":"第六小学校（体育館）","Jusho":"山形県山形市鉄砲町2-9-55","kouzui":"○","gake":"○","takashio":"×","jishin":"○","tsunami":"×","kaji":"×","naisui":"×","kazan":"○"}}
,{"type":"Feature","geometry":{"type":"Point","coordinates":[140.333,38.238]},"properties":{"Name":"第六小学校（グラウンド）","Jusho":"山形県山形市鉄砲町2-9-55","kouzui":"×","gake":"×","takashio":"×","jishin":"○","tsunami":"×","kaji":"×","naisui":"×","kazan":"×"}}
,{"type":"Feature","geometry":{"type":"Point","coordinates":[140.327,38.26]},"properties":{"Name":"第七小学校（体育館）","Jusho":"山形県山形市城北町2-9-37","kouzui":"○","gake":"○","takashio":"×","jishin":"○","tsunami":"×","kaji":"×","naisui":"×","kazan":"○"}}
,{"type":"Feature","geometry":{"type":"Point","coordinates":[140.328,38.261]},"properties":{"Name":"第七小学校（グラウンド）","Jusho":"山形県山形市城北町2-9-37","kouzui":"×","gake":"×","takashio":"×","jishin":"○","tsunami":"×","kaji":"×","naisui":"×","kazan":"×"}}
,{"type":"Feature","geometry":{"type":"Point","coordinates":[140.354,38.249]},"properties":{"Name":"第八小学校（体育館）","Jusho":"山形県山形市小白川町2-8-36","kouzui":"○","gake":"○","takashio":"×","jishin":"○","tsunami":"×","kaji":"×","naisui":"×","kazan":"○"}}
,{"type":"Feature","geometry":{"type":"Point","coordinates":[140.354,38.249]},"properties":{"Name":"第八小学校（グラウンド）","Jusho":"山形県山形市小白川町2-8-36","kouzui":"×","gake":"×","takashio":"×","jishin":"○","tsunami":"×","kaji":"×","naisui":"×","kazan":"×"}}
,{"type":"Feature","geometry":{"type":"Point","coordinates":[140.33,38.28]},"properties":{"Name":"第九小学校（体育館）","Jusho":"山形県山形市馬見ヶ崎2-5-1","kouzui":"○","gake":"○","takashio":"×","jishin":"○","tsunami":"×","kaji":"×","naisui":"×","kazan":"○"}}
,{"type":"Feature","geometry":{"type":"Point","coordinates":[140.33,38.28]},"properties":{"Name":"第九小学校（グラウンド）","Jusho":"山形県山形市馬見ヶ崎2-5-1","kouzui":"×","gake":"×","takashio":"×","jishin":"○","tsunami":"×","kaji":"×","naisui":"×","kazan":"×"}}
,{"type":"Feature","geometry":{"type":"Point","coordinates":[140.309,38.256]},"properties":{"Name":"第十小学校（体育館）","Jusho":"山形県山形市やよい2-6-1","kouzui":"○","gake":"○","takashio":"×","jishin":"○","tsunami":"×","kaji":"×","naisui":"×","kazan":"○"}}
,{"type":"Feature","geometry":{"type":"Point","coordinates":[140.309,38.256]},"properties":{"Name":"第十小学校（グラウンド）","Jusho":"山形県山形市やよい2-6-1","kouzui":"×","gake":"×","takashio":"×","jishin":"○","tsunami":"×","kaji":"×","naisui":"×","kazan":"×"}}
,{"type":"Feature","geometry":{"type":"Point","coordinates":[140.332,38.226]},"properties":{"Name":"南小学校（体育館）","Jusho":"山形県山形市青田2-1-1","kouzui":"○","gake":"○","takashio":"×","jishin":"○","tsunami":"×","kaji":"×","naisui":"×","kazan":"○"}}
,{"type":"Feature","geometry":{"type":"Point","coordinates":[140.332,38.225]},"properties":{"Name":"南小学校（グラウンド）","Jusho":"山形県山形市青田2-1-1","kouzui":"×","gake":"×","takashio":"×","jishin":"○","tsunami":"×","kaji":"×","naisui":"×","kazan":"×"}}
,{"type":"Feature","geometry":{"type":"Point","coordinates":[140.316,38.266]},"properties":{"Name":"西小学校（体育館）","Jusho":"山形県山形市西田3-2-1","kouzui":"○","gake":"○","takashio":"×","jishin":"○","tsunami":"×","kaji":"×","naisui":"×","kazan":"○"}}
,{"type":"Feature","geometry":{"type":"Point","coordinates":[140.316,38.266]},"properties":{"Name":"西小学校（グラウンド）","Jusho":"山形県山形市西田3-2-1","kouzui":"×","gake":"×","takashio":"×","jishin":"○","tsunami":"×","kaji":"×","naisui":"×","kazan":"×"}}
,{"type":"Feature","geometry":{"type":"Point","coordinates":[140.345,38.273]},"properties":{"Name":"東小学校（体育館）","Jusho":"山形県山形市泉町19-31","kouzui":"○","gake":"○","takashio":"×","jishin":"○","tsunami":"×","kaji":"×","naisui":"×","kazan":"○"}}
,{"type":"Feature","geometry":{"type":"Point","coordinates":[140.346,38.273]},"properties":{"Name":"東小学校（グラウンド）","Jusho":"山形県山形市泉町19-31","kouzui":"×","gake":"×","takashio":"×","jishin":"○","tsunami":"×","kaji":"×","naisui":"×","kazan":"×"}}
,{"type":"Feature","geometry":{"type":"Point","coordinates":[140.358,38.268]},"properties":{"Name":"鈴川小学校（体育館）","Jusho":"山形県山形市鈴川町3-7-10","kouzui":"○","gake":"○","takashio":"×","jishin":"○","tsunami":"×","kaji":"×","naisui":"×","kazan":"○"}}
,{"type":"Feature","geometry":{"type":"Point","coordinates":[140.358,38.268]},"properties":{"Name":"鈴川小学校（グラウンド）","Jusho":"山形県山形市鈴川町3-7-10","kouzui":"×","gake":"×","takashio":"×","jishin":"○","tsunami":"×","kaji":"×","naisui":"×","kazan":"×"}}
,{"type":"Feature","geometry":{"type":"Point","coordinates":[140.345,38.285]},"properties":{"Name":"千歳小学校（体育館）","Jusho":"山形県山形市落合町1359","kouzui":"○","gake":"○","takashio":"×","jishin":"○","tsunami":"×","kaji":"×","naisui":"×","kazan":"○"}}
,{"type":"Feature","geometry":{"type":"Point","coordinates":[140.345,38.285]},"properties":{"Name":"千歳小学校（グラウンド）","Jusho":"山形県山形市落合町1359","kouzui":"×","gake":"×","takashio":"×","jishin":"○","tsunami":"×","kaji":"×","naisui":"×","kazan":"×"}}
,{"type":"Feature","geometry":{"type":"Point","coordinates":[140.301,38.279]},"properties":{"Name":"金井小学校（体育館）","Jusho":"山形県山形市陣場3-7-60","kouzui":"○","gake":"○","takashio":"×","jishin":"○","tsunami":"×","kaji":"×","naisui":"×","kazan":"○"}}
,{"type":"Feature","geometry":{"type":"Point","coordinates":[140.302,38.278]},"properties":{"Name":"金井小学校（グラウンド）","Jusho":"山形県山形市陣場3-7-60","kouzui":"×","gake":"×","takashio":"×","jishin":"○","tsunami":"×","kaji":"×","naisui":"×","kazan":"×"}}
,{"type":"Feature","geometry":{"type":"Point","coordinates":[140.304,38.306]},"properties":{"Name":"大郷小学校（体育館）","Jusho":"山形県山形市大字中野506","kouzui":"×","gake":"○","takashio":"×","jishin":"○","tsunami":"×","kaji":"×","naisui":"×","kazan":"○"}}
,{"type":"Feature","geometry":{"type":"Point","coordinates":[140.304,38.306]},"properties":{"Name":"大郷小学校（グラウンド）","Jusho":"山形県山形市大字中野506","kouzui":"×","gake":"×","takashio":"×","jishin":"○","tsunami":"×","kaji":"×","naisui":"×","kazan":"×"}}
,{"type":"Feature","geometry":{"type":"Point","coordinates":[140.321,38.331]},"properties":{"Name":"明治小学校（体育館）","Jusho":"山形県山形市大字灰塚454","kouzui":"○","gake":"○","takashio":"×","jishin":"○","tsunami":"×","kaji":"×","naisui":"×","kazan":"○"}}
,{"type":"Feature","geometry":{"type":"Point","coordinates":[140.321,38.33]},"properties":{"Name":"明治小学校（グラウンド）","Jusho":"山形県山形市大字灰塚454","kouzui":"×","gake":"×","takashio":"×","jishin":"○","tsunami":"×","kaji":"×","naisui":"×","kazan":"×"}}
,{"type":"Feature","geometry":{"type":"Point","coordinates":[140.341,38.312]},"properties":{"Name":"出羽小学校（体育館）","Jusho":"山形県山形市大字漆山3169","kouzui":"○","gake":"○","takashio":"×","jishin":"○","tsunami":"×","kaji":"×","naisui":"×","kazan":"○"}}
,{"type":"Feature","geometry":{"type":"Point","coordinates":[140.341,38.312]},"properties":{"Name":"出羽小学校（グラウンド）","Jusho":"山形県山形市大字漆山3169","kouzui":"×","gake":"×","takashio":"×","jishin":"○","tsunami":"×","kaji":"×","naisui":"×","kazan":"×"}}
,{"type":"Feature","geometry":{"type":"Point","coordinates":[140.367,38.302]},"properties":{"Name":"楯山小学校（体育館）","Jusho":"山形県山形市大字青柳字一本木64","kouzui":"○","gake":"○","takashio":"×","jishin":"○","tsunami":"×","kaji":"×","naisui":"×","kazan":"○"}}
,{"type":"Feature","geometry":{"type":"Point","coordinates":[140.366,38.302]},"properties":{"Name":"楯山小学校（グラウンド）","Jusho":"山形県山形市大字青柳字一本木64","kouzui":"×","gake":"×","takashio":"×","jishin":"○","tsunami":"×","kaji":"×","naisui":"×","kazan":"×"}}
,{"type":"Feature","geometry":{"type":"Point","coordinates":[140.401,38.296]},"properties":{"Name":"高瀬小学校（体育館）","Jusho":"山形県山形市大字下東山1264","kouzui":"○","gake":"○","takashio":"×","jishin":"○","tsunami":"×","kaji":"×","naisui":"×","kazan":"○"}}
,{"type":"Feature","geometry":{"type":"Point","coordinates":[140.401,38.295]},"properties":{"Name":"高瀬小学校（グラウンド）","Jusho":"山形県山形市大字下東山1264","kouzui":"×","gake":"×","takashio":"×","jishin":"○","tsunami":"×","kaji":"×","naisui":"×","kazan":"×"}}
,{"type":"Feature","geometry":{"type":"Point","coordinates":[140.427,38.31]},"properties":{"Name":"山寺小学校・中学校（体育館）","Jusho":"山形県山形市大字山寺1650","kouzui":"○","gake":"×","takashio":"×","jishin":"○","tsunami":"×","kaji":"×","naisui":"×","kazan":"○"}}
,{"type":"Feature","geometry":{"type":"Point","coordinates":[140.426,38.309]},"properties":{"Name":"山寺小学校・中学校（グラウンド）","Jusho":"山形県山形市大字山寺1650","kouzui":"×","gake":"×","takashio":"×","jishin":"○","tsunami":"×","kaji":"×","naisui":"×","kazan":"×"}}
,{"type":"Feature","geometry":{"type":"Point","coordinates":[140.395,38.24]},"properties":{"Name":"東沢小学校（体育館）","Jusho":"山形県山形市防原町4-15","kouzui":"○","gake":"○","takashio":"×","jishin":"○","tsunami":"×","kaji":"×","naisui":"×","kazan":"○"}}
,{"type":"Feature","geometry":{"type":"Point","coordinates":[140.396,38.239]},"properties":{"Name":"東沢小学校（グラウンド）","Jusho":"山形県山形市防原町4-15","kouzui":"×","gake":"×","takashio":"×","jishin":"○","tsunami":"×","kaji":"×","naisui":"×","kazan":"×"}}
,{"type":"Feature","geometry":{"type":"Point","coordinates":[140.345,38.227]},"properties":{"Name":"滝山小学校（体育館）","Jusho":"山形県山形市小立4-13-86","kouzui":"○","gake":"×","takashio":"×","jishin":"○","tsunami":"×","kaji":"×","naisui":"×","kazan":"○"}}
,{"type":"Feature","geometry":{"type":"Point","coordinates":[140.347,38.227]},"properties":{"Name":"滝山小学校（グラウンド）","Jusho":"山形県山形市小立4-13-86","kouzui":"×","gake":"×","takashio":"×","jishin":"○","tsunami":"×","kaji":"×","naisui":"×","kazan":"×"}}
,{"type":"Feature","geometry":{"type":"Point","coordinates":[140.321,38.222]},"properties":{"Name":"桜田小学校（体育館）","Jusho":"山形県山形市桜田東1-1-30","kouzui":"○","gake":"○","takashio":"×","jishin":"○","tsunami":"×","kaji":"×","naisui":"×","kazan":"○"}}
,{"type":"Feature","geometry":{"type":"Point","coordinates":[140.321,38.222]},"properties":{"Name":"桜田小学校（グラウンド）","Jusho":"山形県山形市桜田東1-1-30","kouzui":"×","gake":"×","takashio":"×","jishin":"○","tsunami":"×","kaji":"×","naisui":"×","kazan":"×"}}
,{"type":"Feature","geometry":{"type":"Point","coordinates":[140.305,38.237]},"properties":{"Name":"南沼原小学校（体育館）","Jusho":"山形県山形市富の中1-1-4","kouzui":"○","gake":"○","takashio":"×","jishin":"○","tsunami":"×","kaji":"×","naisui":"×","kazan":"○"}}
,{"type":"Feature","geometry":{"type":"Point","coordinates":[140.305,38.238]},"properties":{"Name":"南沼原小学校（グラウンド）","Jusho":"山形県山形市富の中1-1-4","kouzui":"×","gake":"×","takashio":"×","jishin":"○","tsunami":"×","kaji":"×","naisui":"×","kazan":"×"}}
,{"type":"Feature","geometry":{"type":"Point","coordinates":[140.297,38.26]},"properties":{"Name":"宮浦小学校（体育館）","Jusho":"山形県山形市宮浦17-3","kouzui":"○","gake":"○","takashio":"×","jishin":"○","tsunami":"×","kaji":"×","naisui":"×","kazan":"○"}}
,{"type":"Feature","geometry":{"type":"Point","coordinates":[140.296,38.26]},"properties":{"Name":"宮浦小学校（グラウンド）","Jusho":"山形県山形市宮浦17-3","kouzui":"×","gake":"×","takashio":"×","jishin":"○","tsunami":"×","kaji":"×","naisui":"×","kazan":"×"}}
,{"type":"Feature","geometry":{"type":"Point","coordinates":[140.318,38.207]},"properties":{"Name":"蔵王第一小学校（体育館）","Jusho":"山形県山形市成沢西4-3-17","kouzui":"○","gake":"○","takashio":"×","jishin":"○","tsunami":"×","kaji":"×","naisui":"×","kazan":"○"}}
,{"type":"Feature","geometry":{"type":"Point","coordinates":[140.318,38.207]},"properties":{"Name":"蔵王第一小学校（グラウンド）","Jusho":"山形県山形市成沢西4-3-17","kouzui":"×","gake":"×","takashio":"×","jishin":"○","tsunami":"×","kaji":"×","naisui":"×","kazan":"×"}}
,{"type":"Feature","geometry":{"type":"Point","coordinates":[140.319,38.178]},"properties":{"Name":"蔵王第二小学校（体育館）","Jusho":"山形県山形市蔵王上野字南坂2116","kouzui":"○","gake":"○","takashio":"×","jishin":"○","tsunami":"×","kaji":"×","naisui":"×","kazan":"○"}}
,{"type":"Feature","geometry":{"type":"Point","coordinates":[140.318,38.177]},"properties":{"Name":"蔵王第二小学校（グラウンド）","Jusho":"山形県山形市蔵王上野字南坂2116","kouzui":"×","gake":"×","takashio":"×","jishin":"○","tsunami":"×","kaji":"×","naisui":"×","kazan":"×"}}
,{"type":"Feature","geometry":{"type":"Point","coordinates":[140.392,38.17]},"properties":{"Name":"蔵王第三小学校・蔵王第二中学校（体育館）","Jusho":"山形県山形市蔵王温泉字丈二田727","kouzui":"○","gake":"○","takashio":"×","jishin":"○","tsunami":"×","kaji":"×","naisui":"×","kazan":"○"}}
,{"type":"Feature","geometry":{"type":"Point","coordinates":[140.393,38.17]},"properties":{"Name":"蔵王第三小学校・蔵王第二中学校（グラウンド）","Jusho":"山形県山形市蔵王温泉字丈二田727","kouzui":"×","gake":"×","takashio":"×","jishin":"○","tsunami":"×","kaji":"×","naisui":"×","kazan":"×"}}
,{"type":"Feature","geometry":{"type":"Point","coordinates":[140.308,38.201]},"properties":{"Name":"南山形小学校（体育館）","Jusho":"山形県山形市大字松原字東河原188","kouzui":"○","gake":"○","takashio":"×","jishin":"○","tsunami":"×","kaji":"×","naisui":"×","kazan":"×"}}
,{"type":"Feature","geometry":{"type":"Point","coordinates":[140.307,38.201]},"properties":{"Name":"南山形小学校（グラウンド）","Jusho":"山形県山形市大字松原字東河原188","kouzui":"×","gake":"×","takashio":"×","jishin":"○","tsunami":"×","kaji":"×","naisui":"×","kazan":"×"}}
,{"type":"Feature","geometry":{"type":"Point","coordinates":[140.287,38.188]},"properties":{"Name":"みはらしの丘小学校（体育館）","Jusho":"山形県山形市大字松原1791-23","kouzui":"○","gake":"○","takashio":"×","jishin":"○","tsunami":"×","kaji":"×","naisui":"×","kazan":"○"}}
,{"type":"Feature","geometry":{"type":"Point","coordinates":[140.288,38.189]},"properties":{"Name":"みはらしの丘小学校（グラウンド）","Jusho":"山形県山形市大字松原1791-23","kouzui":"×","gake":"×","takashio":"×","jishin":"○","tsunami":"×","kaji":"×","naisui":"×","kazan":"×"}}
,{"type":"Feature","geometry":{"type":"Point","coordinates":[140.28,38.216]},"properties":{"Name":"本沢小学校（体育館）","Jusho":"山形県山形市大字長谷堂1111-1","kouzui":"○","gake":"○","takashio":"×","jishin":"○","tsunami":"×","kaji":"×","naisui":"×","kazan":"○"}}
,{"type":"Feature","geometry":{"type":"Point","coordinates":[140.28,38.217]},"properties":{"Name":"本沢小学校（グラウンド）","Jusho":"山形県山形市大字長谷堂1111-1","kouzui":"×","gake":"×","takashio":"×","jishin":"○","tsunami":"×","kaji":"×","naisui":"×","kazan":"×"}}
,{"type":"Feature","geometry":{"type":"Point","coordinates":[140.266,38.236]},"properties":{"Name":"西山形小学校（体育館）","Jusho":"山形県山形市大字柏倉888","kouzui":"○","gake":"○","takashio":"×","jishin":"○","tsunami":"×","kaji":"×","naisui":"×","kazan":"○"}}
,{"type":"Feature","geometry":{"type":"Point","coordinates":[140.267,38.235]},"properties":{"Name":"西山形小学校（グラウンド）","Jusho":"山形県山形市大字柏倉888","kouzui":"×","gake":"×","takashio":"×","jishin":"○","tsunami":"×","kaji":"×","naisui":"×","kazan":"×"}}
,{"type":"Feature","geometry":{"type":"Point","coordinates":[140.262,38.253]},"properties":{"Name":"村木沢小学校（体育館）","Jusho":"山形県山形市大字村木沢6046","kouzui":"○","gake":"○","takashio":"×","jishin":"○","tsunami":"×","kaji":"×","naisui":"×","kazan":"○"}}
,{"type":"Feature","geometry":{"type":"Point","coordinates":[140.261,38.252]},"properties":{"Name":"村木沢小学校（グラウンド）","Jusho":"山形県山形市大字村木沢6046","kouzui":"×","gake":"×","takashio":"×","jishin":"○","tsunami":"×","kaji":"×","naisui":"×","kazan":"×"}}
,{"type":"Feature","geometry":{"type":"Point","coordinates":[140.257,38.27]},"properties":{"Name":"大曽根小学校（体育館）","Jusho":"山形県山形市大字上反田278","kouzui":"○","gake":"○","takashio":"×","jishin":"○","tsunami":"×","kaji":"×","naisui":"×","kazan":"○"}}
,{"type":"Feature","geometry":{"type":"Point","coordinates":[140.257,38.269]},"properties":{"Name":"大曽根小学校（グラウンド）","Jusho":"山形県山形市大字上反田278","kouzui":"×","gake":"×","takashio":"×","jishin":"○","tsunami":"×","kaji":"×","naisui":"×","kazan":"×"}}
,{"type":"Feature","geometry":{"type":"Point","coordinates":[140.367,38.241]},"properties":{"Name":"第一中学校（体育館）","Jusho":"山形県山形市松波3-1-15","kouzui":"○","gake":"○","takashio":"×","jishin":"○","tsunami":"×","kaji":"×","naisui":"×","kazan":"○"}}
,{"type":"Feature","geometry":{"type":"Point","coordinates":[140.366,38.242]},"properties":{"Name":"第一中学校（グラウンド）","Jusho":"山形県山形市松波3-1-15","kouzui":"×","gake":"×","takashio":"×","jishin":"○","tsunami":"×","kaji":"×","naisui":"×","kazan":"×"}}
,{"type":"Feature","geometry":{"type":"Point","coordinates":[140.308,38.262]},"properties":{"Name":"第二中学校（体育館）","Jusho":"山形県山形市西崎62","kouzui":"○","gake":"○","takashio":"×","jishin":"○","tsunami":"×","kaji":"×","naisui":"×","kazan":"○"}}
,{"type":"Feature","geometry":{"type":"Point","coordinates":[140.309,38.262]},"properties":{"Name":"第二中学校（グラウンド）","Jusho":"山形県山形市西崎62","kouzui":"×","gake":"×","takashio":"×","jishin":"○","tsunami":"×","kaji":"×","naisui":"×","kazan":"×"}}
,{"type":"Feature","geometry":{"type":"Point","coordinates":[140.322,38.249]},"properties":{"Name":"第三中学校（体育館）","Jusho":"山形県山形市双葉町2-1-10","kouzui":"○","gake":"○","takashio":"×","jishin":"○","tsunami":"×","kaji":"×","naisui":"×","kazan":"○"}}
,{"type":"Feature","geometry":{"type":"Point","coordinates":[140.322,38.25]},"properties":{"Name":"第三中学校（グラウンド）","Jusho":"山形県山形市双葉町2-1-10","kouzui":"×","gake":"×","takashio":"×","jishin":"○","tsunami":"×","kaji":"×","naisui":"×","kazan":"×"}}
,{"type":"Feature","geometry":{"type":"Point","coordinates":[140.35,38.274]},"properties":{"Name":"第四中学校（体育館）","Jusho":"山形県山形市花楯2-10-48","kouzui":"○","gake":"○","takashio":"×","jishin":"○","tsunami":"×","kaji":"×","naisui":"×","kazan":"○"}}
,{"type":"Feature","geometry":{"type":"Point","coordinates":[140.35,38.274]},"properties":{"Name":"第四中学校（グラウンド）","Jusho":"山形県山形市花楯2-10-48","kouzui":"×","gake":"×","takashio":"×","jishin":"○","tsunami":"×","kaji":"×","naisui":"×","kazan":"×"}}
,{"type":"Feature","geometry":{"type":"Point","coordinates":[140.343,38.263]},"properties":{"Name":"第五中学校（体育館）","Jusho":"山形県山形市薬師町1-14-10","kouzui":"○","gake":"○","takashio":"×","jishin":"○","tsunami":"×","kaji":"×","naisui":"×","kazan":"○"}}
,{"type":"Feature","geometry":{"type":"Point","coordinates":[140.343,38.263]},"properties":{"Name":"第五中学校（グラウンド）","Jusho":"山形県山形市薬師町1-14-10","kouzui":"×","gake":"×","takashio":"×","jishin":"○","tsunami":"×","kaji":"×","naisui":"×","kazan":"×"}}
,{"type":"Feature","geometry":{"type":"Point","coordinates":[140.34,38.236]},"properties":{"Name":"第六中学校（体育館）","Jusho":"山形県山形市南原町2-3-55","kouzui":"○","gake":"○","takashio":"×","jishin":"○","tsunami":"×","kaji":"×","naisui":"×","kazan":"○"}}
,{"type":"Feature","geometry":{"type":"Point","coordinates":[140.341,38.236]},"properties":{"Name":"第六中学校（グラウンド）","Jusho":"山形県山形市南原町2-3-55","kouzui":"×","gake":"×","takashio":"×","jishin":"○","tsunami":"×","kaji":"×","naisui":"×","kazan":"×"}}
,{"type":"Feature","geometry":{"type":"Point","coordinates":[140.327,38.31]},"properties":{"Name":"第七中学校（体育館）","Jusho":"山形県山形市天神町2520","kouzui":"×","gake":"○","takashio":"×","jishin":"○","tsunami":"×","kaji":"×","naisui":"×","kazan":"○"}}
,{"type":"Feature","geometry":{"type":"Point","coordinates":[140.327,38.31]},"properties":{"Name":"第七中学校（グラウンド）","Jusho":"山形県山形市天神町2520","kouzui":"×","gake":"×","takashio":"×","jishin":"○","tsunami":"×","kaji":"×","naisui":"×","kazan":"×"}}
,{"type":"Feature","geometry":{"type":"Point","coordinates":[140.267,38.25]},"properties":{"Name":"第八中学校（体育館）","Jusho":"山形県山形市大字村木沢字河原田1620-2","kouzui":"○","gake":"○","takashio":"×","jishin":"○","tsunami":"×","kaji":"×","naisui":"×","kazan":"○"}}
,{"type":"Feature","geometry":{"type":"Point","coordinates":[140.268,38.249]},"properties":{"Name":"第八中学校（グラウンド）","Jusho":"山形県山形市大字村木沢字河原田1620-2","kouzui":"×","gake":"×","takashio":"×","jishin":"○","tsunami":"×","kaji":"×","naisui":"×","kazan":"×"}}
,{"type":"Feature","geometry":{"type":"Point","coordinates":[140.298,38.21]},"properties":{"Name":"第九中学校（体育館）","Jusho":"山形県山形市大字津金沢字中谷地657","kouzui":"○","gake":"○","takashio":"×","jishin":"○","tsunami":"×","kaji":"×","naisui":"×","kazan":"○"}}
,{"type":"Feature","geometry":{"type":"Point","coordinates":[140.297,38.209]},"properties":{"Name":"第九中学校（グラウンド）","Jusho":"山形県山形市大字津金沢字中谷地657","kouzui":"×","gake":"×","takashio":"×","jishin":"○","tsunami":"×","kaji":"×","naisui":"×","kazan":"×"}}
,{"type":"Feature","geometry":{"type":"Point","coordinates":[140.309,38.227]},"properties":{"Name":"第十中学校（体育館）","Jusho":"山形県山形市若宮1-10-12","kouzui":"○","gake":"○","takashio":"×","jishin":"○","tsunami":"×","kaji":"×","naisui":"×","kazan":"○"}}
,{"type":"Feature","geometry":{"type":"Point","coordinates":[140.31,38.228]},"properties":{"Name":"第十中学校（グラウンド）","Jusho":"山形県山形市若宮1-10-12","kouzui":"×","gake":"×","takashio":"×","jishin":"○","tsunami":"×","kaji":"×","naisui":"×","kazan":"×"}}
,{"type":"Feature","geometry":{"type":"Point","coordinates":[140.304,38.28]},"properties":{"Name":"金井中学校（体育館）","Jusho":"山形県山形市陣場3-12-25","kouzui":"○","gake":"○","takashio":"×","jishin":"○","tsunami":"×","kaji":"×","naisui":"×","kazan":"○"}}
,{"type":"Feature","geometry":{"type":"Point","coordinates":[140.303,38.28]},"properties":{"Name":"金井中学校（グラウンド）","Jusho":"山形県山形市陣場3-12-25","kouzui":"×","gake":"×","takashio":"×","jishin":"○","tsunami":"×","kaji":"×","naisui":"×","kazan":"×"}}
,{"type":"Feature","geometry":{"type":"Point","coordinates":[140.382,38.303]},"properties":{"Name":"高楯中学校（体育館）","Jusho":"山形県山形市大字中里38","kouzui":"○","gake":"○","takashio":"×","jishin":"○","tsunami":"×","kaji":"×","naisui":"×","kazan":"○"}}
,{"type":"Feature","geometry":{"type":"Point","coordinates":[140.381,38.303]},"properties":{"Name":"高楯中学校（グラウンド）","Jusho":"山形県山形市大字中里38","kouzui":"×","gake":"×","takashio":"×","jishin":"○","tsunami":"×","kaji":"×","naisui":"×","kazan":"×"}}
,{"type":"Feature","geometry":{"type":"Point","coordinates":[140.316,38.196]},"properties":{"Name":"蔵王第一中学校（体育館）","Jusho":"山形県山形市蔵王南成沢34","kouzui":"○","gake":"○","takashio":"×","jishin":"○","tsunami":"×","kaji":"×","naisui":"×","kazan":"○"}}
,{"type":"Feature","geometry":{"type":"Point","coordinates":[140.317,38.197]},"properties":{"Name":"蔵王第一中学校（グラウンド）","Jusho":"山形県山形市蔵王南成沢34","kouzui":"×","gake":"×","takashio":"×","jishin":"○","tsunami":"×","kaji":"×","naisui":"×","kazan":"×"}}
,{"type":"Feature","geometry":{"type":"Point","coordinates":[140.311,38.251]},"properties":{"Name":"商業高等学校（体育館）","Jusho":"山形県山形市あかねケ丘1-9-1","kouzui":"○","gake":"○","takashio":"×","jishin":"×","tsunami":"×","kaji":"×","naisui":"×","kazan":"○"}}
,{"type":"Feature","geometry":{"type":"Point","coordinates":[140.312,38.25]},"properties":{"Name":"商業高等学校（グラウンド）","Jusho":"山形県山形市あかねケ丘1-9-1","kouzui":"×","gake":"×","takashio":"×","jishin":"○","tsunami":"×","kaji":"×","naisui":"×","kazan":"×"}}
,{"type":"Feature","geometry":{"type":"Point","coordinates":[140.232,38.236]},"properties":{"Name":"元双葉小学校（体育館）","Jusho":"山形県山形市大字門伝字荻の窪2836","kouzui":"○","gake":"○","takashio":"×","jishin":"○","tsunami":"×","kaji":"×","naisui":"×","kazan":"○"}}
,{"type":"Feature","geometry":{"type":"Point","coordinates":[140.232,38.235]},"properties":{"Name":"元双葉小学校（グラウンド）","Jusho":"山形県山形市大字門伝字荻の窪2836","kouzui":"×","gake":"×","takashio":"×","jishin":"○","tsunami":"×","kaji":"×","naisui":"×","kazan":"×"}}
,{"type":"Feature","geometry":{"type":"Point","coordinates":[140.341,38.241]},"properties":{"Name":"南部体育館","Jusho":"山形県山形市小荷駄町7-110","kouzui":"○","gake":"○","takashio":"×","jishin":"○","tsunami":"×","kaji":"×","naisui":"×","kazan":"○"}}
,{"type":"Feature","geometry":{"type":"Point","coordinates":[140.395,38.17]},"properties":{"Name":"蔵王体育館","Jusho":"山形県山形市蔵王温泉字上の台103","kouzui":"○","gake":"○","takashio":"×","jishin":"×","tsunami":"×","kaji":"×","naisui":"×","kazan":"○"}}
,{"type":"Feature","geometry":{"type":"Point","coordinates":[140.323,38.268]},"properties":{"Name":"江南体育館","Jusho":"山形県山形市江南1-1-27","kouzui":"○","gake":"○","takashio":"×","jishin":"○","tsunami":"×","kaji":"×","naisui":"×","kazan":"○"}}
,{"type":"Feature","geometry":{"type":"Point","coordinates":[140.352,38.25]},"properties":{"Name":"福祉体育館","Jusho":"山形県山形市小白川町2-3-33","kouzui":"○","gake":"○","takashio":"×","jishin":"○","tsunami":"×","kaji":"×","naisui":"×","kazan":"○"}}
,{"type":"Feature","geometry":{"type":"Point","coordinates":[140.347,38.258]},"properties":{"Name":"山形東高等学校（体育館）","Jusho":"山形県山形市緑町1-5-87","kouzui":"○","gake":"○","takashio":"×","jishin":"○","tsunami":"×","kaji":"×","naisui":"×","kazan":"○"}}
,{"type":"Feature","geometry":{"type":"Point","coordinates":[140.346,38.258]},"properties":{"Name":"山形東高等学校（グラウンド）","Jusho":"山形県山形市緑町1-5-87","kouzui":"×","gake":"×","takashio":"×","jishin":"○","tsunami":"×","kaji":"×","naisui":"×","kazan":"×"}}
,{"type":"Feature","geometry":{"type":"Point","coordinates":[140.328,38.238]},"properties":{"Name":"山形西高等学校（体育館）","Jusho":"山形県山形市鉄砲町1-15-64","kouzui":"○","gake":"○","takashio":"×","jishin":"○","tsunami":"×","kaji":"×","naisui":"×","kazan":"○"}}
,{"type":"Feature","geometry":{"type":"Point","coordinates":[140.328,38.237]},"properties":{"Name":"山形西高等学校（グラウンド）","Jusho":"山形県山形市鉄砲町1-15-64","kouzui":"×","gake":"×","takashio":"×","jishin":"○","tsunami":"×","kaji":"×","naisui":"×","kazan":"×"}}
,{"type":"Feature","geometry":{"type":"Point","coordinates":[140.347,38.241]},"properties":{"Name":"山形南高等学校（体育館）","Jusho":"山形県山形市東原町4-6-16","kouzui":"○","gake":"○","takashio":"×","jishin":"○","tsunami":"×","kaji":"×","naisui":"×","kazan":"○"}}
,{"type":"Feature","geometry":{"type":"Point","coordinates":[140.348,38.242]},"properties":{"Name":"山形南高等学校（グラウンド）","Jusho":"山形県山形市東原町4-6-16","kouzui":"×","gake":"×","takashio":"×","jishin":"○","tsunami":"×","kaji":"×","naisui":"×","kazan":"×"}}
,{"type":"Feature","geometry":{"type":"Point","coordinates":[140.349,38.255]},"properties":{"Name":"山形北高等学校（体育館）","Jusho":"山形県山形市緑町2-2-7","kouzui":"○","gake":"○","takashio":"×","jishin":"○","tsunami":"×","kaji":"×","naisui":"×","kazan":"○"}}
,{"type":"Feature","geometry":{"type":"Point","coordinates":[140.35,38.254]},"properties":{"Name":"山形北高等学校（グラウンド）","Jusho":"山形県山形市緑町2-2-7","kouzui":"×","gake":"×","takashio":"×","jishin":"○","tsunami":"×","kaji":"×","naisui":"×","kazan":"×"}}
,{"type":"Feature","geometry":{"type":"Point","coordinates":[140.335,38.238]},"properties":{"Name":"山形中央高等学校（体育館）","Jusho":"山形県山形市鉄砲町2-10-73","kouzui":"○","gake":"○","takashio":"×","jishin":"○","tsunami":"×","kaji":"×","naisui":"×","kazan":"○"}}
,{"type":"Feature","geometry":{"type":"Point","coordinates":[140.335,38.237]},"properties":{"Name":"山形中央高等学校（グラウンド）","Jusho":"山形県山形市鉄砲町2-10-73","kouzui":"×","gake":"×","takashio":"×","jishin":"○","tsunami":"×","kaji":"×","naisui":"×","kazan":"×"}}
,{"type":"Feature","geometry":{"type":"Point","coordinates":[140.349,38.246]},"properties":{"Name":"山形大学（体育館）","Jusho":"山形県山形市小白川町1-4-12","kouzui":"○","gake":"○","takashio":"×","jishin":"○","tsunami":"×","kaji":"×","naisui":"×","kazan":"○"}}
,{"type":"Feature","geometry":{"type":"Point","coordinates":[140.35,38.245]},"properties":{"Name":"山形大学（グラウンド）","Jusho":"山形県山形市小白川町1-4-12","kouzui":"×","gake":"×","takashio":"×","jishin":"○","tsunami":"×","kaji":"×","naisui":"×","kazan":"×"}}
,{"type":"Feature","geometry":{"type":"Point","coordinates":[140.359,38.241]},"properties":{"Name":"山形大学附属小学校（体育館）","Jusho":"山形県山形市松波2-7-2","kouzui":"○","gake":"○","takashio":"×","jishin":"○","tsunami":"×","kaji":"×","naisui":"×","kazan":"○"}}
,{"type":"Feature","geometry":{"type":"Point","coordinates":[140.36,38.24]},"properties":{"Name":"山形大学附属小学校（グラウンド）","Jusho":"山形県山形市松波2-7-2","kouzui":"×","gake":"×","takashio":"×","jishin":"○","tsunami":"×","kaji":"×","naisui":"×","kazan":"×"}}
,{"type":"Feature","geometry":{"type":"Point","coordinates":[140.36,38.24]},"properties":{"Name":"山形大学附属中学校（体育館）","Jusho":"山形県山形市松波2-7-3","kouzui":"○","gake":"○","takashio":"×","jishin":"○","tsunami":"×","kaji":"×","naisui":"×","kazan":"○"}}
,{"type":"Feature","geometry":{"type":"Point","coordinates":[140.361,38.24]},"properties":{"Name":"山形大学附属中学校（グラウンド）","Jusho":"山形県山形市松波2-7-3","kouzui":"×","gake":"×","takashio":"×","jishin":"○","tsunami":"×","kaji":"×","naisui":"×","kazan":"×"}}
,{"type":"Feature","geometry":{"type":"Point","coordinates":[140.333,38.245]},"properties":{"Name":"第二公園","Jusho":"山形県山形市十日町4-6741-1","kouzui":"×","gake":"×","takashio":"×","jishin":"○","tsunami":"×","kaji":"×","naisui":"×","kazan":"×"}}
,{"type":"Feature","geometry":{"type":"Point","coordinates":[140.347,38.262]},"properties":{"Name":"薬師公園","Jusho":"山形県山形市薬師町2-616","kouzui":"×","gake":"×","takashio":"×","jishin":"○","tsunami":"×","kaji":"×","naisui":"×","kazan":"×"}}
,{"type":"Feature","geometry":{"type":"Point","coordinates":[140.348,38.261]},"properties":{"Name":"馬畔公園","Jusho":"山形県山形市薬師町2-3348","kouzui":"×","gake":"×","takashio":"×","jishin":"○","tsunami":"×","kaji":"×","naisui":"×","kazan":"×"}}
,{"type":"Feature","geometry":{"type":"Point","coordinates":[140.338,38.271]},"properties":{"Name":"両所宮公園","Jusho":"山形県山形市宮町3-8-2","kouzui":"×","gake":"×","takashio":"×","jishin":"○","tsunami":"×","kaji":"×","naisui":"×","kazan":"×"}}
,{"type":"Feature","geometry":{"type":"Point","coordinates":[140.335,38.265]},"properties":{"Name":"宮町公園","Jusho":"山形県山形市宮町1-3034","kouzui":"×","gake":"×","takashio":"×","jishin":"○","tsunami":"×","kaji":"×","naisui":"×","kazan":"×"}}
,{"type":"Feature","geometry":{"type":"Point","coordinates":[140.345,38.246]},"properties":{"Name":"もみじ公園","Jusho":"山形県山形市東原町2-240-35","kouzui":"×","gake":"×","takashio":"×","jishin":"○","tsunami":"×","kaji":"×","naisui":"×","kazan":"×"}}
,{"type":"Feature","geometry":{"type":"Point","coordinates":[140.328,38.255]},"properties":{"Name":"霞城公園","Jusho":"山形県山形市霞城町3","kouzui":"×","gake":"×","takashio":"×","jishin":"○","tsunami":"×","kaji":"○","naisui":"×","kazan":"×"}}
,{"type":"Feature","geometry":{"type":"Point","coordinates":[140.364,38.245]},"properties":{"Name":"あけぼの公園","Jusho":"山形県山形市小白川町5-10-1","kouzui":"×","gake":"×","takashio":"×","jishin":"○","tsunami":"×","kaji":"×","naisui":"×","kazan":"×"}}
,{"type":"Feature","geometry":{"type":"Point","coordinates":[140.352,38.252]},"properties":{"Name":"緑町公園","Jusho":"山形県山形市緑町4-16-2","kouzui":"×","gake":"×","takashio":"×","jishin":"○","tsunami":"×","kaji":"×","naisui":"×","kazan":"×"}}
,{"type":"Feature","geometry":{"type":"Point","coordinates":[140.353,38.246]},"properties":{"Name":"あこや公園","Jusho":"山形県山形市小白川町1-7-1","kouzui":"×","gake":"×","takashio":"×","jishin":"○","tsunami":"×","kaji":"×","naisui":"×","kazan":"×"}}
,{"type":"Feature","geometry":{"type":"Point","coordinates":[140.344,38.275]},"properties":{"Name":"いずみ公園","Jusho":"山形県山形市泉町9-7","kouzui":"×","gake":"×","takashio":"×","jishin":"○","tsunami":"×","kaji":"×","naisui":"×","kazan":"×"}}
,{"type":"Feature","geometry":{"type":"Point","coordinates":[140.346,38.271]},"properties":{"Name":"いずみひばり公園","Jusho":"山形県山形市泉町24-5","kouzui":"×","gake":"×","takashio":"×","jishin":"○","tsunami":"×","kaji":"×","naisui":"×","kazan":"×"}}
,{"type":"Feature","geometry":{"type":"Point","coordinates":[140.341,38.295]},"properties":{"Name":"長町熊野公園","Jusho":"山形県山形市長町3-13-3","kouzui":"×","gake":"×","takashio":"×","jishin":"○","tsunami":"×","kaji":"×","naisui":"×","kazan":"×"}}
,{"type":"Feature","geometry":{"type":"Point","coordinates":[140.328,38.269]},"properties":{"Name":"天狗橋公園","Jusho":"山形県山形市北町2-13","kouzui":"×","gake":"×","takashio":"×","jishin":"○","tsunami":"×","kaji":"×","naisui":"×","kazan":"×"}}
,{"type":"Feature","geometry":{"type":"Point","coordinates":[140.332,38.268]},"properties":{"Name":"北町公園","Jusho":"山形県山形市北町1-23","kouzui":"×","gake":"×","takashio":"×","jishin":"○","tsunami":"×","kaji":"×","naisui":"×","kazan":"×"}}
,{"type":"Feature","geometry":{"type":"Point","coordinates":[140.332,38.272]},"properties":{"Name":"柳橋公園","Jusho":"山形県山形市北町4-1-2","kouzui":"×","gake":"×","takashio":"×","jishin":"○","tsunami":"×","kaji":"×","naisui":"×","kazan":"×"}}
,{"type":"Feature","geometry":{"type":"Point","coordinates":[140.327,38.273]},"properties":{"Name":"西柳公園","Jusho":"山形県山形市北町3-10-12","kouzui":"×","gake":"×","takashio":"×","jishin":"○","tsunami":"×","kaji":"×","naisui":"×","kazan":"×"}}
,{"type":"Feature","geometry":{"type":"Point","coordinates":[140.329,38.268]},"properties":{"Name":"皆川公園","Jusho":"山形県山形市北山形2-6-1","kouzui":"×","gake":"×","takashio":"×","jishin":"○","tsunami":"×","kaji":"×","naisui":"×","kazan":"×"}}
,{"type":"Feature","geometry":{"type":"Point","coordinates":[140.328,38.268]},"properties":{"Name":"安堵橋公園","Jusho":"山形県山形市北町2-8","kouzui":"×","gake":"×","takashio":"×","jishin":"○","tsunami":"×","kaji":"×","naisui":"×","kazan":"×"}}
,{"type":"Feature","geometry":{"type":"Point","coordinates":[140.341,38.271]},"properties":{"Name":"新銅町公園","Jusho":"山形県山形市銅町2-10-8","kouzui":"×","gake":"×","takashio":"×","jishin":"○","tsunami":"×","kaji":"×","naisui":"×","kazan":"×"}}
,{"type":"Feature","geometry":{"type":"Point","coordinates":[140.356,38.245]},"properties":{"Name":"こだま公園","Jusho":"山形県山形市小白川町4-28-1","kouzui":"×","gake":"×","takashio":"×","jishin":"○","tsunami":"×","kaji":"×","naisui":"×","kazan":"×"}}
,{"type":"Feature","geometry":{"type":"Point","coordinates":[140.355,38.244]},"properties":{"Name":"小白川南公園","Jusho":"山形市小白川町4-25-1","kouzui":"×","gake":"×","takashio":"×","jishin":"○","tsunami":"×","kaji":"×","naisui":"×","kazan":"×"}}
,{"type":"Feature","geometry":{"type":"Point","coordinates":[140.318,38.245]},"properties":{"Name":"上町公園","Jusho":"山形県山形市上町2-4-3","kouzui":"×","gake":"×","takashio":"×","jishin":"○","tsunami":"×","kaji":"×","naisui":"×","kazan":"×"}}
,{"type":"Feature","geometry":{"type":"Point","coordinates":[140.319,38.254]},"properties":{"Name":"白鳩公園","Jusho":"山形県山形市春日町63-1","kouzui":"×","gake":"×","takashio":"×","jishin":"○","tsunami":"×","kaji":"×","naisui":"×","kazan":"×"}}
,{"type":"Feature","geometry":{"type":"Point","coordinates":[140.354,38.265]},"properties":{"Name":"神明公園","Jusho":"山形県山形市印役町2-873-6","kouzui":"×","gake":"×","takashio":"×","jishin":"○","tsunami":"×","kaji":"×","naisui":"×","kazan":"×"}}
,{"type":"Feature","geometry":{"type":"Point","coordinates":[140.323,38.245]},"properties":{"Name":"五日町公園","Jusho":"山形県山形市五日町18の18","kouzui":"×","gake":"×","takashio":"×","jishin":"○","tsunami":"×","kaji":"×","naisui":"×","kazan":"×"}}
,{"type":"Feature","geometry":{"type":"Point","coordinates":[140.321,38.247]},"properties":{"Name":"双葉公園","Jusho":"山形県山形市双葉町2-32-8","kouzui":"×","gake":"×","takashio":"×","jishin":"○","tsunami":"×","kaji":"×","naisui":"×","kazan":"×"}}
,{"type":"Feature","geometry":{"type":"Point","coordinates":[140.319,38.252]},"properties":{"Name":"春日公園","Jusho":"山形県山形市春日町47-11","kouzui":"×","gake":"×","takashio":"×","jishin":"○","tsunami":"×","kaji":"×","naisui":"×","kazan":"×"}}
,{"type":"Feature","geometry":{"type":"Point","coordinates":[140.323,38.265]},"properties":{"Name":"西部南公園","Jusho":"山形県山形市下条町2-6-1","kouzui":"×","gake":"×","takashio":"×","jishin":"○","tsunami":"×","kaji":"×","naisui":"×","kazan":"×"}}
,{"type":"Feature","geometry":{"type":"Point","coordinates":[140.342,38.273]},"properties":{"Name":"あかしや公園","Jusho":"山形県山形市銅町2-10-8","kouzui":"×","gake":"×","takashio":"×","jishin":"○","tsunami":"×","kaji":"×","naisui":"×","kazan":"×"}}
,{"type":"Feature","geometry":{"type":"Point","coordinates":[140.327,38.261]},"properties":{"Name":"みつばち公園","Jusho":"山形県山形市城北町2-480","kouzui":"×","gake":"×","takashio":"×","jishin":"○","tsunami":"×","kaji":"×","naisui":"×","kazan":"×"}}
,{"type":"Feature","geometry":{"type":"Point","coordinates":[140.35,38.24]},"properties":{"Name":"名取公園","Jusho":"山形県山形市あこや町1-14-1","kouzui":"×","gake":"×","takashio":"×","jishin":"○","tsunami":"×","kaji":"×","naisui":"×","kazan":"×"}}
,{"type":"Feature","geometry":{"type":"Point","coordinates":[140.369,38.246]},"properties":{"Name":"かじか公園","Jusho":"山形県山形市小白川町5-19-9","kouzui":"×","gake":"×","takashio":"×","jishin":"○","tsunami":"×","kaji":"×","naisui":"×","kazan":"×"}}
,{"type":"Feature","geometry":{"type":"Point","coordinates":[140.352,38.244]},"properties":{"Name":"千歳が丘公園","Jusho":"山形県山形市小白川町1-14-1","kouzui":"×","gake":"×","takashio":"×","jishin":"○","tsunami":"×","kaji":"×","naisui":"×","kazan":"×"}}
,{"type":"Feature","geometry":{"type":"Point","coordinates":[140.323,38.252]},"properties":{"Name":"城南公園","Jusho":"山形県山形市城南町3-151","kouzui":"×","gake":"×","takashio":"×","jishin":"○","tsunami":"×","kaji":"×","naisui":"×","kazan":"×"}}
,{"type":"Feature","geometry":{"type":"Point","coordinates":[140.356,38.248]},"properties":{"Name":"天満公園","Jusho":"山形県山形市小白川町3-3-26","kouzui":"×","gake":"×","takashio":"×","jishin":"○","tsunami":"×","kaji":"×","naisui":"×","kazan":"×"}}
,{"type":"Feature","geometry":{"type":"Point","coordinates":[140.327,38.232]},"properties":{"Name":"みなみ公園","Jusho":"山形県山形市南一番町8-1","kouzui":"×","gake":"×","takashio":"×","jishin":"○","tsunami":"×","kaji":"×","naisui":"×","kazan":"×"}}
,{"type":"Feature","geometry":{"type":"Point","coordinates":[140.321,38.268]},"properties":{"Name":"西部北公園","Jusho":"山形県山形市下条町3-17","kouzui":"×","gake":"×","takashio":"×","jishin":"○","tsunami":"×","kaji":"×","naisui":"×","kazan":"×"}}
,{"type":"Feature","geometry":{"type":"Point","coordinates":[140.349,38.27]},"properties":{"Name":"花楯公園","Jusho":"山形県山形市花楯1-219","kouzui":"×","gake":"×","takashio":"×","jishin":"○","tsunami":"×","kaji":"×","naisui":"×","kazan":"×"}}
,{"type":"Feature","geometry":{"type":"Point","coordinates":[140.325,38.239]},"properties":{"Name":"末広町公園","Jusho":"山形県山形市末広町5","kouzui":"×","gake":"×","takashio":"×","jishin":"○","tsunami":"×","kaji":"×","naisui":"×","kazan":"×"}}
,{"type":"Feature","geometry":{"type":"Point","coordinates":[140.356,38.243]},"properties":{"Name":"姫公園","Jusho":"山形県山形市あこや町3-39-7","kouzui":"×","gake":"×","takashio":"×","jishin":"○","tsunami":"×","kaji":"×","naisui":"×","kazan":"×"}}
,{"type":"Feature","geometry":{"type":"Point","coordinates":[140.354,38.24]},"properties":{"Name":"太郎公園","Jusho":"山形県山形市あこや町3-46-5","kouzui":"×","gake":"×","takashio":"×","jishin":"○","tsunami":"×","kaji":"×","naisui":"×","kazan":"×"}}
,{"type":"Feature","geometry":{"type":"Point","coordinates":[140.337,38.236]},"properties":{"Name":"寿町公園","Jusho":"山形県山形市寿町108-5","kouzui":"×","gake":"×","takashio":"×","jishin":"○","tsunami":"×","kaji":"×","naisui":"×","kazan":"×"}}
,{"type":"Feature","geometry":{"type":"Point","coordinates":[140.319,38.266]},"properties":{"Name":"行西公園","Jusho":"山形県山形市西田4-16-1","kouzui":"×","gake":"×","takashio":"×","jishin":"○","tsunami":"×","kaji":"×","naisui":"×","kazan":"×"}}
,{"type":"Feature","geometry":{"type":"Point","coordinates":[140.307,38.198]},"properties":{"Name":"南山形公園","Jusho":"山形県山形市南松原2-4-4","kouzui":"×","gake":"×","takashio":"×","jishin":"○","tsunami":"×","kaji":"×","naisui":"×","kazan":"×"}}
,{"type":"Feature","geometry":{"type":"Point","coordinates":[140.36,38.244]},"properties":{"Name":"十二柳公園","Jusho":"山形県山形市小白川町4-89","kouzui":"×","gake":"×","takashio":"×","jishin":"○","tsunami":"×","kaji":"×","naisui":"×","kazan":"×"}}
,{"type":"Feature","geometry":{"type":"Point","coordinates":[140.361,38.247]},"properties":{"Name":"小白川地蔵公園","Jusho":"山形県山形市小白川町3-9-1","kouzui":"×","gake":"×","takashio":"×","jishin":"○","tsunami":"×","kaji":"×","naisui":"×","kazan":"×"}}
,{"type":"Feature","geometry":{"type":"Point","coordinates":[140.339,38.284]},"properties":{"Name":"上河原公園","Jusho":"山形県山形市長町1-2311","kouzui":"×","gake":"×","takashio":"×","jishin":"○","tsunami":"×","kaji":"×","naisui":"×","kazan":"×"}}
,{"type":"Feature","geometry":{"type":"Point","coordinates":[140.333,38.269]},"properties":{"Name":"なかよし公園","Jusho":"山形県山形市宮町2-3038","kouzui":"×","gake":"×","takashio":"×","jishin":"○","tsunami":"×","kaji":"×","naisui":"×","kazan":"×"}}
,{"type":"Feature","geometry":{"type":"Point","coordinates":[140.33,38.249]},"properties":{"Name":"駅前公園","Jusho":"山形県山形市香澄町1-12-1","kouzui":"×","gake":"×","takashio":"×","jishin":"○","tsunami":"×","kaji":"×","naisui":"×","kazan":"×"}}
,{"type":"Feature","geometry":{"type":"Point","coordinates":[140.329,38.247]},"properties":{"Name":"かすみ公園","Jusho":"山形県山形市幸町4-1","kouzui":"×","gake":"×","takashio":"×","jishin":"○","tsunami":"×","kaji":"×","naisui":"×","kazan":"×"}}
,{"type":"Feature","geometry":{"type":"Point","coordinates":[140.32,38.269]},"properties":{"Name":"清水町公園","Jusho":"山形県山形市江南1-433","kouzui":"×","gake":"×","takashio":"×","jishin":"○","tsunami":"×","kaji":"×","naisui":"×","kazan":"×"}}
,{"type":"Feature","geometry":{"type":"Point","coordinates":[140.318,38.258]},"properties":{"Name":"蛍ヶ丘公園","Jusho":"山形県山形市城西町3-49","kouzui":"×","gake":"×","takashio":"×","jishin":"○","tsunami":"×","kaji":"×","naisui":"×","kazan":"×"}}
,{"type":"Feature","geometry":{"type":"Point","coordinates":[140.333,38.251]},"properties":{"Name":"さくら木公園","Jusho":"山形県山形市木の実町7-12","kouzui":"×","gake":"×","takashio":"×","jishin":"○","tsunami":"×","kaji":"×","naisui":"×","kazan":"×"}}
,{"type":"Feature","geometry":{"type":"Point","coordinates":[140.364,38.244]},"properties":{"Name":"おおはぐろ公園","Jusho":"山形県山形市あさひ町100-1","kouzui":"×","gake":"×","takashio":"×","jishin":"○","tsunami":"×","kaji":"×","naisui":"×","kazan":"×"}}
,{"type":"Feature","geometry":{"type":"Point","coordinates":[140.321,38.263]},"properties":{"Name":"つきやま公園","Jusho":"山形県山形市下条町2-40","kouzui":"×","gake":"×","takashio":"×","jishin":"○","tsunami":"×","kaji":"×","naisui":"×","kazan":"×"}}
,{"type":"Feature","geometry":{"type":"Point","coordinates":[140.339,38.281]},"properties":{"Name":"刈田公園","Jusho":"山形県山形市千歳1-2649","kouzui":"×","gake":"×","takashio":"×","jishin":"○","tsunami":"×","kaji":"×","naisui":"×","kazan":"×"}}
,{"type":"Feature","geometry":{"type":"Point","coordinates":[140.336,38.233]},"properties":{"Name":"荒楯中央公園","Jusho":"山形県山形市荒楯町1-6-1","kouzui":"×","gake":"×","takashio":"×","jishin":"○","tsunami":"×","kaji":"×","naisui":"×","kazan":"×"}}
,{"type":"Feature","geometry":{"type":"Point","coordinates":[140.311,38.248]},"properties":{"Name":"あかねヶ丘公園","Jusho":"山形県山形市あかねヶ丘1-14-1","kouzui":"×","gake":"×","takashio":"×","jishin":"○","tsunami":"×","kaji":"×","naisui":"×","kazan":"×"}}
,{"type":"Feature","geometry":{"type":"Point","coordinates":[140.36,38.292]},"properties":{"Name":"流通東公園","Jusho":"山形県山形市流通センター4-2-5","kouzui":"×","gake":"×","takashio":"×","jishin":"○","tsunami":"×","kaji":"×","naisui":"×","kazan":"×"}}
,{"type":"Feature","geometry":{"type":"Point","coordinates":[140.353,38.295]},"properties":{"Name":"流通西公園","Jusho":"山形県山形市下柳24","kouzui":"×","gake":"×","takashio":"×","jishin":"○","tsunami":"×","kaji":"×","naisui":"×","kazan":"×"}}
,{"type":"Feature","geometry":{"type":"Point","coordinates":[140.355,38.289]},"properties":{"Name":"流通南公園","Jusho":"山形県山形市流通センター2-2-1","kouzui":"×","gake":"×","takashio":"×","jishin":"○","tsunami":"×","kaji":"×","naisui":"×","kazan":"×"}}
,{"type":"Feature","geometry":{"type":"Point","coordinates":[140.285,38.234]},"properties":{"Name":"たかき公園","Jusho":"山形県山形市大字高木30","kouzui":"×","gake":"×","takashio":"×","jishin":"○","tsunami":"×","kaji":"×","naisui":"×","kazan":"×"}}
,{"type":"Feature","geometry":{"type":"Point","coordinates":[140.282,38.24]},"properties":{"Name":"とがみ西公園","Jusho":"山形県山形市富神台2","kouzui":"×","gake":"×","takashio":"×","jishin":"○","tsunami":"×","kaji":"×","naisui":"×","kazan":"×"}}
,{"type":"Feature","geometry":{"type":"Point","coordinates":[140.337,38.24]},"properties":{"Name":"つくし公園","Jusho":"山形県山形市あずま町23-2","kouzui":"×","gake":"×","takashio":"×","jishin":"○","tsunami":"×","kaji":"×","naisui":"×","kazan":"×"}}
,{"type":"Feature","geometry":{"type":"Point","coordinates":[140.336,38.219]},"properties":{"Name":"さくら公園","Jusho":"山形県山形市中桜田2-8-1","kouzui":"×","gake":"×","takashio":"×","jishin":"○","tsunami":"×","kaji":"×","naisui":"×","kazan":"×"}}
,{"type":"Feature","geometry":{"type":"Point","coordinates":[140.316,38.251]},"properties":{"Name":"久保田公園","Jusho":"山形県山形市久保田2-3-1","kouzui":"×","gake":"×","takashio":"×","jishin":"○","tsunami":"×","kaji":"×","naisui":"×","kazan":"×"}}
,{"type":"Feature","geometry":{"type":"Point","coordinates":[140.313,38.259]},"properties":{"Name":"砂塚公園","Jusho":"山形県山形市城西町5-49-1","kouzui":"×","gake":"×","takashio":"×","jishin":"○","tsunami":"×","kaji":"×","naisui":"×","kazan":"×"}}
,{"type":"Feature","geometry":{"type":"Point","coordinates":[140.364,38.238]},"properties":{"Name":"かもしか公園","Jusho":"山形県山形市松波4-4","kouzui":"×","gake":"×","takashio":"×","jishin":"○","tsunami":"×","kaji":"×","naisui":"×","kazan":"×"}}
,{"type":"Feature","geometry":{"type":"Point","coordinates":[140.319,38.268]},"properties":{"Name":"西田公園","Jusho":"山形県山形市西田4-26-1","kouzui":"×","gake":"×","takashio":"×","jishin":"○","tsunami":"×","kaji":"×","naisui":"×","kazan":"×"}}
,{"type":"Feature","geometry":{"type":"Point","coordinates":[140.318,38.238]},"properties":{"Name":"篭田中央公園","Jusho":"山形県山形市篭田3-4-1","kouzui":"×","gake":"×","takashio":"×","jishin":"○","tsunami":"×","kaji":"×","naisui":"×","kazan":"×"}}
,{"type":"Feature","geometry":{"type":"Point","coordinates":[140.332,38.233]},"properties":{"Name":"荒楯西公園","Jusho":"山形県山形市荒楯町1-16-1","kouzui":"×","gake":"×","takashio":"×","jishin":"○","tsunami":"×","kaji":"×","naisui":"×","kazan":"×"}}
,{"type":"Feature","geometry":{"type":"Point","coordinates":[140.343,38.233]},"properties":{"Name":"南原中央公園","Jusho":"山形県山形市南原町3-12","kouzui":"×","gake":"×","takashio":"×","jishin":"○","tsunami":"×","kaji":"×","naisui":"×","kazan":"×"}}
,{"type":"Feature","geometry":{"type":"Point","coordinates":[140.341,38.247]},"properties":{"Name":"小姓町公園","Jusho":"山形県山形市小姓町39-14","kouzui":"×","gake":"×","takashio":"×","jishin":"○","tsunami":"×","kaji":"×","naisui":"×","kazan":"×"}}
,{"type":"Feature","geometry":{"type":"Point","coordinates":[140.359,38.242]},"properties":{"Name":"松波公園","Jusho":"山形県山形市松波2-4-1","kouzui":"×","gake":"×","takashio":"×","jishin":"○","tsunami":"×","kaji":"×","naisui":"×","kazan":"×"}}
,{"type":"Feature","geometry":{"type":"Point","coordinates":[140.334,38.226]},"properties":{"Name":"若松公園","Jusho":"山形県山形市青田2-12","kouzui":"×","gake":"×","takashio":"×","jishin":"○","tsunami":"×","kaji":"×","naisui":"×","kazan":"×"}}
,{"type":"Feature","geometry":{"type":"Point","coordinates":[140.314,38.242]},"properties":{"Name":"上町南公園","Jusho":"山形県山形市上町5-3-1","kouzui":"×","gake":"×","takashio":"×","jishin":"○","tsunami":"×","kaji":"×","naisui":"×","kazan":"×"}}
,{"type":"Feature","geometry":{"type":"Point","coordinates":[140.322,38.23]},"properties":{"Name":"八丁路公園","Jusho":"山形県山形市南栄町3-11-1","kouzui":"×","gake":"×","takashio":"×","jishin":"○","tsunami":"×","kaji":"×","naisui":"×","kazan":"×"}}
,{"type":"Feature","geometry":{"type":"Point","coordinates":[140.342,38.24]},"properties":{"Name":"小荷駄町公園","Jusho":"山形県山形市小荷駄町10","kouzui":"×","gake":"×","takashio":"×","jishin":"○","tsunami":"×","kaji":"×","naisui":"×","kazan":"×"}}
,{"type":"Feature","geometry":{"type":"Point","coordinates":[140.281,38.266]},"properties":{"Name":"西原公園","Jusho":"山形県山形市西原2-4-1","kouzui":"×","gake":"×","takashio":"×","jishin":"○","tsunami":"×","kaji":"×","naisui":"×","kazan":"×"}}
,{"type":"Feature","geometry":{"type":"Point","coordinates":[140.327,38.22]},"properties":{"Name":"南ヶ丘公園","Jusho":"山形県山形市青田南133-95","kouzui":"×","gake":"×","takashio":"×","jishin":"○","tsunami":"×","kaji":"×","naisui":"×","kazan":"×"}}
,{"type":"Feature","geometry":{"type":"Point","coordinates":[140.314,38.207]},"properties":{"Name":"睦公園","Jusho":"山形県山形市蔵王成沢字久保田499-74","kouzui":"×","gake":"×","takashio":"×","jishin":"○","tsunami":"×","kaji":"×","naisui":"×","kazan":"×"}}
,{"type":"Feature","geometry":{"type":"Point","coordinates":[140.329,38.223]},"properties":{"Name":"迎田公園","Jusho":"山形県山形市青田4-14","kouzui":"×","gake":"×","takashio":"×","jishin":"○","tsunami":"×","kaji":"×","naisui":"×","kazan":"×"}}
,{"type":"Feature","geometry":{"type":"Point","coordinates":[140.315,38.246]},"properties":{"Name":"久保田花園公園","Jusho":"山形県山形市久保田3-9-1","kouzui":"×","gake":"×","takashio":"×","jishin":"○","tsunami":"×","kaji":"×","naisui":"×","kazan":"×"}}
,{"type":"Feature","geometry":{"type":"Point","coordinates":[140.321,38.24]},"properties":{"Name":"篭田東公園","Jusho":"山形県山形市篭田1-8-1","kouzui":"×","gake":"×","takashio":"×","jishin":"○","tsunami":"×","kaji":"×","naisui":"×","kazan":"×"}}
,{"type":"Feature","geometry":{"type":"Point","coordinates":[140.336,38.23]},"properties":{"Name":"鳥居ヶ丘公園","Jusho":"山形県山形市鳥居ヶ丘1255","kouzui":"×","gake":"×","takashio":"×","jishin":"○","tsunami":"×","kaji":"×","naisui":"×","kazan":"×"}}
,{"type":"Feature","geometry":{"type":"Point","coordinates":[140.32,38.261]},"properties":{"Name":"しらとり公園","Jusho":"山形県山形市城西町4-19","kouzui":"×","gake":"×","takashio":"×","jishin":"○","tsunami":"×","kaji":"×","naisui":"×","kazan":"×"}}
,{"type":"Feature","geometry":{"type":"Point","coordinates":[140.316,38.277]},"properties":{"Name":"江俣西公園","Jusho":"山形県山形市江俣4-11","kouzui":"×","gake":"×","takashio":"×","jishin":"○","tsunami":"×","kaji":"×","naisui":"×","kazan":"×"}}
,{"type":"Feature","geometry":{"type":"Point","coordinates":[140.337,38.293]},"properties":{"Name":"西浦公園","Jusho":"山形県山形市長町4-2532","kouzui":"×","gake":"×","takashio":"×","jishin":"○","tsunami":"×","kaji":"×","naisui":"×","kazan":"×"}}
,{"type":"Feature","geometry":{"type":"Point","coordinates":[140.309,38.242]},"properties":{"Name":"ひまわり公園","Jusho":"山形県山形市あかねヶ丘3-11-1","kouzui":"×","gake":"×","takashio":"×","jishin":"○","tsunami":"×","kaji":"×","naisui":"×","kazan":"×"}}
,{"type":"Feature","geometry":{"type":"Point","coordinates":[140.317,38.23]},"properties":{"Name":"吉原公園","Jusho":"山形県山形市吉原1-25","kouzui":"×","gake":"×","takashio":"×","jishin":"○","tsunami":"×","kaji":"×","naisui":"×","kazan":"×"}}
,{"type":"Feature","geometry":{"type":"Point","coordinates":[140.345,38.229]},"properties":{"Name":"戸神公園","Jusho":"山形県山形市小立3-5-1","kouzui":"×","gake":"×","takashio":"×","jishin":"○","tsunami":"×","kaji":"×","naisui":"×","kazan":"×"}}
,{"type":"Feature","geometry":{"type":"Point","coordinates":[140.284,38.257]},"properties":{"Name":"飯塚公園","Jusho":"山形県山形市飯塚町2006","kouzui":"×","gake":"×","takashio":"×","jishin":"○","tsunami":"×","kaji":"×","naisui":"×","kazan":"×"}}
,{"type":"Feature","geometry":{"type":"Point","coordinates":[140.339,38.233]},"properties":{"Name":"松見公園","Jusho":"山形県山形市松見町19-1","kouzui":"×","gake":"×","takashio":"×","jishin":"○","tsunami":"×","kaji":"×","naisui":"×","kazan":"×"}}
,{"type":"Feature","geometry":{"type":"Point","coordinates":[140.323,38.278]},"properties":{"Name":"江俣東公園","Jusho":"山形県山形市江俣2-8","kouzui":"×","gake":"×","takashio":"×","jishin":"○","tsunami":"×","kaji":"×","naisui":"×","kazan":"×"}}
,{"type":"Feature","geometry":{"type":"Point","coordinates":[140.34,38.224]},"properties":{"Name":"東青田公園","Jusho":"山形県山形市東青田2-12","kouzui":"×","gake":"×","takashio":"×","jishin":"○","tsunami":"×","kaji":"×","naisui":"×","kazan":"×"}}
,{"type":"Feature","geometry":{"type":"Point","coordinates":[140.325,38.226]},"properties":{"Name":"ひょうたん公園","Jusho":"山形県山形市元木1-6-1","kouzui":"×","gake":"×","takashio":"×","jishin":"○","tsunami":"×","kaji":"×","naisui":"×","kazan":"×"}}
,{"type":"Feature","geometry":{"type":"Point","coordinates":[140.343,38.267]},"properties":{"Name":"円応寺町公園","Jusho":"山形県山形市円応寺町16","kouzui":"×","gake":"×","takashio":"×","jishin":"○","tsunami":"×","kaji":"×","naisui":"×","kazan":"×"}}
,{"type":"Feature","geometry":{"type":"Point","coordinates":[140.311,38.252]},"properties":{"Name":"あかねヶ丘北公園","Jusho":"山形県山形市あかねヶ丘1-4-1","kouzui":"×","gake":"×","takashio":"×","jishin":"○","tsunami":"×","kaji":"×","naisui":"×","kazan":"×"}}
,{"type":"Feature","geometry":{"type":"Point","coordinates":[140.321,38.213]},"properties":{"Name":"飯田西の前公園","Jusho":"山形県山形市飯田4-1729","kouzui":"×","gake":"×","takashio":"×","jishin":"○","tsunami":"×","kaji":"×","naisui":"×","kazan":"×"}}
,{"type":"Feature","geometry":{"type":"Point","coordinates":[140.332,38.22]},"properties":{"Name":"大峯公園","Jusho":"山形県山形市中桜田1-5","kouzui":"×","gake":"×","takashio":"×","jishin":"○","tsunami":"×","kaji":"×","naisui":"×","kazan":"×"}}
,{"type":"Feature","geometry":{"type":"Point","coordinates":[140.314,38.27]},"properties":{"Name":"西田かえで公園","Jusho":"山形県山形市西田5-12-3","kouzui":"×","gake":"×","takashio":"×","jishin":"○","tsunami":"×","kaji":"×","naisui":"×","kazan":"×"}}
,{"type":"Feature","geometry":{"type":"Point","coordinates":[140.316,38.261]},"properties":{"Name":"あさひ公園","Jusho":"山形県山形市城西町5-49-2","kouzui":"×","gake":"×","takashio":"×","jishin":"○","tsunami":"×","kaji":"×","naisui":"×","kazan":"×"}}
,{"type":"Feature","geometry":{"type":"Point","coordinates":[140.343,38.324]},"properties":{"Name":"漆山さくら公園","Jusho":"山形県山形市大字漆山字下川原3388","kouzui":"×","gake":"×","takashio":"×","jishin":"○","tsunami":"×","kaji":"×","naisui":"×","kazan":"×"}}
,{"type":"Feature","geometry":{"type":"Point","coordinates":[140.32,38.242]},"properties":{"Name":"篭田北公園","Jusho":"山形県山形市上町1-12-1","kouzui":"×","gake":"×","takashio":"×","jishin":"○","tsunami":"×","kaji":"×","naisui":"×","kazan":"×"}}
,{"type":"Feature","geometry":{"type":"Point","coordinates":[140.34,38.229]},"properties":{"Name":"小立公園","Jusho":"山形県山形市小立1-5-1","kouzui":"×","gake":"×","takashio":"×","jishin":"○","tsunami":"×","kaji":"×","naisui":"×","kazan":"×"}}
,{"type":"Feature","geometry":{"type":"Point","coordinates":[140.373,38.24]},"properties":{"Name":"こまくさ公園","Jusho":"山形県山形市東山形2-5-1","kouzui":"×","gake":"×","takashio":"×","jishin":"○","tsunami":"×","kaji":"×","naisui":"×","kazan":"×"}}
,{"type":"Feature","geometry":{"type":"Point","coordinates":[140.32,38.276]},"properties":{"Name":"江俣中央公園","Jusho":"山形県山形市江俣3-7","kouzui":"×","gake":"×","takashio":"×","jishin":"○","tsunami":"×","kaji":"×","naisui":"×","kazan":"×"}}
,{"type":"Feature","geometry":{"type":"Point","coordinates":[140.338,38.221]},"properties":{"Name":"謡光公園","Jusho":"山形県山形市東青田3-10","kouzui":"×","gake":"×","takashio":"×","jishin":"○","tsunami":"×","kaji":"×","naisui":"×","kazan":"×"}}
,{"type":"Feature","geometry":{"type":"Point","coordinates":[140.358,38.269]},"properties":{"Name":"やんべ公園","Jusho":"山形県山形市鈴川町3-107-2","kouzui":"×","gake":"×","takashio":"×","jishin":"○","tsunami":"×","kaji":"×","naisui":"×","kazan":"×"}}
,{"type":"Feature","geometry":{"type":"Point","coordinates":[140.356,38.267]},"properties":{"Name":"がにがわ公園","Jusho":"山形県山形市鈴川町2-6-5","kouzui":"×","gake":"×","takashio":"×","jishin":"○","tsunami":"×","kaji":"×","naisui":"×","kazan":"×"}}
,{"type":"Feature","geometry":{"type":"Point","coordinates":[140.336,38.222]},"properties":{"Name":"柳田公園","Jusho":"山形県山形市東青田4-7","kouzui":"×","gake":"×","takashio":"×","jishin":"○","tsunami":"×","kaji":"×","naisui":"×","kazan":"×"}}
,{"type":"Feature","geometry":{"type":"Point","coordinates":[140.306,38.28]},"properties":{"Name":"陣場瀬波公園","Jusho":"山形県山形市瀬波2-9-6","kouzui":"×","gake":"×","takashio":"×","jishin":"○","tsunami":"×","kaji":"×","naisui":"×","kazan":"×"}}
,{"type":"Feature","geometry":{"type":"Point","coordinates":[140.314,38.265]},"properties":{"Name":"西田中央公園","Jusho":"山形県山形市西田2-19","kouzui":"×","gake":"×","takashio":"×","jishin":"○","tsunami":"×","kaji":"×","naisui":"×","kazan":"×"}}
,{"type":"Feature","geometry":{"type":"Point","coordinates":[140.354,38.237]},"properties":{"Name":"松山公園","Jusho":"山形県山形市松山3-8-1","kouzui":"×","gake":"×","takashio":"×","jishin":"○","tsunami":"×","kaji":"×","naisui":"×","kazan":"×"}}
,{"type":"Feature","geometry":{"type":"Point","coordinates":[140.289,38.245]},"properties":{"Name":"よつば公園","Jusho":"山形県山形市大字沼木字高野内433-102","kouzui":"×","gake":"×","takashio":"×","jishin":"○","tsunami":"×","kaji":"×","naisui":"×","kazan":"×"}}
,{"type":"Feature","geometry":{"type":"Point","coordinates":[140.329,38.278]},"properties":{"Name":"桧葉の木公園","Jusho":"山形県山形市桧町3-10-1","kouzui":"×","gake":"×","takashio":"×","jishin":"○","tsunami":"×","kaji":"×","naisui":"×","kazan":"×"}}
,{"type":"Feature","geometry":{"type":"Point","coordinates":[140.316,38.273]},"properties":{"Name":"南江俣公園","Jusho":"山形県山形市江南3-18-4","kouzui":"×","gake":"×","takashio":"×","jishin":"○","tsunami":"×","kaji":"×","naisui":"×","kazan":"×"}}
,{"type":"Feature","geometry":{"type":"Point","coordinates":[140.346,38.239]},"properties":{"Name":"きたうら公園","Jusho":"山形県山形市南原町1-1170","kouzui":"×","gake":"×","takashio":"×","jishin":"○","tsunami":"×","kaji":"×","naisui":"×","kazan":"×"}}
,{"type":"Feature","geometry":{"type":"Point","coordinates":[140.359,38.239]},"properties":{"Name":"べにばな公園","Jusho":"山形県山形市松波1-13","kouzui":"×","gake":"×","takashio":"×","jishin":"○","tsunami":"×","kaji":"×","naisui":"×","kazan":"×"}}
,{"type":"Feature","geometry":{"type":"Point","coordinates":[140.349,38.237]},"properties":{"Name":"前田公園","Jusho":"山形県山形市前田町8-1","kouzui":"×","gake":"×","takashio":"×","jishin":"○","tsunami":"×","kaji":"×","naisui":"×","kazan":"×"}}
,{"type":"Feature","geometry":{"type":"Point","coordinates":[140.371,38.242]},"properties":{"Name":"ひぐらし公園","Jusho":"山形県山形市東山形1-3-1","kouzui":"×","gake":"×","takashio":"×","jishin":"○","tsunami":"×","kaji":"×","naisui":"×","kazan":"×"}}
,{"type":"Feature","geometry":{"type":"Point","coordinates":[140.34,38.267]},"properties":{"Name":"宮町観音堂公園","Jusho":"山形県山形市宮町4-16-1","kouzui":"×","gake":"×","takashio":"×","jishin":"○","tsunami":"×","kaji":"×","naisui":"×","kazan":"×"}}
,{"type":"Feature","geometry":{"type":"Point","coordinates":[140.313,38.221]},"properties":{"Name":"坂巻公園","Jusho":"山形県山形市桜田西3-3","kouzui":"×","gake":"×","takashio":"×","jishin":"○","tsunami":"×","kaji":"×","naisui":"×","kazan":"×"}}
,{"type":"Feature","geometry":{"type":"Point","coordinates":[140.319,38.22]},"properties":{"Name":"本面公園","Jusho":"山形県山形市桜田西2-2","kouzui":"×","gake":"×","takashio":"×","jishin":"○","tsunami":"×","kaji":"×","naisui":"×","kazan":"×"}}
,{"type":"Feature","geometry":{"type":"Point","coordinates":[140.327,38.219]},"properties":{"Name":"樋口公園","Jusho":"山形県山形市桜田東4-4","kouzui":"×","gake":"×","takashio":"×","jishin":"○","tsunami":"×","kaji":"×","naisui":"×","kazan":"×"}}
,{"type":"Feature","geometry":{"type":"Point","coordinates":[140.335,38.216]},"properties":{"Name":"うえのやま公園","Jusho":"山形県山形市中桜田3-4","kouzui":"×","gake":"×","takashio":"×","jishin":"○","tsunami":"×","kaji":"×","naisui":"×","kazan":"×"}}
,{"type":"Feature","geometry":{"type":"Point","coordinates":[140.329,38.216]},"properties":{"Name":"みずかみ第二公園","Jusho":"山形県山形市飯田2-4","kouzui":"×","gake":"×","takashio":"×","jishin":"○","tsunami":"×","kaji":"×","naisui":"×","kazan":"×"}}
,{"type":"Feature","geometry":{"type":"Point","coordinates":[140.327,38.211]},"properties":{"Name":"飯田公園","Jusho":"山形県山形市飯田5-1764","kouzui":"×","gake":"×","takashio":"×","jishin":"○","tsunami":"×","kaji":"×","naisui":"×","kazan":"×"}}
,{"type":"Feature","geometry":{"type":"Point","coordinates":[140.322,38.221]},"properties":{"Name":"広面公園","Jusho":"山形県山形市桜田東1-5","kouzui":"×","gake":"×","takashio":"×","jishin":"○","tsunami":"×","kaji":"×","naisui":"×","kazan":"×"}}
,{"type":"Feature","geometry":{"type":"Point","coordinates":[140.317,38.222]},"properties":{"Name":"中ノ目公園","Jusho":"山形県山形市元木3-6","kouzui":"×","gake":"×","takashio":"×","jishin":"○","tsunami":"×","kaji":"×","naisui":"×","kazan":"×"}}
,{"type":"Feature","geometry":{"type":"Point","coordinates":[140.342,38.262]},"properties":{"Name":"ふれあい公園","Jusho":"山形県山形市薬師町1-11-1","kouzui":"×","gake":"×","takashio":"×","jishin":"○","tsunami":"×","kaji":"×","naisui":"×","kazan":"×"}}
,{"type":"Feature","geometry":{"type":"Point","coordinates":[140.32,38.211]},"properties":{"Name":"飯田西の前第２公園","Jusho":"山形県山形市飯田西5-1730","kouzui":"×","gake":"×","takashio":"×","jishin":"○","tsunami":"×","kaji":"×","naisui":"×","kazan":"×"}}
,{"type":"Feature","geometry":{"type":"Point","coordinates":[140.309,38.203]},"properties":{"Name":"しんなん南公園","Jusho":"山形県山形市蔵王成沢字向久保田2227-2","kouzui":"×","gake":"×","takashio":"×","jishin":"○","tsunami":"×","kaji":"×","naisui":"×","kazan":"×"}}
,{"type":"Feature","geometry":{"type":"Point","coordinates":[140.317,38.217]},"properties":{"Name":"四ッ堀公園","Jusho":"山形県山形市桜田西4-6","kouzui":"×","gake":"×","takashio":"×","jishin":"○","tsunami":"×","kaji":"×","naisui":"×","kazan":"×"}}
,{"type":"Feature","geometry":{"type":"Point","coordinates":[140.321,38.225]},"properties":{"Name":"元木２号公園","Jusho":"山形県山形市元木2-6-1","kouzui":"×","gake":"×","takashio":"×","jishin":"○","tsunami":"×","kaji":"×","naisui":"×","kazan":"×"}}
,{"type":"Feature","geometry":{"type":"Point","coordinates":[140.328,38.283]},"properties":{"Name":"沖西公園","Jusho":"山形県山形市馬見ヶ崎2-14","kouzui":"×","gake":"×","takashio":"×","jishin":"○","tsunami":"×","kaji":"×","naisui":"×","kazan":"×"}}
,{"type":"Feature","geometry":{"type":"Point","coordinates":[140.327,38.285]},"properties":{"Name":"樋越公園","Jusho":"山形県山形市馬見ヶ崎4-11","kouzui":"×","gake":"×","takashio":"×","jishin":"○","tsunami":"×","kaji":"×","naisui":"×","kazan":"×"}}
,{"type":"Feature","geometry":{"type":"Point","coordinates":[140.333,38.28]},"properties":{"Name":"土樋東公園","Jusho":"山形県山形市馬見ヶ崎1-4","kouzui":"×","gake":"×","takashio":"×","jishin":"○","tsunami":"×","kaji":"×","naisui":"×","kazan":"×"}}
,{"type":"Feature","geometry":{"type":"Point","coordinates":[140.327,38.281]},"properties":{"Name":"土樋西公園","Jusho":"山形県山形市馬見ヶ崎3-6","kouzui":"×","gake":"×","takashio":"×","jishin":"○","tsunami":"×","kaji":"×","naisui":"×","kazan":"×"}}
,{"type":"Feature","geometry":{"type":"Point","coordinates":[140.348,38.229]},"properties":{"Name":"平清水公園","Jusho":"山形県山形市平清水2-4-1","kouzui":"×","gake":"×","takashio":"×","jishin":"○","tsunami":"×","kaji":"×","naisui":"×","kazan":"×"}}
,{"type":"Feature","geometry":{"type":"Point","coordinates":[140.35,38.227]},"properties":{"Name":"福ノ神公園","Jusho":"山形県山形市小立4-180-1","kouzui":"×","gake":"×","takashio":"×","jishin":"○","tsunami":"×","kaji":"×","naisui":"×","kazan":"×"}}
,{"type":"Feature","geometry":{"type":"Point","coordinates":[140.307,38.277]},"properties":{"Name":"陣場公園","Jusho":"山形県山形市陣場2-4","kouzui":"×","gake":"×","takashio":"×","jishin":"○","tsunami":"×","kaji":"×","naisui":"×","kazan":"×"}}
,{"type":"Feature","geometry":{"type":"Point","coordinates":[140.309,38.275]},"properties":{"Name":"ほなみ公園","Jusho":"山形県山形市陣場南4","kouzui":"×","gake":"×","takashio":"×","jishin":"○","tsunami":"×","kaji":"×","naisui":"×","kazan":"×"}}
,{"type":"Feature","geometry":{"type":"Point","coordinates":[140.312,38.198]},"properties":{"Name":"蔵王美原公園","Jusho":"山形県山形市蔵王松ヶ丘1-1-17","kouzui":"×","gake":"×","takashio":"×","jishin":"○","tsunami":"×","kaji":"×","naisui":"×","kazan":"×"}}
,{"type":"Feature","geometry":{"type":"Point","coordinates":[140.296,38.239]},"properties":{"Name":"松栄公園","Jusho":"山形県山形市松栄1-3-7","kouzui":"×","gake":"×","takashio":"×","jishin":"○","tsunami":"×","kaji":"×","naisui":"×","kazan":"×"}}
,{"type":"Feature","geometry":{"type":"Point","coordinates":[140.351,38.25]},"properties":{"Name":"小白川公園","Jusho":"山形県山形市小白川町2-860-4","kouzui":"×","gake":"×","takashio":"×","jishin":"○","tsunami":"×","kaji":"×","naisui":"×","kazan":"×"}}
,{"type":"Feature","geometry":{"type":"Point","coordinates":[140.309,38.24]},"properties":{"Name":"高堂公園","Jusho":"山形県山形市高堂1-58","kouzui":"×","gake":"×","takashio":"×","jishin":"○","tsunami":"×","kaji":"×","naisui":"×","kazan":"×"}}
,{"type":"Feature","geometry":{"type":"Point","coordinates":[140.3,38.237]},"properties":{"Name":"南沼原中央公園","Jusho":"山形県山形市南館西18-1","kouzui":"×","gake":"×","takashio":"×","jishin":"○","tsunami":"×","kaji":"×","naisui":"×","kazan":"×"}}
,{"type":"Feature","geometry":{"type":"Point","coordinates":[140.313,38.195]},"properties":{"Name":"蔵王松ヶ丘公園","Jusho":"山形県山形市蔵王松ヶ丘1-2-７","kouzui":"×","gake":"×","takashio":"×","jishin":"○","tsunami":"×","kaji":"×","naisui":"×","kazan":"×"}}
,{"type":"Feature","geometry":{"type":"Point","coordinates":[140.307,38.335]},"properties":{"Name":"中野目団地公園","Jusho":"山形県山形市大字中野目字赤坂1179-5","kouzui":"×","gake":"×","takashio":"×","jishin":"○","tsunami":"×","kaji":"×","naisui":"×","kazan":"×"}}
,{"type":"Feature","geometry":{"type":"Point","coordinates":[140.369,38.275]},"properties":{"Name":"高原中央公園","Jusho":"山形県山形市高原町字滝ノ沢239-241","kouzui":"×","gake":"×","takashio":"×","jishin":"○","tsunami":"×","kaji":"×","naisui":"×","kazan":"×"}}
,{"type":"Feature","geometry":{"type":"Point","coordinates":[140.318,38.228]},"properties":{"Name":"白山北公園","Jusho":"山形県山形市白山1-7-5","kouzui":"×","gake":"×","takashio":"×","jishin":"○","tsunami":"×","kaji":"×","naisui":"×","kazan":"×"}}
,{"type":"Feature","geometry":{"type":"Point","coordinates":[140.317,38.226]},"properties":{"Name":"白山南公園","Jusho":"山形県山形市白山2-5-3","kouzui":"×","gake":"×","takashio":"×","jishin":"○","tsunami":"×","kaji":"×","naisui":"×","kazan":"×"}}
,{"type":"Feature","geometry":{"type":"Point","coordinates":[140.327,38.253]},"properties":{"Name":"南追手前広場公園","Jusho":"山形県山形市城南町2-154","kouzui":"×","gake":"×","takashio":"×","jishin":"○","tsunami":"×","kaji":"×","naisui":"×","kazan":"×"}}
,{"type":"Feature","geometry":{"type":"Point","coordinates":[140.323,38.247]},"properties":{"Name":"三の丸稲荷口東公園","Jusho":"山形県山形市双葉町2-507","kouzui":"×","gake":"×","takashio":"×","jishin":"○","tsunami":"×","kaji":"×","naisui":"×","kazan":"×"}}
,{"type":"Feature","geometry":{"type":"Point","coordinates":[140.367,38.263]},"properties":{"Name":"鈴川公園","Jusho":"山形県山形市上山家町字沼の辺803ほか","kouzui":"×","gake":"×","takashio":"×","jishin":"○","tsunami":"×","kaji":"×","naisui":"×","kazan":"×"}}
,{"type":"Feature","geometry":{"type":"Point","coordinates":[140.313,38.214]},"properties":{"Name":"いわざき公園","Jusho":"山形県山形市桜田南5-1","kouzui":"×","gake":"×","takashio":"×","jishin":"○","tsunami":"×","kaji":"×","naisui":"×","kazan":"×"}}
,{"type":"Feature","geometry":{"type":"Point","coordinates":[140.314,38.209]},"properties":{"Name":"もとだて公園","Jusho":"山形県山形市成沢西二丁目10-1","kouzui":"×","gake":"×","takashio":"×","jishin":"○","tsunami":"×","kaji":"×","naisui":"×","kazan":"×"}}
,{"type":"Feature","geometry":{"type":"Point","coordinates":[140.32,38.209]},"properties":{"Name":"町浦公園","Jusho":"山形県山形市成沢西五丁目4-14、4-15","kouzui":"×","gake":"×","takashio":"×","jishin":"○","tsunami":"×","kaji":"×","naisui":"×","kazan":"×"}}
,{"type":"Feature","geometry":{"type":"Point","coordinates":[140.311,38.231]},"properties":{"Name":"吉原西公園","Jusho":"山形県山形市吉原2-2-1","kouzui":"×","gake":"×","takashio":"×","jishin":"○","tsunami":"×","kaji":"×","naisui":"×","kazan":"×"}}
,{"type":"Feature","geometry":{"type":"Point","coordinates":[140.306,38.231]},"properties":{"Name":"富の中公園","Jusho":"山形県山形市富の中4-6-11","kouzui":"×","gake":"×","takashio":"×","jishin":"○","tsunami":"×","kaji":"×","naisui":"×","kazan":"×"}}
,{"type":"Feature","geometry":{"type":"Point","coordinates":[140.306,38.23]},"properties":{"Name":"二ッ塚公園","Jusho":"山形県山形市吉原3-9-1","kouzui":"×","gake":"×","takashio":"×","jishin":"○","tsunami":"×","kaji":"×","naisui":"×","kazan":"×"}}
,{"type":"Feature","geometry":{"type":"Point","coordinates":[140.311,38.229]},"properties":{"Name":"柳原公園","Jusho":"山形県山形市吉原2-16-1","kouzui":"×","gake":"×","takashio":"×","jishin":"○","tsunami":"×","kaji":"×","naisui":"×","kazan":"×"}}
,{"type":"Feature","geometry":{"type":"Point","coordinates":[140.315,38.229]},"properties":{"Name":"穴田公園","Jusho":"山形県山形市吉原1-11-14","kouzui":"×","gake":"×","takashio":"×","jishin":"○","tsunami":"×","kaji":"×","naisui":"×","kazan":"×"}}
,{"type":"Feature","geometry":{"type":"Point","coordinates":[140.315,38.225]},"properties":{"Name":"三つ江公園","Jusho":"山形県山形市若宮2-4-1","kouzui":"×","gake":"×","takashio":"×","jishin":"○","tsunami":"×","kaji":"×","naisui":"×","kazan":"×"}}
,{"type":"Feature","geometry":{"type":"Point","coordinates":[140.293,38.194]},"properties":{"Name":"蔵王みはらしの丘２号公園","Jusho":"山形県山形市大字松原字弥陸原地内","kouzui":"×","gake":"×","takashio":"×","jishin":"○","tsunami":"×","kaji":"×","naisui":"×","kazan":"×"}}
,{"type":"Feature","geometry":{"type":"Point","coordinates":[140.335,38.281]},"properties":{"Name":"沖東公園","Jusho":"山形県山形市馬見ヶ崎1-19","kouzui":"×","gake":"×","takashio":"×","jishin":"○","tsunami":"×","kaji":"×","naisui":"×","kazan":"×"}}
,{"type":"Feature","geometry":{"type":"Point","coordinates":[140.316,38.212]},"properties":{"Name":"西成沢公園","Jusho":"山形県山形市成沢西1-3-3","kouzui":"×","gake":"×","takashio":"×","jishin":"○","tsunami":"×","kaji":"×","naisui":"×","kazan":"×"}}
,{"type":"Feature","geometry":{"type":"Point","coordinates":[140.328,38.252]},"properties":{"Name":"城南橋公園","Jusho":"山形県山形市城南町2-150","kouzui":"×","gake":"×","takashio":"×","jishin":"○","tsunami":"×","kaji":"×","naisui":"×","kazan":"×"}}
,{"type":"Feature","geometry":{"type":"Point","coordinates":[140.315,38.208]},"properties":{"Name":"くぼた緑地","Jusho":"山形県山形市成沢西3-6-5","kouzui":"×","gake":"×","takashio":"×","jishin":"○","tsunami":"×","kaji":"×","naisui":"×","kazan":"×"}}
,{"type":"Feature","geometry":{"type":"Point","coordinates":[140.344,38.225]},"properties":{"Name":"青田沼公園","Jusho":"山形県山形市上桜田1-4-１","kouzui":"×","gake":"×","takashio":"×","jishin":"○","tsunami":"×","kaji":"×","naisui":"×","kazan":"×"}}
,{"type":"Feature","geometry":{"type":"Point","coordinates":[140.346,38.223]},"properties":{"Name":"月山公園","Jusho":"山形県山形市上桜田2-6-25","kouzui":"×","gake":"×","takashio":"×","jishin":"○","tsunami":"×","kaji":"×","naisui":"×","kazan":"×"}}
,{"type":"Feature","geometry":{"type":"Point","coordinates":[140.31,38.222]},"properties":{"Name":"杜の公園","Jusho":"山形県山形市吉原南907-25","kouzui":"×","gake":"×","takashio":"×","jishin":"○","tsunami":"×","kaji":"×","naisui":"×","kazan":"×"}}
,{"type":"Feature","geometry":{"type":"Point","coordinates":[140.309,38.225]},"properties":{"Name":"若宮公園","Jusho":"山形県山形市若宮2-18-１","kouzui":"×","gake":"×","takashio":"×","jishin":"○","tsunami":"×","kaji":"×","naisui":"×","kazan":"×"}}
,{"type":"Feature","geometry":{"type":"Point","coordinates":[140.341,38.22]},"properties":{"Name":"芸工大前公園","Jusho":"山形県山形市上桜田4-5-１外","kouzui":"×","gake":"×","takashio":"×","jishin":"○","tsunami":"×","kaji":"×","naisui":"×","kazan":"×"}}
,{"type":"Feature","geometry":{"type":"Point","coordinates":[140.293,38.192]},"properties":{"Name":"蔵王みはらしの丘３号公園","Jusho":"山形県山形市大字松原1504-1外","kouzui":"×","gake":"×","takashio":"×","jishin":"○","tsunami":"×","kaji":"×","naisui":"×","kazan":"×"}}
,{"type":"Feature","geometry":{"type":"Point","coordinates":[140.322,38.29]},"properties":{"Name":"本屋敷公園","Jusho":"山形県山形市嶋北3-8","kouzui":"×","gake":"×","takashio":"×","jishin":"○","tsunami":"×","kaji":"×","naisui":"×","kazan":"×"}}
,{"type":"Feature","geometry":{"type":"Point","coordinates":[140.322,38.286]},"properties":{"Name":"河原田公園","Jusho":"山形県山形市嶋北1-12","kouzui":"×","gake":"×","takashio":"×","jishin":"○","tsunami":"×","kaji":"×","naisui":"×","kazan":"×"}}
,{"type":"Feature","geometry":{"type":"Point","coordinates":[140.318,38.281]},"properties":{"Name":"梅野木前公園","Jusho":"山形県山形市嶋南3-12","kouzui":"×","gake":"×","takashio":"×","jishin":"○","tsunami":"×","kaji":"×","naisui":"×","kazan":"×"}}
,{"type":"Feature","geometry":{"type":"Point","coordinates":[140.317,38.233]},"properties":{"Name":"深町公園","Jusho":"山形県山形市深町2-67-4","kouzui":"×","gake":"×","takashio":"×","jishin":"○","tsunami":"×","kaji":"×","naisui":"×","kazan":"×"}}
,{"type":"Feature","geometry":{"type":"Point","coordinates":[140.321,38.284]},"properties":{"Name":"嶋公園","Jusho":"山形県山形市嶋北2-2","kouzui":"×","gake":"×","takashio":"×","jishin":"○","tsunami":"×","kaji":"×","naisui":"×","kazan":"×"}}
,{"type":"Feature","geometry":{"type":"Point","coordinates":[140.289,38.195]},"properties":{"Name":"蔵王みはらしの丘１号公園","Jusho":"山形県山形市大字松原地内","kouzui":"×","gake":"×","takashio":"×","jishin":"○","tsunami":"×","kaji":"×","naisui":"×","kazan":"×"}}
,{"type":"Feature","geometry":{"type":"Point","coordinates":[140.286,38.188]},"properties":{"Name":"蔵王みはらしの丘４号公園","Jusho":"山形県山形市大字松原地内","kouzui":"×","gake":"×","takashio":"×","jishin":"○","tsunami":"×","kaji":"×","naisui":"×","kazan":"×"}}
,{"type":"Feature","geometry":{"type":"Point","coordinates":[140.333,38.215]},"properties":{"Name":"みずかみ第一公園","Jusho":"山形県山形市飯田3-2641番地外","kouzui":"×","gake":"×","takashio":"×","jishin":"○","tsunami":"×","kaji":"×","naisui":"×","kazan":"×"}}
,{"type":"Feature","geometry":{"type":"Point","coordinates":[140.302,38.205]},"properties":{"Name":"蔵王駅西公園","Jusho":"山形県山形市蔵王成沢地内","kouzui":"×","gake":"×","takashio":"×","jishin":"○","tsunami":"×","kaji":"×","naisui":"×","kazan":"×"}}
,{"type":"Feature","geometry":{"type":"Point","coordinates":[140.287,38.247]},"properties":{"Name":"沼木緑地","Jusho":"山形県山形市大字沼木字下河原1056-1外","kouzui":"×","gake":"×","takashio":"×","jishin":"○","tsunami":"×","kaji":"×","naisui":"×","kazan":"×"}}
,{"type":"Feature","geometry":{"type":"Point","coordinates":[140.349,38.313]},"properties":{"Name":"漆山石田公園","Jusho":"山形県山形市大字漆山字石田556-4","kouzui":"×","gake":"×","takashio":"×","jishin":"○","tsunami":"×","kaji":"×","naisui":"×","kazan":"×"}}
,{"type":"Feature","geometry":{"type":"Point","coordinates":[140.346,38.264]},"properties":{"Name":"球技場","Jusho":"山形県山形市薬師町2-22-72","kouzui":"×","gake":"×","takashio":"×","jishin":"○","tsunami":"×","kaji":"×","naisui":"×","kazan":"×"}}
,{"type":"Feature","geometry":{"type":"Point","coordinates":[140.289,38.232]},"properties":{"Name":"鋳物町運動広場","Jusho":"山形県山形市鋳物町24","kouzui":"×","gake":"×","takashio":"×","jishin":"○","tsunami":"×","kaji":"×","naisui":"×","kazan":"×"}}
,{"type":"Feature","geometry":{"type":"Point","coordinates":[140.288,38.247]},"properties":{"Name":"西部運動広場","Jusho":"山形県山形市大字沼木字新田948","kouzui":"×","gake":"×","takashio":"×","jishin":"○","tsunami":"×","kaji":"×","naisui":"×","kazan":"×"}}
,{"type":"Feature","geometry":{"type":"Point","coordinates":[140.377,38.313]},"properties":{"Name":"立谷川運動広場","Jusho":"山形県山形市立谷川2-959","kouzui":"×","gake":"×","takashio":"×","jishin":"○","tsunami":"×","kaji":"×","naisui":"×","kazan":"×"}}
,{"type":"Feature","geometry":{"type":"Point","coordinates":[140.354,38.289]},"properties":{"Name":"流通センター野球場","Jusho":"山形県山形市流通センター2-1","kouzui":"×","gake":"×","takashio":"×","jishin":"○","tsunami":"×","kaji":"×","naisui":"×","kazan":"×"}}
,{"type":"Feature","geometry":{"type":"Point","coordinates":[140.286,38.242]},"properties":{"Name":"山形広域クリーンセンター運動場","Jusho":"山形県山形市大字沼木字高野内486-3","kouzui":"×","gake":"×","takashio":"×","jishin":"○","tsunami":"×","kaji":"×","naisui":"×","kazan":"×"}}
,{"type":"Feature","geometry":{"type":"Point","coordinates":[140.395,38.162]},"properties":{"Name":"蔵王ロープウェイ蔵王山麓駅","Jusho":"山形県山形市蔵王温泉字三度川 229-3","kouzui":"○","gake":"×","takashio":"×","jishin":"×","tsunami":"×","kaji":"×","naisui":"×","kazan":"○"}}
,{"type":"Feature","geometry":{"type":"Point","coordinates":[140.41,38.152]},"properties":{"Name":"蔵王ロープウェイ山麓線樹氷高原駅","Jusho":"山形県山形市蔵王温泉字横倉外5　国有林236林班","kouzui":"○","gake":"×","takashio":"×","jishin":"×","tsunami":"×","kaji":"×","naisui":"×","kazan":"○"}}
,{"type":"Feature","geometry":{"type":"Point","coordinates":[140.411,38.152]},"properties":{"Name":"蔵王ロープウェイ山頂線樹氷高原駅","Jusho":"山形県山形市蔵王温泉字横倉外5　国有林236林班","kouzui":"○","gake":"×","takashio":"×","jishin":"○","tsunami":"×","kaji":"×","naisui":"×","kazan":"○"}}
,{"type":"Feature","geometry":{"type":"Point","coordinates":[140.431,38.155]},"properties":{"Name":"蔵王ロープウェイ地蔵山頂駅","Jusho":"山形県山形市蔵王温泉字横倉外5　国有林236林班","kouzui":"○","gake":"×","takashio":"×","jishin":"○","tsunami":"×","kaji":"×","naisui":"×","kazan":"×"}}
,{"type":"Feature","geometry":{"type":"Point","coordinates":[140.348,38.262]},"properties":{"Name":"薬師公園周辺","Jusho":"山形県山形市薬師町2-616","kouzui":"×","gake":"×","takashio":"×","jishin":"○","tsunami":"×","kaji":"○","naisui":"×","kazan":"×"}}
,{"type":"Feature","geometry":{"type":"Point","coordinates":[140.319,38.284]},"properties":{"Name":"嶋遺跡公園","Jusho":"山形県山形市嶋北2-3-1","kouzui":"×","gake":"×","takashio":"×","jishin":"○","tsunami":"×","kaji":"×","naisui":"×","kazan":"×"}}
,{"type":"Feature","geometry":{"type":"Point","coordinates":[140.316,38.255]},"properties":{"Name":"清住公園","Jusho":"山形県山形市清住町1-35-1","kouzui":"×","gake":"×","takashio":"×","jishin":"○","tsunami":"×","kaji":"×","naisui":"×","kazan":"×"}}
,{"type":"Feature","geometry":{"type":"Point","coordinates":[139.827,38.719]},"properties":{"Name":"朝暘第一小学校グラウンド","Jusho":"山形県鶴岡市文園町2-1","kouzui":"×","gake":"×","takashio":"×","jishin":"○","tsunami":"×","kaji":"○","naisui":"×","kazan":"×"}}
,{"type":"Feature","geometry":{"type":"Point","coordinates":[139.831,38.712]},"properties":{"Name":"鶴岡第三中学校グラウンド","Jusho":"山形県鶴岡市城南町25-1","kouzui":"×","gake":"×","takashio":"×","jishin":"○","tsunami":"×","kaji":"○","naisui":"×","kazan":"×"}}
,{"type":"Feature","geometry":{"type":"Point","coordinates":[139.823,38.723]},"properties":{"Name":"神楽橋公園","Jusho":"山形県鶴岡市三光町3","kouzui":"×","gake":"×","takashio":"×","jishin":"○","tsunami":"×","kaji":"○","naisui":"×","kazan":"×"}}
,{"type":"Feature","geometry":{"type":"Point","coordinates":[139.828,38.721]},"properties":{"Name":"南部公園","Jusho":"山形県鶴岡市睦町5-37","kouzui":"×","gake":"×","takashio":"×","jishin":"○","tsunami":"×","kaji":"○","naisui":"×","kazan":"×"}}
,{"type":"Feature","geometry":{"type":"Point","coordinates":[139.828,38.722]},"properties":{"Name":"常念寺","Jusho":"山形県鶴岡市睦町1-1","kouzui":"×","gake":"×","takashio":"×","jishin":"○","tsunami":"×","kaji":"○","naisui":"×","kazan":"×"}}
,{"type":"Feature","geometry":{"type":"Point","coordinates":[139.835,38.717]},"properties":{"Name":"長者町東公園","Jusho":"山形県鶴岡市長者町26-10","kouzui":"×","gake":"×","takashio":"×","jishin":"○","tsunami":"×","kaji":"○","naisui":"×","kazan":"×"}}
,{"type":"Feature","geometry":{"type":"Point","coordinates":[139.832,38.718]},"properties":{"Name":"長者町西公園","Jusho":"山形県鶴岡市長者町20-1","kouzui":"×","gake":"×","takashio":"×","jishin":"○","tsunami":"×","kaji":"○","naisui":"×","kazan":"×"}}
,{"type":"Feature","geometry":{"type":"Point","coordinates":[139.836,38.716]},"properties":{"Name":"鶴岡市上下水道部","Jusho":"山形県鶴岡市のぞみ町2-10","kouzui":"×","gake":"×","takashio":"×","jishin":"○","tsunami":"×","kaji":"○","naisui":"×","kazan":"×"}}
,{"type":"Feature","geometry":{"type":"Point","coordinates":[139.834,38.715]},"properties":{"Name":"鶴岡城南学園","Jusho":"山形県鶴岡市のぞみ町6-20","kouzui":"×","gake":"×","takashio":"×","jishin":"○","tsunami":"×","kaji":"○","naisui":"×","kazan":"×"}}
,{"type":"Feature","geometry":{"type":"Point","coordinates":[139.836,38.714]},"properties":{"Name":"おんがわら公園","Jusho":"山形県鶴岡市のぞみ町10-3","kouzui":"×","gake":"×","takashio":"×","jishin":"○","tsunami":"×","kaji":"○","naisui":"×","kazan":"×"}}
,{"type":"Feature","geometry":{"type":"Point","coordinates":[139.823,38.712]},"properties":{"Name":"日枝神社","Jusho":"山形県鶴岡市日枝字坂本3","kouzui":"×","gake":"×","takashio":"×","jishin":"○","tsunami":"×","kaji":"○","naisui":"×","kazan":"×"}}
,{"type":"Feature","geometry":{"type":"Point","coordinates":[139.835,38.712]},"properties":{"Name":"城南町公園","Jusho":"山形県鶴岡市城南町10-1","kouzui":"×","gake":"×","takashio":"×","jishin":"○","tsunami":"×","kaji":"○","naisui":"×","kazan":"×"}}
,{"type":"Feature","geometry":{"type":"Point","coordinates":[139.828,38.712]},"properties":{"Name":"城南西公園","Jusho":"山形県鶴岡市城南町37-8","kouzui":"×","gake":"×","takashio":"×","jishin":"○","tsunami":"×","kaji":"○","naisui":"×","kazan":"×"}}
,{"type":"Feature","geometry":{"type":"Point","coordinates":[139.824,38.72]},"properties":{"Name":"三光町公園","Jusho":"山形県鶴岡市三光町9-31","kouzui":"×","gake":"×","takashio":"×","jishin":"○","tsunami":"×","kaji":"○","naisui":"×","kazan":"×"}}
,{"type":"Feature","geometry":{"type":"Point","coordinates":[139.827,38.716]},"properties":{"Name":"文園町公園","Jusho":"山形県鶴岡市文園町14-11","kouzui":"×","gake":"×","takashio":"×","jishin":"○","tsunami":"×","kaji":"○","naisui":"×","kazan":"×"}}
,{"type":"Feature","geometry":{"type":"Point","coordinates":[139.838,38.723]},"properties":{"Name":"鶴岡市中央児童館","Jusho":"山形県鶴岡市苗津町1-1","kouzui":"×","gake":"×","takashio":"×","jishin":"○","tsunami":"×","kaji":"○","naisui":"×","kazan":"×"}}
,{"type":"Feature","geometry":{"type":"Point","coordinates":[139.84,38.726]},"properties":{"Name":"東部公園","Jusho":"山形県鶴岡市大東町6-58","kouzui":"×","gake":"×","takashio":"×","jishin":"○","tsunami":"×","kaji":"○","naisui":"×","kazan":"×"}}
,{"type":"Feature","geometry":{"type":"Point","coordinates":[139.835,38.72]},"properties":{"Name":"舞台公園","Jusho":"山形県鶴岡市神明町15-32","kouzui":"×","gake":"×","takashio":"×","jishin":"○","tsunami":"×","kaji":"○","naisui":"×","kazan":"×"}}
,{"type":"Feature","geometry":{"type":"Point","coordinates":[139.836,38.724]},"properties":{"Name":"鶴岡天満宮","Jusho":"山形県鶴岡市神明町3-40","kouzui":"×","gake":"×","takashio":"×","jishin":"○","tsunami":"×","kaji":"○","naisui":"×","kazan":"×"}}
,{"type":"Feature","geometry":{"type":"Point","coordinates":[139.833,38.724]},"properties":{"Name":"春日神社","Jusho":"山形県鶴岡市神明町9-5","kouzui":"×","gake":"×","takashio":"×","jishin":"○","tsunami":"×","kaji":"○","naisui":"×","kazan":"×"}}
,{"type":"Feature","geometry":{"type":"Point","coordinates":[139.845,38.725]},"properties":{"Name":"日の出公園","Jusho":"山形県鶴岡市日出1丁目23-1","kouzui":"×","gake":"×","takashio":"×","jishin":"○","tsunami":"×","kaji":"○","naisui":"×","kazan":"×"}}
,{"type":"Feature","geometry":{"type":"Point","coordinates":[139.854,38.718]},"properties":{"Name":"東部運動公園","Jusho":"山形県鶴岡市伊勢原町12-13","kouzui":"×","gake":"×","takashio":"×","jishin":"○","tsunami":"×","kaji":"○","naisui":"×","kazan":"×"}}
,{"type":"Feature","geometry":{"type":"Point","coordinates":[139.85,38.719]},"properties":{"Name":"ふれあい公園","Jusho":"山形県鶴岡市伊勢原町7-1","kouzui":"×","gake":"×","takashio":"×","jishin":"○","tsunami":"×","kaji":"○","naisui":"×","kazan":"×"}}
,{"type":"Feature","geometry":{"type":"Point","coordinates":[139.846,38.723]},"properties":{"Name":"おおひがし公園","Jusho":"山形県鶴岡市東原町4-6","kouzui":"×","gake":"×","takashio":"×","jishin":"○","tsunami":"×","kaji":"○","naisui":"×","kazan":"×"}}
,{"type":"Feature","geometry":{"type":"Point","coordinates":[139.85,38.721]},"properties":{"Name":"荒田公園","Jusho":"山形県鶴岡市日出2丁目11-1","kouzui":"×","gake":"×","takashio":"×","jishin":"○","tsunami":"×","kaji":"○","naisui":"×","kazan":"×"}}
,{"type":"Feature","geometry":{"type":"Point","coordinates":[139.843,38.72]},"properties":{"Name":"朝暘第二小学校グラウンド","Jusho":"山形県鶴岡市東原町25-1","kouzui":"×","gake":"×","takashio":"×","jishin":"○","tsunami":"×","kaji":"○","naisui":"×","kazan":"×"}}
,{"type":"Feature","geometry":{"type":"Point","coordinates":[139.839,38.718]},"properties":{"Name":"ふじわら公園","Jusho":"山形県鶴岡市桜新町4-22","kouzui":"×","gake":"×","takashio":"×","jishin":"○","tsunami":"×","kaji":"○","naisui":"×","kazan":"×"}}
,{"type":"Feature","geometry":{"type":"Point","coordinates":[139.845,38.715]},"properties":{"Name":"やつこうや公園","Jusho":"山形県鶴岡市ほなみ町13-1","kouzui":"×","gake":"×","takashio":"×","jishin":"○","tsunami":"×","kaji":"○","naisui":"×","kazan":"×"}}
,{"type":"Feature","geometry":{"type":"Point","coordinates":[139.843,38.718]},"properties":{"Name":"鶴岡南部公園","Jusho":"山形県鶴岡市ほなみ町4","kouzui":"×","gake":"×","takashio":"×","jishin":"○","tsunami":"×","kaji":"○","naisui":"×","kazan":"×"}}
,{"type":"Feature","geometry":{"type":"Point","coordinates":[139.836,38.725]},"properties":{"Name":"八坂公園","Jusho":"山形県鶴岡市大東町24-18","kouzui":"×","gake":"×","takashio":"×","jishin":"○","tsunami":"×","kaji":"○","naisui":"×","kazan":"×"}}
,{"type":"Feature","geometry":{"type":"Point","coordinates":[139.849,38.717]},"properties":{"Name":"みずき公園","Jusho":"山形県鶴岡市伊勢原町24-1","kouzui":"×","gake":"×","takashio":"×","jishin":"○","tsunami":"×","kaji":"○","naisui":"×","kazan":"×"}}
,{"type":"Feature","geometry":{"type":"Point","coordinates":[139.852,38.717]},"properties":{"Name":"伊勢横内公園","Jusho":"山形県鶴岡市伊勢原町18-2","kouzui":"×","gake":"×","takashio":"×","jishin":"○","tsunami":"×","kaji":"○","naisui":"×","kazan":"×"}}
,{"type":"Feature","geometry":{"type":"Point","coordinates":[139.822,38.734]},"properties":{"Name":"新形東公園","Jusho":"山形県鶴岡市新形町19-3","kouzui":"×","gake":"×","takashio":"×","jishin":"○","tsunami":"×","kaji":"○","naisui":"×","kazan":"×"}}
,{"type":"Feature","geometry":{"type":"Point","coordinates":[139.825,38.729]},"properties":{"Name":"鶴岡公園","Jusho":"山形県鶴岡市馬場町4-4","kouzui":"×","gake":"×","takashio":"×","jishin":"○","tsunami":"×","kaji":"○","naisui":"×","kazan":"×"}}
,{"type":"Feature","geometry":{"type":"Point","coordinates":[139.826,38.735]},"properties":{"Name":"朝暘第三小学校グラウンド","Jusho":"山形県鶴岡市新形町17-24","kouzui":"×","gake":"×","takashio":"×","jishin":"○","tsunami":"×","kaji":"○","naisui":"×","kazan":"×"}}
,{"type":"Feature","geometry":{"type":"Point","coordinates":[139.827,38.739]},"properties":{"Name":"県立高等学校共用グラウンド","Jusho":"山形県鶴岡市新形町2-62","kouzui":"×","gake":"×","takashio":"×","jishin":"○","tsunami":"×","kaji":"○","naisui":"×","kazan":"×"}}
,{"type":"Feature","geometry":{"type":"Point","coordinates":[139.827,38.732]},"properties":{"Name":"鶴岡北高等学校グラウンド","Jusho":"山形県鶴岡市若葉町16-5","kouzui":"×","gake":"×","takashio":"×","jishin":"○","tsunami":"×","kaji":"○","naisui":"×","kazan":"×"}}
,{"type":"Feature","geometry":{"type":"Point","coordinates":[139.825,38.73]},"properties":{"Name":"鶴岡南高等学校グラウンド","Jusho":"山形県鶴岡市若葉町26-31","kouzui":"×","gake":"×","takashio":"×","jishin":"○","tsunami":"×","kaji":"○","naisui":"×","kazan":"×"}}
,{"type":"Feature","geometry":{"type":"Point","coordinates":[139.823,38.731]},"properties":{"Name":"鶴岡工業高等学校グラウンド","Jusho":"山形県鶴岡市家中新町8-1","kouzui":"×","gake":"×","takashio":"×","jishin":"○","tsunami":"×","kaji":"○","naisui":"×","kazan":"×"}}
,{"type":"Feature","geometry":{"type":"Point","coordinates":[139.827,38.738]},"properties":{"Name":"山形大学農学部グラウンド","Jusho":"山形県鶴岡市新形町1-23","kouzui":"×","gake":"×","takashio":"×","jishin":"○","tsunami":"×","kaji":"○","naisui":"×","kazan":"×"}}
,{"type":"Feature","geometry":{"type":"Point","coordinates":[139.832,38.737]},"properties":{"Name":"錦町公園","Jusho":"山形県鶴岡市錦町9-3","kouzui":"×","gake":"×","takashio":"×","jishin":"○","tsunami":"×","kaji":"○","naisui":"×","kazan":"×"}}
,{"type":"Feature","geometry":{"type":"Point","coordinates":[139.82,38.733]},"properties":{"Name":"新形公園","Jusho":"山形県鶴岡市新形町23-26","kouzui":"×","gake":"×","takashio":"×","jishin":"○","tsunami":"×","kaji":"○","naisui":"×","kazan":"×"}}
,{"type":"Feature","geometry":{"type":"Point","coordinates":[139.835,38.733]},"properties":{"Name":"日枝神社","Jusho":"山形県鶴岡市山王町2-69","kouzui":"×","gake":"×","takashio":"×","jishin":"○","tsunami":"×","kaji":"○","naisui":"×","kazan":"×"}}
,{"type":"Feature","geometry":{"type":"Point","coordinates":[139.822,38.738]},"properties":{"Name":"とりのす公園","Jusho":"山形県鶴岡市城北町1-32","kouzui":"×","gake":"×","takashio":"×","jishin":"○","tsunami":"×","kaji":"○","naisui":"×","kazan":"×"}}
,{"type":"Feature","geometry":{"type":"Point","coordinates":[139.816,38.739]},"properties":{"Name":"大部公園","Jusho":"山形県鶴岡市大部町18-6","kouzui":"×","gake":"×","takashio":"×","jishin":"○","tsunami":"×","kaji":"○","naisui":"×","kazan":"×"}}
,{"type":"Feature","geometry":{"type":"Point","coordinates":[139.825,38.74]},"properties":{"Name":"新形北公園","Jusho":"山形県鶴岡市新形町7-154","kouzui":"×","gake":"×","takashio":"×","jishin":"○","tsunami":"×","kaji":"○","naisui":"×","kazan":"×"}}
,{"type":"Feature","geometry":{"type":"Point","coordinates":[139.828,38.742]},"properties":{"Name":"日和田公園","Jusho":"山形県鶴岡市日和田町15-5","kouzui":"×","gake":"×","takashio":"×","jishin":"○","tsunami":"×","kaji":"○","naisui":"×","kazan":"×"}}
,{"type":"Feature","geometry":{"type":"Point","coordinates":[139.831,38.73]},"properties":{"Name":"内川河川緑地","Jusho":"山形県鶴岡市泉町9-1","kouzui":"×","gake":"×","takashio":"×","jishin":"○","tsunami":"×","kaji":"○","naisui":"×","kazan":"×"}}
,{"type":"Feature","geometry":{"type":"Point","coordinates":[139.841,38.753]},"properties":{"Name":"やすらぎ公園","Jusho":"山形県鶴岡市茅原町24-1","kouzui":"×","gake":"×","takashio":"×","jishin":"○","tsunami":"×","kaji":"○","naisui":"×","kazan":"×"}}
,{"type":"Feature","geometry":{"type":"Point","coordinates":[139.838,38.753]},"properties":{"Name":"茅原公園","Jusho":"山形県鶴岡市茅原町12-13","kouzui":"×","gake":"×","takashio":"×","jishin":"○","tsunami":"×","kaji":"○","naisui":"×","kazan":"×"}}
,{"type":"Feature","geometry":{"type":"Point","coordinates":[139.809,38.722]},"properties":{"Name":"朝暘第四小学校グラウンド","Jusho":"山形県鶴岡市柳田字田中28-1","kouzui":"×","gake":"×","takashio":"×","jishin":"○","tsunami":"×","kaji":"○","naisui":"×","kazan":"×"}}
,{"type":"Feature","geometry":{"type":"Point","coordinates":[139.812,38.714]},"properties":{"Name":"鶴岡第四中学校グラウンド","Jusho":"山形県鶴岡市小真木原町3-23","kouzui":"×","gake":"×","takashio":"×","jishin":"○","tsunami":"×","kaji":"○","naisui":"×","kazan":"×"}}
,{"type":"Feature","geometry":{"type":"Point","coordinates":[139.814,38.714]},"properties":{"Name":"小真木原公園","Jusho":"山形県鶴岡市小真木原町2-102","kouzui":"×","gake":"×","takashio":"×","jishin":"○","tsunami":"×","kaji":"○","naisui":"×","kazan":"×"}}
,{"type":"Feature","geometry":{"type":"Point","coordinates":[139.818,38.721]},"properties":{"Name":"美原町公園","Jusho":"山形県鶴岡市美原町26-24","kouzui":"×","gake":"×","takashio":"×","jishin":"○","tsunami":"×","kaji":"○","naisui":"×","kazan":"×"}}
,{"type":"Feature","geometry":{"type":"Point","coordinates":[139.809,38.72]},"properties":{"Name":"北田公園","Jusho":"山形県鶴岡市稲生2丁目1-20","kouzui":"×","gake":"×","takashio":"×","jishin":"○","tsunami":"×","kaji":"○","naisui":"×","kazan":"×"}}
,{"type":"Feature","geometry":{"type":"Point","coordinates":[139.814,38.722]},"properties":{"Name":"青柳町公園","Jusho":"山形県鶴岡市青柳町2-6","kouzui":"×","gake":"×","takashio":"×","jishin":"○","tsunami":"×","kaji":"○","naisui":"×","kazan":"×"}}
,{"type":"Feature","geometry":{"type":"Point","coordinates":[139.814,38.726]},"properties":{"Name":"さいわい公園","Jusho":"山形県鶴岡市青柳町24-1","kouzui":"×","gake":"×","takashio":"×","jishin":"○","tsunami":"×","kaji":"○","naisui":"×","kazan":"×"}}
,{"type":"Feature","geometry":{"type":"Point","coordinates":[139.818,38.718]},"properties":{"Name":"南部保育園庭","Jusho":"山形県鶴岡市美原町13-10","kouzui":"×","gake":"×","takashio":"×","jishin":"○","tsunami":"×","kaji":"○","naisui":"×","kazan":"×"}}
,{"type":"Feature","geometry":{"type":"Point","coordinates":[139.839,38.748]},"properties":{"Name":"鶴岡第二中学校グラウンド","Jusho":"山形県鶴岡市宝田2丁目8-2","kouzui":"×","gake":"×","takashio":"×","jishin":"○","tsunami":"×","kaji":"○","naisui":"×","kazan":"×"}}
,{"type":"Feature","geometry":{"type":"Point","coordinates":[139.845,38.73]},"properties":{"Name":"朝暘第五小学校グラウンド","Jusho":"山形県鶴岡市切添町15-2","kouzui":"×","gake":"×","takashio":"×","jishin":"○","tsunami":"×","kaji":"○","naisui":"×","kazan":"×"}}
,{"type":"Feature","geometry":{"type":"Point","coordinates":[139.846,38.742]},"properties":{"Name":"道形公園","Jusho":"山形県鶴岡市道形町22-2","kouzui":"×","gake":"×","takashio":"×","jishin":"○","tsunami":"×","kaji":"○","naisui":"×","kazan":"×"}}
,{"type":"Feature","geometry":{"type":"Point","coordinates":[139.838,38.739]},"properties":{"Name":"駅前公園","Jusho":"山形県鶴岡市末広町17-4","kouzui":"×","gake":"×","takashio":"×","jishin":"○","tsunami":"×","kaji":"○","naisui":"×","kazan":"×"}}
,{"type":"Feature","geometry":{"type":"Point","coordinates":[139.838,38.731]},"properties":{"Name":"杉の子公園","Jusho":"山形県鶴岡市鳥居町14-4","kouzui":"×","gake":"×","takashio":"×","jishin":"○","tsunami":"×","kaji":"○","naisui":"×","kazan":"×"}}
,{"type":"Feature","geometry":{"type":"Point","coordinates":[139.84,38.733]},"properties":{"Name":"鳥居町北公園","Jusho":"山形県鶴岡市鳥居町4-1","kouzui":"×","gake":"×","takashio":"×","jishin":"○","tsunami":"×","kaji":"○","naisui":"×","kazan":"×"}}
,{"type":"Feature","geometry":{"type":"Point","coordinates":[139.839,38.729]},"properties":{"Name":"鳥居町南公園","Jusho":"山形県鶴岡市鳥居町26-1","kouzui":"×","gake":"×","takashio":"×","jishin":"○","tsunami":"×","kaji":"○","naisui":"×","kazan":"×"}}
,{"type":"Feature","geometry":{"type":"Point","coordinates":[139.835,38.734]},"properties":{"Name":"日吉町公園","Jusho":"山形県鶴岡市日吉町9-120","kouzui":"×","gake":"×","takashio":"×","jishin":"○","tsunami":"×","kaji":"○","naisui":"×","kazan":"×"}}
,{"type":"Feature","geometry":{"type":"Point","coordinates":[139.837,38.734]},"properties":{"Name":"宝町公園","Jusho":"山形県鶴岡市宝町8-8","kouzui":"×","gake":"×","takashio":"×","jishin":"○","tsunami":"×","kaji":"○","naisui":"×","kazan":"×"}}
,{"type":"Feature","geometry":{"type":"Point","coordinates":[139.842,38.728]},"properties":{"Name":"船渡公園","Jusho":"山形県鶴岡市朝暘町13","kouzui":"×","gake":"×","takashio":"×","jishin":"○","tsunami":"×","kaji":"○","naisui":"×","kazan":"×"}}
,{"type":"Feature","geometry":{"type":"Point","coordinates":[139.845,38.727]},