var k={
"type":"FeatureCollection",
"features":[
{
"type":"Feature",
"properties":{
"Name":"えのき公園",
"Jusho":"青森県青森市浜館四丁目4",
"Capacity":"－",
"la":"40.81108909000",
"ln":"140.78915668000"
},
"geometry":{
"type":"Point",
"coordinates":[
140.78915668,
40.81108909
]
}
},
{
"type":"Feature",
"properties":{
"Name":"はまだて公園",
"Jusho":"青森県青森市浜館二丁目9",
"Capacity":"－",
"la":"40.80867070000",
"ln":"140.78410496000"
},
"geometry":{
"type":"Point",
"coordinates":[
140.78410496,
40.8086707
]
}
},
{
"type":"Feature",
"properties":{
"Name":"ベイタウン沖館公園",
"Jusho":"青森県青森市沖館一丁目地内",
"Capacity":"－",
"la":"40.83381165000",
"ln":"140.72663205000"
},
"geometry":{
"type":"Point",
"coordinates":[
140.72663205,
40.83381165
]
}
},
{
"type":"Feature",
"properties":{
"Name":"みよし西公園",
"Jusho":"青森県青森市三好一丁目14",
"Capacity":"－",
"la":"40.83461796910",
"ln":"140.70383872000"
},
"geometry":{
"type":"Point",
"coordinates":[
140.70383872,
40.8346179691
]
}
},
{
"type":"Feature",
"properties":{
"Name":"みよし東公園",
"Jusho":"青森県青森市三好一丁目4",
"Capacity":"－",
"la":"40.83283493000",
"ln":"140.70561950000"
},
"geometry":{
"type":"Point",
"coordinates":[
140.7056195,
40.83283493
]
}
},
{
"type":"Feature",
"properties":{
"Name":"阿部野北公園",
"Jusho":"青森県青森市幸畑三丁目27",
"Capacity":"－",
"la":"40.78309199000",
"ln":"140.78571232000"
},
"geometry":{
"type":"Point",
"coordinates":[
140.78571232,
40.78309199
]
}
},
{
"type":"Feature",
"properties":{
"Name":"浦町公園",
"Jusho":"青森県青森市勝田一丁目6",
"Capacity":"－",
"la":"40.81583589000",
"ln":"140.75315165000"
},
"geometry":{
"type":"Point",
"coordinates":[
140.75315165,
40.81583589
]
}
},
{
"type":"Feature",
"properties":{
"Name":"奥野なかよし公園",
"Jusho":"青森県青森市桂木三丁目12",
"Capacity":"－",
"la":"40.80980093000",
"ln":"140.74723838000"
},
"geometry":{
"type":"Point",
"coordinates":[
140.74723838,
40.80980093
]
}
},
{
"type":"Feature",
"properties":{
"Name":"奥野西公園",
"Jusho":"青森県青森市緑一丁目10",
"Capacity":"－",
"la":"40.80724216000",
"ln":"140.74338498000"
},
"geometry":{
"type":"Point",
"coordinates":[
140.74338498,
40.80724216
]
}
},
{
"type":"Feature",
"properties":{
"Name":"奥野中央公園",
"Jusho":"青森県青森市緑二丁目17",
"Capacity":"－",
"la":"40.80737152000",
"ln":"140.74986038000"
},
"geometry":{
"type":"Point",
"coordinates":[
140.74986038,
40.80737152
]
}
},
{
"type":"Feature",
"properties":{
"Name":"奥野北公園",
"Jusho":"青森県青森市桂木三丁目21",
"Capacity":"－",
"la":"40.81131271000",
"ln":"140.74963871000"
},
"geometry":{
"type":"Point",
"coordinates":[
140.74963871,
40.81131271
]
}
},
{
"type":"Feature",
"properties":{
"Name":"花園町公園",
"Jusho":"青森県青森市花園二丁目3",
"Capacity":"－",
"la":"40.82347351000",
"ln":"140.77002442000"
},
"geometry":{
"type":"Point",
"coordinates":[
140.77002442,
40.82347351
]
}
},
{
"type":"Feature",
"properties":{
"Name":"花岡公園",
"Jusho":"青森県青森市浪岡女鹿沢字野尻28-3",
"Capacity":"－",
"la":"40.71166226000",
"ln":"140.57333700000"
},
"geometry":{
"type":"Point",
"coordinates":[
140.573337,
40.71166226
]
}
},
{
"type":"Feature",
"properties":{
"Name":"京王台公園",
"Jusho":"青森県青森市筒井字八ッ橋973他",
"Capacity":"－",
"la":"40.79911805000",
"ln":"140.76803894000"
},
"geometry":{
"type":"Point",
"coordinates":[
140.76803894,
40.79911805
]
}
},
{
"type":"Feature",
"properties":{
"Name":"橋本公園",
"Jusho":"青森県青森市橋本三丁目22",
"Capacity":"－",
"la":"40.81926348000",
"ln":"140.75447693000"
},
"geometry":{
"type":"Point",
"coordinates":[
140.75447693,
40.81926348
]
}
},
{
"type":"Feature",
"properties":{
"Name":"郷山前農村公園",
"Jusho":"青森県青森市浪岡郷山前字上野30－",
"Capacity":"－",
"la":"40.71566490930",
"ln":"140.55267424300"
},
"geometry":{
"type":"Point",
"coordinates":[
140.552674243,
40.7156649093
]
}
},
{
"type":"Feature",
"properties":{
"Name":"桐ノ沢公園",
"Jusho":"青森県青森市駒込字桐ノ沢3－",
"Capacity":"－",
"la":"40.79956479000",
"ln":"140.77987821000"
},
"geometry":{
"type":"Point",
"coordinates":[
140.77987821,
40.79956479
]
}
},
{
"type":"Feature",
"properties":{
"Name":"戸山西公園",
"Jusho":"青森県青森市駒込字蛍沢17－8",
"Capacity":"－",
"la":"40.80041442000",
"ln":"140.79994901000"
},
"geometry":{
"type":"Point",
"coordinates":[
140.79994901,
40.80041442
]
}
},
{
"type":"Feature",
"properties":{
"Name":"戸山中央公園",
"Jusho":"青森県青森市駒込字蛍沢48－88",
"Capacity":"－",
"la":"40.79783855000",
"ln":"140.80535282000"
},
"geometry":{
"type":"Point",
"coordinates":[
140.80535282,
40.79783855
]
}
},
{
"type":"Feature",
"properties":{
"Name":"戸山東公園",
"Jusho":"青森県青森市駒込字蛍沢59-65",
"Capacity":"－",
"la":"40.79802134000",
"ln":"140.81174402000"
},
"geometry":{
"type":"Point",
"coordinates":[
140.81174402,
40.79802134
]
}
},
{
"type":"Feature",
"properties":{
"Name":"戸山南公園",
"Jusho":"青森県青森市駒込字蛍沢48-26他",
"Capacity":"－",
"la":"40.79531893000",
"ln":"140.80455679000"
},
"geometry":{
"type":"Point",
"coordinates":[
140.80455679,
40.79531893
]
}
},
{
"type":"Feature",
"properties":{
"Name":"戸山北公園",
"Jusho":"青森県青森市戸山字赤坂78-26",
"Capacity":"－",
"la":"40.80134803000",
"ln":"140.81135366000"
},
"geometry":{
"type":"Point",
"coordinates":[
140.81135366,
40.80134803
]
}
},
{
"type":"Feature",
"properties":{
"Name":"午砲台公園",
"Jusho":"青森県青森市桂木二丁目3",
"Capacity":"－",
"la":"40.81222697000",
"ln":"140.74484784000"
},
"geometry":{
"type":"Point",
"coordinates":[
140.74484784,
40.81222697
]
}
},
{
"type":"Feature",
"properties":{
"Name":"幸畑ひばりヶ丘公園",
"Jusho":"青森県青森市幸畑四丁目12",
"Capacity":"－",
"la":"40.77894733000",
"ln":"140.78728176000"
},
"geometry":{
"type":"Point",
"coordinates":[
140.78728176,
40.77894733
]
}
},
{
"type":"Feature",
"properties":{
"Name":"幸畑西公園",
"Jusho":"青森県青森市幸畑一丁目15",
"Capacity":"－",
"la":"40.78074460000",
"ln":"140.77866383000"
},
"geometry":{
"type":"Point",
"coordinates":[
140.77866383,
40.7807446
]
}
},
{
"type":"Feature",
"properties":{
"Name":"幸畑中央公園",
"Jusho":"青森県青森市幸畑三丁目1",
"Capacity":"－",
"la":"40.78136875000",
"ln":"140.78274864000"
},
"geometry":{
"type":"Point",
"coordinates":[
140.78274864,
40.78136875
]
}
},
{
"type":"Feature",
"properties":{
"Name":"合浦公園",
"Jusho":"青森県青森市合浦二丁目16他",
"Capacity":"－",
"la":"40.82978470000",
"ln":"140.77858609000"
},
"geometry":{
"type":"Point",
"coordinates":[
140.77858609,
40.8297847
]
}
},
{
"type":"Feature",
"properties":{
"Name":"桜川中央公園",
"Jusho":"青森県青森市桜川四丁目1296",
"Capacity":"－",
"la":"40.81354424000",
"ln":"140.77141291000"
},
"geometry":{
"type":"Point",
"coordinates":[
140.77141291,
40.81354424
]
}
},
{
"type":"Feature",
"properties":{
"Name":"自由ヶ丘西公園",
"Jusho":"青森県青森市自由ヶ丘一丁目4",
"Capacity":"－",
"la":"40.81503726000",
"ln":"140.79609132000"
},
"geometry":{
"type":"Point",
"coordinates":[
140.79609132,
40.81503726
]
}
},
{
"type":"Feature",
"properties":{
"Name":"自由ヶ丘中央公園",
"Jusho":"青森県青森市自由ヶ丘二丁目11",
"Capacity":"－",
"la":"40.81460982000",
"ln":"140.79988777000"
},
"geometry":{
"type":"Point",
"coordinates":[
140.79988777,
40.81460982
]
}
},
{
"type":"Feature",
"properties":{
"Name":"女鹿沢児童公園",
"Jusho":"青森県青森市浪岡女鹿沢字東富田57-3",
"Capacity":"－",
"la":"40.70413599000",
"ln":"140.57793982000"
},
"geometry":{
"type":"Point",
"coordinates":[
140.57793982,
40.70413599
]
}
},
{
"type":"Feature",
"properties":{
"Name":"勝田公園",
"Jusho":"青森県青森市勝田二丁目10",
"Capacity":"－",
"la":"40.81771436000",
"ln":"140.75743797000"
},
"geometry":{
"type":"Point",
"coordinates":[
140.75743797,
40.81771436
]
}
},
{
"type":"Feature",
"properties":{
"Name":"松原公園",
"Jusho":"青森県青森市松原三丁目9",
"Capacity":"－",
"la":"40.81666519000",
"ln":"140.76213870000"
},
"geometry":{
"type":"Point",
"coordinates":[
140.7621387,
40.81666519
]
}
},
{
"type":"Feature",
"properties":{
"Name":"新青森県総合運動公園",
"Jusho":"青森県青森市大字宮田字高瀬地",
"Capacity":"－",
"la":"40.84230726000",
"ln":"140.84242034000"
},
"geometry":{
"type":"Point",
"coordinates":[
140.84242034,
40.84230726
]
}
},
{
"type":"Feature",
"properties":{
"Name":"杉沢農村公園",
"Jusho":"青森県青森市浪岡高屋敷字後田32－",
"Capacity":"－",
"la":"40.73084825300",
"ln":"140.58694428400"
},
"geometry":{
"type":"Point",
"coordinates":[
140.586944284,
40.730848253
]
}
},
{
"type":"Feature",
"properties":{
"Name":"西山公園",
"Jusho":"青森県青森市浪岡女鹿沢字野尻14－42",
"Capacity":"－",
"la":"40.72043985740",
"ln":"140.57902392100"
},
"geometry":{
"type":"Point",
"coordinates":[
140.579023921,
40.7204398574
]
}
},
{
"type":"Feature",
"properties":{
"Name":"西部工業団地公園",
"Jusho":"青森県青森市三内字丸山394－01",
"Capacity":"－",
"la":"40.80545578000",
"ln":"140.68712521000"
},
"geometry":{
"type":"Point",
"coordinates":[
140.68712521,
40.80545578
]
}
},
{
"type":"Feature",
"properties":{
"Name":"青い森公園",
"Jusho":"青森県青森市長島一丁目2",
"Capacity":"－",
"la":"40.82422040000",
"ln":"140.74188171000"
},
"geometry":{
"type":"Point",
"coordinates":[
140.74188171,
40.8242204
]
}
},
{
"type":"Feature",
"properties":{
"Name":"青森県総合運動公園",
"Jusho":"青森県青森市安田字近野234-7他",
"Capacity":"－",
"la":"40.80655601000",
"ln":"140.70476224000"
},
"geometry":{
"type":"Point",
"coordinates":[
140.70476224,
40.80655601
]
}
},
{
"type":"Feature",
"properties":{
"Name":"大杉公園",
"Jusho":"青森県青森市浪岡高屋敷字安田35－",
"Capacity":"－",
"la":"40.74039185000",
"ln":"140.58657445000"
},
"geometry":{
"type":"Point",
"coordinates":[
140.58657445,
40.74039185
]
}
},
{
"type":"Feature",
"properties":{
"Name":"大野公園",
"Jusho":"青森県青森市大野字若宮76",
"Capacity":"－",
"la":"40.80483502000",
"ln":"140.73436842000"
},
"geometry":{
"type":"Point",
"coordinates":[
140.73436842,
40.80483502
]
}
},
{
"type":"Feature",
"properties":{
"Name":"茶屋町公園",
"Jusho":"青森県青森市茶屋町32",
"Capacity":"－",
"la":"40.82730216000",
"ln":"140.76739790000"
},
"geometry":{
"type":"Point",
"coordinates":[
140.7673979,
40.82730216
]
}
},
{
"type":"Feature",
"properties":{
"Name":"中央西公園",
"Jusho":"青森県青森市中央二丁目17",
"Capacity":"－",
"la":"40.81891793000",
"ln":"140.75016654000"
},
"geometry":{
"type":"Point",
"coordinates":[
140.75016654,
40.81891793
]
}
},
{
"type":"Feature",
"properties":{
"Name":"東希望公園",
"Jusho":"青森県青森市新城字山田339-74他",
"Capacity":"－",
"la":"40.82771188000",
"ln":"140.66224202000"
},
"geometry":{
"type":"Point",
"coordinates":[
140.66224202,
40.82771188
]
}
},
{
"type":"Feature",
"properties":{
"Name":"虹ヶ丘公園",
"Jusho":"青森県青森市虹ヶ丘一丁目9",
"Capacity":"－",
"la":"40.81189897000",
"ln":"140.79322868000"
},
"geometry":{
"type":"Point",
"coordinates":[
140.79322868,
40.81189897
]
}
},
{
"type":"Feature",
"properties":{
"Name":"八ッ橋ニュータウン中央公園",
"Jusho":"青森県青森市筒井字八ッ橋53-4他",
"Capacity":"－",
"la":"40.79725129000",
"ln":"140.76798929000"
},
"geometry":{
"type":"Point",
"coordinates":[
140.76798929,
40.79725129
]
}
},
{
"type":"Feature",
"properties":{
"Name":"八ツ役北公園",
"Jusho":"青森県青森市八ツ役字矢作1-44",
"Capacity":"－",
"la":"40.79377509000",
"ln":"140.75324733000"
},
"geometry":{
"type":"Point",
"coordinates":[
140.75324733,
40.79377509
]
}
},
{
"type":"Feature",
"properties":{
"Name":"美人川公園",
"Jusho":"青森県青森市浪岡五本松字羽黒平9-2",
"Capacity":"－",
"la":"40.72595387000",
"ln":"140.62142174000"
},
"geometry":{
"type":"Point",
"coordinates":[
140.62142174,
40.72595387
]
}
},
{
"type":"Feature",
"properties":{
"Name":"平川児童公園",
"Jusho":"青森県青森市浪岡浪岡字平野202-2",
"Capacity":"－",
"la":"40.71380793000",
"ln":"140.58591704000"
},
"geometry":{
"type":"Point",
"coordinates":[
140.58591704,
40.71380793
]
}
},
{
"type":"Feature",
"properties":{
"Name":"平和公園",
"Jusho":"青森県青森市勝田二丁目14",
"Capacity":"－",
"la":"40.82038180000",
"ln":"140.75664026000"
},
"geometry":{
"type":"Point",
"coordinates":[
140.75664026,
40.8203818
]
}
},
{
"type":"Feature",
"properties":{
"Name":"北金沢公園",
"Jusho":"青森県青森市北金沢二丁目4",
"Capacity":"－",
"la":"40.81897417000",
"ln":"140.73187317000"
},
"geometry":{
"type":"Point",
"coordinates":[
140.73187317,
40.81897417
]
}
},
{
"type":"Feature",
"properties":{
"Name":"本町公園",
"Jusho":"青森県青森市本町一丁目1他",
"Capacity":"－",
"la":"40.82404492360",
"ln":"140.74736487600"
},
"geometry":{
"type":"Point",
"coordinates":[
140.747364876,
40.8240449236
]
}
},
{
"type":"Feature",
"properties":{
"Name":"鳴滝公園",
"Jusho":"青森県青森市大野字鳴滝64-57他",
"Capacity":"－",
"la":"40.80685981000",
"ln":"140.72563599000"
},
"geometry":{
"type":"Point",
"coordinates":[
140.72563599,
40.80685981
]
}
},
{
"type":"Feature",
"properties":{
"Name":"野沢公園",
"Jusho":"青森県青森市浪岡樽沢字村元382",
"Capacity":"－",
"la":"40.71305932000",
"ln":"140.56319530000"
},
"geometry":{
"type":"Point",
"coordinates":[
140.5631953,
40.71305932
]
}
},
{
"type":"Feature",
"properties":{
"Name":"野木中央公園",
"Jusho":"青森県青森市野木字山口15－0",
"Capacity":"－",
"la":"40.76601632000",
"ln":"140.74701878000"
},
"geometry":{
"type":"Point",
"coordinates":[
140.74701878,
40.76601632
]
}
},
{
"type":"Feature",
"properties":{
"Name":"野木和公園",
"Jusho":"青森県青森市羽白字野木和58-3他",
"Capacity":"－",
"la":"40.84952146000",
"ln":"140.67460129000"
},
"geometry":{
"type":"Point",
"coordinates":[
140.67460129,
40.84952146
]
}
},
{
"type":"Feature",
"properties":{
"Name":"緑ヶ丘東公園",
"Jusho":"青森県青森市新城字平岡109番地421外",
"Capacity":"－",
"la":"40.82193304000",
"ln":"140.67240065000"
},
"geometry":{
"type":"Point",
"coordinates":[
140.67240065,
40.82193304
]
}
},
{
"type":"Feature",
"properties":{
"Name":"緑道公園",
"Jusho":"青森県青森市浪岡浪岡字細田131-4他",
"Capacity":"－",
"la":"40.71252566910",
"ln":"140.58871477800"
},
"geometry":{
"type":"Point",
"coordinates":[
140.588714778,
40.7125256691
]
}
},
{
"type":"Feature",
"properties":{
"Name":"浪岡総合公園",
"Jusho":"青森県青森市浪岡浪岡字稲盛6",
"Capacity":"－",
"la":"40.70350458000",
"ln":"140.58756172000"
},
"geometry":{
"type":"Point",
"coordinates":[
140.58756172,
40.70350458
]
}
},
{
"type":"Feature",
"properties":{
"Name":"あけぼの児童公園",
"Jusho":"青森県弘前市桔梗野三丁目",
"Capacity":"－",
"la":"40.59050703000",
"ln":"140.46105473000"
},
"geometry":{
"type":"Point",
"coordinates":[
140.46105473,
40.59050703
]
}
},
{
"type":"Feature",
"properties":{
"Name":"おおまち森の公園",
"Jusho":"青森県弘前市大町一丁目103-3",
"Capacity":"－",
"la":"40.59604910520",
"ln":"140.48389673700"
},
"geometry":{
"type":"Point",
"coordinates":[
140.483896737,
40.5960491052
]
}
},
{
"type":"Feature",
"properties":{
"Name":"オオヤマザクラ公園",
"Jusho":"青森県弘前市大町二丁目103－",
"Capacity":"－",
"la":"40.59458760530",
"ln":"140.47974207100"
},
"geometry":{
"type":"Point",
"coordinates":[
140.479742071,
40.5945876053
]
}
},
{
"type":"Feature",
"properties":{
"Name":"グリーン児童公園",
"Jusho":"青森県弘前市青樹町19－",
"Capacity":"－",
"la":"40.57869297690",
"ln":"140.43792588400"
},
"geometry":{
"type":"Point",
"coordinates":[
140.437925884,
40.5786929769
]
}
},
{
"type":"Feature",
"properties":{
"Name":"ふじの公園",
"Jusho":"青森県弘前市藤野一丁目",
"Capacity":"－",
"la":"40.62262725000",
"ln":"140.46616638000"
},
"geometry":{
"type":"Point",
"coordinates":[
140.46616638,
40.62262725
]
}
},
{
"type":"Feature",
"properties":{
"Name":"旭ヶ丘児童公園",
"Jusho":"青森県弘前市旭ヶ丘二丁目",
"Capacity":"－",
"la":"40.58144523000",
"ln":"140.46029198000"
},
"geometry":{
"type":"Point",
"coordinates":[
140.46029198,
40.58144523
]
}
},
{
"type":"Feature",
"properties":{
"Name":"安原公園",
"Jusho":"青森県弘前市泉野三丁目",
"Capacity":"－",
"la":"40.57551525000",
"ln":"140.49472908000"
},
"geometry":{
"type":"Point",
"coordinates":[
140.49472908,
40.57551525
]
}
},
{
"type":"Feature",
"properties":{
"Name":"安原第一児童公園",
"Jusho":"青森県弘前市安原二丁目",
"Capacity":"－",
"la":"40.57732550000",
"ln":"140.48656641000"
},
"geometry":{
"type":"Point",
"coordinates":[
140.48656641,
40.5773255
]
}
},
{
"type":"Feature",
"properties":{
"Name":"安原第二児童公園",
"Jusho":"青森県弘前市安原三丁目",
"Capacity":"－",
"la":"40.57459711000",
"ln":"140.48743922000"
},
"geometry":{
"type":"Point",
"coordinates":[
140.48743922,
40.57459711
]
}
},
{
"type":"Feature",
"properties":{
"Name":"駅前第四児童公園",
"Jusho":"青森県弘前市大町三丁目",
"Capacity":"－",
"la":"40.59787893000",
"ln":"140.47750322000"
},
"geometry":{
"type":"Point",
"coordinates":[
140.47750322,
40.59787893
]
}
},
{
"type":"Feature",
"properties":{
"Name":"駅前第二児童公園",
"Jusho":"青森県弘前市大町一丁目",
"Capacity":"－",
"la":"40.59572598000",
"ln":"140.48367285000"
},
"geometry":{
"type":"Point",
"coordinates":[
140.48367285,
40.59572598
]
}
},
{
"type":"Feature",
"properties":{
"Name":"賀田西公園",
"Jusho":"青森県弘前市賀田一丁目",
"Capacity":"－",
"la":"40.61663168000",
"ln":"140.41670916000"
},
"geometry":{
"type":"Point",
"coordinates":[
140.41670916,
40.61663168
]
}
},
{
"type":"Feature",
"properties":{
"Name":"賀田南公園",
"Jusho":"青森県弘前市賀田二丁目",
"Capacity":"－",
"la":"40.61444090000",
"ln":"140.41979209000"
},
"geometry":{
"type":"Point",
"coordinates":[
140.41979209,
40.6144409
]
}
},
{
"type":"Feature",
"properties":{
"Name":"岩賀公園",
"Jusho":"青森県弘前市岩賀一丁目",
"Capacity":"－",
"la":"40.64431158000",
"ln":"140.48172800000"
},
"geometry":{
"type":"Point",
"coordinates":[
140.481728,
40.64431158
]
}
},
{
"type":"Feature",
"properties":{
"Name":"岩木山総合公園",
"Jusho":"青森県弘前市百沢字裾野195－",
"Capacity":"－",
"la":"40.61424291000",
"ln":"140.30364880000"
},
"geometry":{
"type":"Point",
"coordinates":[
140.3036488,
40.61424291
]
}
},
{
"type":"Feature",
"properties":{
"Name":"宮園公園",
"Jusho":"青森県弘前市青山二丁目",
"Capacity":"－",
"la":"40.62247704000",
"ln":"140.48178212000"
},
"geometry":{
"type":"Point",
"coordinates":[
140.48178212,
40.62247704
]
}
},
{
"type":"Feature",
"properties":{
"Name":"宮園団地第一児童公園",
"Jusho":"青森県弘前市宮園五丁目",
"Capacity":"－",
"la":"40.61852887000",
"ln":"140.47603234000"
},
"geometry":{
"type":"Point",
"coordinates":[
140.47603234,
40.61852887
]
}
},
{
"type":"Feature",
"properties":{
"Name":"宮園団地第二児童公園",
"Jusho":"青森県弘前市宮園四丁目",
"Capacity":"－",
"la":"40.61841189000",
"ln":"140.47902051000"
},
"geometry":{
"type":"Point",
"coordinates":[
140.47902051,
40.61841189
]
}
},
{
"type":"Feature",
"properties":{
"Name":"宮川第五児童公園",
"Jusho":"青森県弘前市宮川三丁目",
"Capacity":"－",
"la":"40.61524436000",
"ln":"140.48767886000"
},
"geometry":{
"type":"Point",
"coordinates":[
140.48767886,
40.61524436
]
}
},
{
"type":"Feature",
"properties":{
"Name":"宮川第三児童公園",
"Jusho":"青森県弘前市田町五丁目",
"Capacity":"－",
"la":"40.61419827000",
"ln":"140.48267000000"
},
"geometry":{
"type":"Point",
"coordinates":[
140.48267,
40.61419827
]
}
},
{
"type":"Feature",
"properties":{
"Name":"宮川第四児童公園",
"Jusho":"青森県弘前市宮川二丁目",
"Capacity":"－",
"la":"40.61276973000",
"ln":"140.48655830000"
},
"geometry":{
"type":"Point",
"coordinates":[
140.4865583,
40.61276973
]
}
},
{
"type":"Feature",
"properties":{
"Name":"宮川第六児童公園",
"Jusho":"青森県弘前市堅田二丁目",
"Capacity":"－",
"la":"40.61721507000",
"ln":"140.49143857000"
},
"geometry":{
"type":"Point",
"coordinates":[
140.49143857,
40.61721507
]
}
},
{
"type":"Feature",
"properties":{
"Name":"堅田児童公園",
"Jusho":"青森県弘前市堅田四丁目",
"Capacity":"－",
"la":"40.61432650000",
"ln":"140.49187945000"
},
"geometry":{
"type":"Point",
"coordinates":[
140.49187945,
40.6143265
]
}
},
{
"type":"Feature",
"properties":{
"Name":"広野第一公園",
"Jusho":"青森県弘前市泉野一丁目",
"Capacity":"－",
"la":"40.57497388140",
"ln":"140.48982863000"
},
"geometry":{
"type":"Point",
"coordinates":[
140.48982863,
40.5749738814
]
}
},
{
"type":"Feature",
"properties":{
"Name":"広野第三公園",
"Jusho":"青森県弘前市広野一丁目103番地",
"Capacity":"－",
"la":"40.57011788950",
"ln":"140.49174315000"
},
"geometry":{
"type":"Point",
"coordinates":[
140.49174315,
40.5701178895
]
}
},
{
"type":"Feature",
"properties":{
"Name":"広野第二公園",
"Jusho":"青森県弘前市泉野二丁目",
"Capacity":"－",
"la":"40.57324531680",
"ln":"140.49144389800"
},
"geometry":{
"type":"Point",
"coordinates":[
140.491443898,
40.5732453168
]
}
},
{
"type":"Feature",
"properties":{
"Name":"弘前運動公園",
"Jusho":"青森県弘前市豊田二丁目",
"Capacity":"－",
"la":"40.59138100000",
"ln":"140.50296265000"
},
"geometry":{
"type":"Point",
"coordinates":[
140.50296265,
40.591381
]
}
},
{
"type":"Feature",
"properties":{
"Name":"高田公園",
"Jusho":"青森県弘前市高田一丁目",
"Capacity":"－",
"la":"40.59905188000",
"ln":"140.50035116000"
},
"geometry":{
"type":"Point",
"coordinates":[
140.50035116,
40.59905188
]
}
},
{
"type":"Feature",
"properties":{
"Name":"桜ヶ丘第一児童公園",
"Jusho":"青森県弘前市桜ヶ丘二丁目",
"Capacity":"－",
"la":"40.57304241000",
"ln":"140.44917552000"
},
"geometry":{
"type":"Point",
"coordinates":[
140.44917552,
40.57304241
]
}
},
{
"type":"Feature",
"properties":{
"Name":"桜ヶ丘第三児童公園",
"Jusho":"青森県弘前市桜ヶ丘一丁目",
"Capacity":"－",
"la":"40.57656255000",
"ln":"140.45094897000"
},
"geometry":{
"type":"Point",
"coordinates":[
140.45094897,
40.57656255
]
}
},
{
"type":"Feature",
"properties":{
"Name":"桜ヶ丘第二児童公園",
"Jusho":"青森県弘前市桜ヶ丘三丁目",
"Capacity":"－",
"la":"40.57250681000",
"ln":"140.45145829000"
},
"geometry":{
"type":"Point",
"coordinates":[
140.45145829,
40.57250681
]
}
},
{
"type":"Feature",
"properties":{
"Name":"桜ヶ丘中央公園",
"Jusho":"青森県弘前市桜ヶ丘四丁目",
"Capacity":"－",
"la":"40.57437278000",
"ln":"140.45271235000"
},
"geometry":{
"type":"Point",
"coordinates":[
140.45271235,
40.57437278
]
}
},
{
"type":"Feature",
"properties":{
"Name":"三岳公園",
"Jusho":"青森県弘前市北園一丁目",
"Capacity":"－",
"la":"40.58005958000",
"ln":"140.47930218000"
},
"geometry":{
"type":"Point",
"coordinates":[
140.47930218,
40.58005958
]
}
},
{
"type":"Feature",
"properties":{
"Name":"山崎児童公園",
"Jusho":"青森県弘前市山崎二丁目",
"Capacity":"－",
"la":"40.57670307000",
"ln":"140.46872111000"
},
"geometry":{
"type":"Point",
"coordinates":[
140.46872111,
40.57670307
]
}
},
{
"type":"Feature",
"properties":{
"Name":"寺沢川ふれあい公園",
"Jusho":"青森県弘前市茂森新町四丁目",
"Capacity":"－",
"la":"40.59033744000",
"ln":"140.44810125000"
},
"geometry":{
"type":"Point",
"coordinates":[
140.44810125,
40.59033744
]
}
},
{
"type":"Feature",
"properties":{
"Name":"自由ヶ丘公園",
"Jusho":"青森県弘前市自由ヶ丘一丁目",
"Capacity":"－",
"la":"40.58289453000",
"ln":"140.44797670000"
},
"geometry":{
"type":"Point",
"coordinates":[
140.4479767,
40.58289453
]
}
},
{
"type":"Feature",
"properties":{
"Name":"取上児童公園",
"Jusho":"青森県弘前市清原二丁目",
"Capacity":"－",
"la":"40.58187731000",
"ln":"140.48881780000"
},
"geometry":{
"type":"Point",
"coordinates":[
140.4888178,
40.58187731
]
}
},
{
"type":"Feature",
"properties":{
"Name":"種元公園",
"Jusho":"青森県弘前市田園四丁目",
"Capacity":"－",
"la":"40.60599912790",
"ln":"140.50765751500"
},
"geometry":{
"type":"Point",
"coordinates":[
140.507657515,
40.6059991279
]
}
},
{
"type":"Feature",
"properties":{
"Name":"小沢児童公園",
"Jusho":"青森県弘前市金属町",
"Capacity":"－",
"la":"40.57783230910",
"ln":"140.44172472000"
},
"geometry":{
"type":"Point",
"coordinates":[
140.44172472,
40.5778323091
]
}
},
{
"type":"Feature",
"properties":{
"Name":"小比内公園",
"Jusho":"青森県弘前市川先一丁目",
"Capacity":"－",
"la":"40.59039904000",
"ln":"140.49252852000"
},
"geometry":{
"type":"Point",
"coordinates":[
140.49252852,
40.59039904
]
}
},
{
"type":"Feature",
"properties":{
"Name":"小比内第三児童公園",
"Jusho":"青森県弘前市小比内五丁目",
"Capacity":"－",
"la":"40.58498517000",
"ln":"140.49538941000"
},
"geometry":{
"type":"Point",
"coordinates":[
140.49538941,
40.58498517
]
}
},
{
"type":"Feature",
"properties":{
"Name":"小比内第二児童公園",
"Jusho":"青森県弘前市川先三丁目",
"Capacity":"－",
"la":"40.58645988000",
"ln":"140.49102831000"
},
"geometry":{
"type":"Point",
"coordinates":[
140.49102831,
40.58645988
]
}
},
{
"type":"Feature",
"properties":{
"Name":"松原児童公園",
"Jusho":"青森県弘前市松原東二丁目",
"Capacity":"－",
"la":"40.57428918000",
"ln":"140.48144534000"
},
"geometry":{
"type":"Point",
"coordinates":[
140.48144534,
40.57428918
]
}
},
{
"type":"Feature",
"properties":{
"Name":"上二ツ堤児童公園",
"Jusho":"青森県弘前市城南二丁目",
"Capacity":"－",
"la":"40.58183204000",
"ln":"140.46656762000"
},
"geometry":{
"type":"Point",
"coordinates":[
140.46656762,
40.58183204
]
}
},
{
"type":"Feature",
"properties":{
"Name":"城西住宅団地西部児童公園",
"Jusho":"青森県弘前市城西三丁目",
"Capacity":"－",
"la":"40.60376745910",
"ln":"140.44755897000"
},
"geometry":{
"type":"Point",
"coordinates":[
140.44755897,
40.6037674591
]
}
},
{
"type":"Feature",
"properties":{
"Name":"城西住宅団地中央公園",
"Jusho":"青森県弘前市城西四丁目",
"Capacity":"－",
"la":"40.60429973000",
"ln":"140.45052265000"
},
"geometry":{
"type":"Point",
"coordinates":[
140.45052265,
40.60429973
]
}
},
{
"type":"Feature",
"properties":{
"Name":"城西住宅団地東部児童公園",
"Jusho":"青森県弘前市城西五丁目",
"Capacity":"－",
"la":"40.60357309000",
"ln":"140.45271235000"
},
"geometry":{
"type":"Point",
"coordinates":[
140.45271235,
40.60357309
]
}
},
{
"type":"Feature",
"properties":{
"Name":"城西住宅団地南部児童公園",
"Jusho":"青森県弘前市南城西二丁目",
"Capacity":"－",
"la":"40.60143500910",
"ln":"140.45430930000"
},
"geometry":{
"type":"Point",
"coordinates":[
140.4543093,
40.6014350091
]
}
},
{
"type":"Feature",
"properties":{
"Name":"城西住宅団地北部児童公園",
"Jusho":"青森県弘前市城西二丁目",
"Capacity":"－",
"la":"40.60686299910",
"ln":"140.45030221000"
},
"geometry":{
"type":"Point",
"coordinates":[
140.45030221,
40.6068629991
]
}
},
{
"type":"Feature",
"properties":{
"Name":"城東ふれあい公園",
"Jusho":"青森県弘前市城東５丁目",
"Capacity":"－",
"la":"40.59255058600",
"ln":"140.49278691000"
},
"geometry":{
"type":"Point",
"coordinates":[
140.49278691,
40.592550586
]
}
},
{
"type":"Feature",
"properties":{
"Name":"城東公園",
"Jusho":"青森県弘前市末広四丁目",
"Capacity":"－",
"la":"40.60504887000",
"ln":"140.50330553000"
},
"geometry":{
"type":"Point",
"coordinates":[
140.50330553,
40.60504887
]
}
},
{
"type":"Feature",
"properties":{
"Name":"城東第一児童公園",
"Jusho":"青森県弘前市城東中央二丁目",
"Capacity":"－",
"la":"40.59986564000",
"ln":"140.49040986000"
},
"geometry":{
"type":"Point",
"coordinates":[
140.49040986,
40.59986564
]
}
},
{
"type":"Feature",
"properties":{
"Name":"城東第五児童公園",
"Jusho":"青森県弘前市城東北三丁目",
"Capacity":"－",
"la":"40.60469342000",
"ln":"140.49715161000"
},
"geometry":{
"type":"Point",
"coordinates":[
140.49715161,
40.60469342
]
}
},
{
"type":"Feature",
"properties":{
"Name":"城東第三児童公園",
"Jusho":"青森県弘前市稲田一丁目",
"Capacity":"－",
"la":"40.60227728000",
"ln":"140.48750741000"
},
"geometry":{
"type":"Point",
"coordinates":[
140.48750741,
40.60227728
]
}
},
{
"type":"Feature",
"properties":{
"Name":"城東第四児童公園",
"Jusho":"青森県弘前市外崎二丁目",
"Capacity":"－",
"la":"40.59903183000",
"ln":"140.49695547000"
},
"geometry":{
"type":"Point",
"coordinates":[
140.49695547,
40.59903183
]
}
},
{
"type":"Feature",
"properties":{
"Name":"城東第七児童公園",
"Jusho":"青森県弘前市城東四丁目",
"Capacity":"－",
"la":"40.59440165000",
"ln":"140.49037312000"
},
"geometry":{
"type":"Point",
"coordinates":[
140.49037312,
40.59440165
]
}
},
{
"type":"Feature",
"properties":{
"Name":"城東第十三児童公園",
"Jusho":"青森県弘前市高田五丁目",
"Capacity":"－",
"la":"40.59563383000",
"ln":"140.50625213000"
},
"geometry":{
"type":"Point",
"coordinates":[
140.50625213,
40.59563383
]
}
},
{
"type":"Feature",
"properties":{
"Name":"城東第十二児童公園",
"Jusho":"青森県弘前市高田二丁目",
"Capacity":"－",
"la":"40.59852792000",
"ln":"140.50344087000"
},
"geometry":{
"type":"Point",
"coordinates":[
140.50344087,
40.59852792
]
}
},
{
"type":"Feature",
"properties":{
"Name":"城東第二児童公園",
"Jusho":"青森県弘前市城東中央三丁目",
"Capacity":"－",
"la":"40.60032457000",
"ln":"140.49314085000"
},
"geometry":{
"type":"Point",
"coordinates":[
140.49314085,
40.60032457
]
}
},
{
"type":"Feature",
"properties":{
"Name":"城東第六児童公園",
"Jusho":"青森県弘前市城東三丁目",
"Capacity":"－",
"la":"40.59512874000",
"ln":"140.48766906000"
},
"geometry":{
"type":"Point",
"coordinates":[
140.48766906,
40.59512874
]
}
},
{
"type":"Feature",
"properties":{
"Name":"城北公園",
"Jusho":"青森県弘前市田町三丁目",
"Capacity":"－",
"la":"40.61433550000",
"ln":"140.47818774000"
},
"geometry":{
"type":"Point",
"coordinates":[
140.47818774,
40.6143355
]
}
},
{
"type":"Feature",
"properties":{
"Name":"清原児童公園",
"Jusho":"青森県弘前市清原三丁目",
"Capacity":"－",
"la":"40.57916204000",
"ln":"140.48802935000"
},
"geometry":{
"type":"Point",
"coordinates":[
140.48802935,
40.57916204
]
}
},
{
"type":"Feature",
"properties":{
"Name":"西弘前児童公園",
"Jusho":"青森県弘前市中野一丁目",
"Capacity":"－",
"la":"40.58363654000",
"ln":"140.47213792000"
},
"geometry":{
"type":"Point",
"coordinates":[
140.47213792,
40.58363654
]
}
},
{
"type":"Feature",
"properties":{
"Name":"青山いこい公園",
"Jusho":"青森県弘前市青山一丁目",
"Capacity":"－",
"la":"40.61938932800",
"ln":"140.48165152500"
},
"geometry":{
"type":"Point",
"coordinates":[
140.481651525,
40.619389328
]
}
},
{
"type":"Feature",
"properties":{
"Name":"青山公園",
"Jusho":"青森県弘前市青山五丁目",
"Capacity":"－",
"la":"40.62593990000",
"ln":"140.48088364000"
},
"geometry":{
"type":"Point",
"coordinates":[
140.48088364,
40.6259399
]
}
},
{
"type":"Feature",
"properties":{
"Name":"石渡ふれあい公園",
"Jusho":"青森県弘前市石渡四丁目12－",
"Capacity":"－",
"la":"40.63022875220",
"ln":"140.45888262500"
},
"geometry":{
"type":"Point",
"coordinates":[
140.458882625,
40.6302287522
]
}
},
{
"type":"Feature",
"properties":{
"Name":"石渡児童公園",
"Jusho":"青森県弘前市石渡二丁目",
"Capacity":"－",
"la":"40.62756394000",
"ln":"140.45565961000"
},
"geometry":{
"type":"Point",
"coordinates":[
140.45565961,
40.62756394
]
}
},
{
"type":"Feature",
"properties":{
"Name":"大久保第一公園",
"Jusho":"青森県弘前市大久保字西田",
"Capacity":"－",
"la":"40.63132109000",
"ln":"140.49141010000"
},
"geometry":{
"type":"Point",
"coordinates":[
140.4914101,
40.63132109
]
}
},
{
"type":"Feature",
"properties":{
"Name":"大久保第三公園",
"Jusho":"青森県弘前市大久保字西田",
"Capacity":"－",
"la":"40.62895557000",
"ln":"140.49000539000"
},
"geometry":{
"type":"Point",
"coordinates":[
140.49000539,
40.62895557
]
}
},
{
"type":"Feature",
"properties":{
"Name":"大久保第二公園",
"Jusho":"青森県弘前市大久保字西田",
"Capacity":"－",
"la":"40.62886590000",
"ln":"140.49384113000"
},
"geometry":{
"type":"Point",
"coordinates":[
140.49384113,
40.6288659
]
}
},
{
"type":"Feature",
"properties":{
"Name":"大清水第一公園",
"Jusho":"青森県弘前市大清水一丁目",
"Capacity":"－",
"la":"40.58343177710",
"ln":"140.49280001000"
},
"geometry":{
"type":"Point",
"coordinates":[
140.49280001,
40.5834317771
]
}
},
{
"type":"Feature",
"properties":{
"Name":"大清水第二公園",
"Jusho":"青森県弘前市大清水四丁目103－",
"Capacity":"－",
"la":"40.57903824910",
"ln":"140.49175667000"
},
"geometry":{
"type":"Point",
"coordinates":[
140.49175667,
40.5790382491
]
}
},
{
"type":"Feature",
"properties":{
"Name":"大仏公園",
"Jusho":"青森県弘前市石川字大仏",
"Capacity":"－",
"la":"40.54785841000",
"ln":"140.54388773000"
},
"geometry":{
"type":"Point",
"coordinates":[
140.54388773,
40.54785841
]
}
},
{
"type":"Feature",
"properties":{
"Name":"長山公園",
"Jusho":"青森県弘前市田園二丁目",
"Capacity":"－",
"la":"40.60263100000",
"ln":"140.50593000000"
},
"geometry":{
"type":"Point",
"coordinates":[
140.50593,
40.602631
]
}
},
{
"type":"Feature",
"properties":{
"Name":"長四郎公園",
"Jusho":"青森県弘前市城東北二丁目",
"Capacity":"－",
"la":"40.60370638000",
"ln":"140.49363837000"
},
"geometry":{
"type":"Point",
"coordinates":[
140.49363837,
40.60370638
]
}
},
{
"type":"Feature",
"properties":{
"Name":"天王台公園",
"Jusho":"青森県弘前市千年三丁目",
"Capacity":"－",
"la":"40.56369072000",
"ln":"140.47922340000"
},
"geometry":{
"type":"Point",
"coordinates":[
140.4792234,
40.56369072
]
}
},
{
"type":"Feature",
"properties":{
"Name":"天満宮児童公園",
"Jusho":"青森県弘前市西茂森一丁目1-29",
"Capacity":"－",
"la":"40.60141379910",
"ln":"140.45919619000"
},
"geometry":{
"type":"Point",
"coordinates":[
140.45919619,
40.6014137991
]
}
},
{
"type":"Feature",
"properties":{
"Name":"南大町児童公園",
"Jusho":"青森県弘前市南大町一丁目",
"Capacity":"－",
"la":"40.59334418300",
"ln":"140.48533468900"
},
"geometry":{
"type":"Point",
"coordinates":[
140.485334689,
40.593344183
]
}
},
{
"type":"Feature",
"properties":{
"Name":"八幡町東公園",
"Jusho":"青森県弘前市八幡町三丁目103",
"Capacity":"－",
"la":"40.61695563000",
"ln":"140.48404285000"
},
"geometry":{
"type":"Point",
"coordinates":[
140.48404285,
40.61695563
]
}
},
{
"type":"Feature",
"properties":{
"Name":"浜の町児童公園",
"Jusho":"青森県弘前市浜の町西二丁目",
"Capacity":"－",
"la":"40.62029486000",
"ln":"140.45725829000"
},
"geometry":{
"type":"Point",
"coordinates":[
140.45725829,
40.62029486
]
}
},
{
"type":"Feature",
"properties":{
"Name":"浜の町団地第一児童公園",
"Jusho":"青森県弘前市浜の町東五丁目",
"Capacity":"－",
"la":"40.62183101000",
"ln":"140.46345608000"
},
"geometry":{
"type":"Point",
"coordinates":[
140.46345608,
40.62183101
]
}
},
{
"type":"Feature",
"properties":{
"Name":"浜の町団地第二児童公園",
"Jusho":"青森県弘前市浜の町東四丁目",
"Capacity":"－",
"la":"40.61916619910",
"ln":"140.46377773000"
},
"geometry":{
"type":"Point",
"coordinates":[
140.46377773,
40.6191661991
]
}
},
{
"type":"Feature",
"properties":{
"Name":"富士見児童公園",
"Jusho":"青森県弘前市栄町四丁目",
"Capacity":"－",
"la":"40.61847263000",
"ln":"140.46942835000"
},
"geometry":{
"type":"Point",
"coordinates":[
140.46942835,
40.61847263
]
}
},
{
"type":"Feature",
"properties":{
"Name":"富士見台公園",
"Jusho":"青森県弘前市富士見台一丁目",
"Capacity":"－",
"la":"40.57216324000",
"ln":"140.47389837000"
},
"geometry":{
"type":"Point",
"coordinates":[
140.47389837,
40.57216324
]
}
},
{
"type":"Feature",
"properties":{
"Name":"撫牛子児童公園",
"Jusho":"青森県弘前市神田五丁目",
"Capacity":"－",
"la":"40.62258952000",
"ln":"140.49231803000"
},
"geometry":{
"type":"Point",
"coordinates":[
140.49231803,
40.62258952
]
}
},
{
"type":"Feature",
"properties":{
"Name":"福村公園",
"Jusho":"青森県弘前市早稲田四丁目",
"Capacity":"－",
"la":"40.60468622000",
"ln":"140.51466809000"
},
"geometry":{
"type":"Point",
"coordinates":[
140.51466809,
40.60468622
]
}
},
{
"type":"Feature",
"properties":{
"Name":"福田第一公園",
"Jusho":"青森県弘前市早稲田三丁目",
"Capacity":"－",
"la":"40.59986750040",
"ln":"140.51090649200"
},
"geometry":{
"type":"Point",
"coordinates":[
140.510906492,
40.5998675004
]
}
},
{
"type":"Feature",
"properties":{
"Name":"福田第二公園",
"Jusho":"青森県弘前市早稲田一丁目",
"Capacity":"－",
"la":"40.60538598790",
"ln":"140.51035102700"
},
"geometry":{
"type":"Point",
"coordinates":[
140.510351027,
40.6053859879
]
}
},
{
"type":"Feature",
"properties":{
"Name":"文京公園",
"Jusho":"青森県弘前市文京町8番地15外",
"Capacity":"－",
"la":"40.58581278250",
"ln":"140.47182197600"
},
"geometry":{
"type":"Point",
"coordinates":[
140.471821976,
40.5858127825
]
}
},
{
"type":"Feature",
"properties":{
"Name":"豊川公園",
"Jusho":"青森県弘前市田園五丁目",
"Capacity":"－",
"la":"40.60949834720",
"ln":"140.50624982600"
},
"geometry":{
"type":"Point",
"coordinates":[
140.506249826,
40.6094983472
]
}
},
{
"type":"Feature",
"properties":{
"Name":"北園児童公園",
"Jusho":"青森県弘前市北園二丁目",
"Capacity":"－",
"la":"40.58236989000",
"ln":"140.48205114000"
},
"geometry":{
"type":"Point",
"coordinates":[
140.48205114,
40.58236989
]
}
},
{
"type":"Feature",
"properties":{
"Name":"北和徳工業団地レクリェーション公園",
"Jusho":"青森県弘前市清野袋三丁目",
"Capacity":"－",
"la":"40.63724047910",
"ln":"140.47869368000"
},
"geometry":{
"type":"Point",
"coordinates":[
140.47869368,
40.6372404791
]
}
},
{
"type":"Feature",
"properties":{
"Name":"八戸植物公園",
"Jusho":"青森県八戸市十日市字天摩33",
"Capacity":"130",
"la":"40.47604235730",
"ln":"141.51305950800"
},
"geometry":{
"type":"Point",
"coordinates":[
141.513059508,
40.4760423573
]
}
},
{
"type":"Feature",
"properties":{
"Name":"ちとせ１号公園",
"Jusho":"青森県黒石市ちとせ三丁目110",
"Capacity":"－",
"la":"40.63739174000",
"ln":"140.60136484000"
},
"geometry":{
"type":"Point",
"coordinates":[
140.60136484,
40.63739174
]
}
},
{
"type":"Feature",
"properties":{
"Name":"ちとせ２号公園",
"Jusho":"青森県黒石市ちとせ二丁目86",
"Capacity":"－",
"la":"40.63993251000",
"ln":"140.59620789000"
},
"geometry":{
"type":"Point",
"coordinates":[
140.59620789,
40.63993251
]
}
},
{
"type":"Feature",
"properties":{
"Name":"御幸公園",
"Jusho":"青森県黒石市内町31-5",
"Capacity":"－",
"la":"40.64200972000",
"ln":"140.59096000000"
},
"geometry":{
"type":"Point",
"coordinates":[
140.59096,
40.64200972
]
}
},
{
"type":"Feature",
"properties":{
"Name":"黒石運動公園",
"Jusho":"青森県黒石市緑ヶ丘182",
"Capacity":"－",
"la":"40.66887974000",
"ln":"140.59468368000"
},
"geometry":{
"type":"Point",
"coordinates":[
140.59468368,
40.66887974
]
}
},
{
"type":"Feature",
"properties":{
"Name":"神明児童公園",
"Jusho":"青森県黒石市前町34－",
"Capacity":"－",
"la":"40.64060593000",
"ln":"140.59621348000"
},
"geometry":{
"type":"Point",
"coordinates":[
140.59621348,
40.64060593
]
}
},
{
"type":"Feature",
"properties":{
"Name":"浅瀬石児童公園",
"Jusho":"青森県黒石市浅瀬石字村上158-3",
"Capacity":"－",
"la":"40.62842173000",
"ln":"140.61179602000"
},
"geometry":{
"type":"Point",
"coordinates":[
140.61179602,
40.62842173
]
}
},
{
"type":"Feature",
"properties":{
"Name":"浅瀬石川河川公園",
"Jusho":"青森県黒石市袋井一丁目197",
"Capacity":"－",
"la":"40.63958908000",
"ln":"140.59258466000"
},
"geometry":{
"type":"Point",
"coordinates":[
140.59258466,
40.63958908
]
}
},
{
"type":"Feature",
"properties":{
"Name":"竹鼻地区農村公園",
"Jusho":"青森県黒石市竹鼻地区農村公園",
"Capacity":"－",
"la":"40.68316464890",
"ln":"140.61867945500"
},
"geometry":{
"type":"Point",
"coordinates":[
140.618679455,
40.6831646489
]
}
},
{
"type":"Feature",
"properties":{
"Name":"東公園",
"Jusho":"青森県黒石市柵ノ木二丁目54",
"Capacity":"－",
"la":"40.63549468000",
"ln":"140.61113193000"
},
"geometry":{
"type":"Point",
"coordinates":[
140.61113193,
40.63549468
]
}
},
{
"type":"Feature",
"properties":{
"Name":"北美街区公園",
"Jusho":"青森県黒石市北美町三丁目68-5",
"Capacity":"－",
"la":"40.65737044000",
"ln":"140.59896473000"
},
"geometry":{
"type":"Point",
"coordinates":[
140.59896473,
40.65737044
]
}
},
{
"type":"Feature",
"properties":{
"Name":"落合街区公園",
"Jusho":"青森県黒石市袋字富山37-4",
"Capacity":"－",
"la":"40.60479237000",
"ln":"140.67704759000"
},
"geometry":{
"type":"Point",
"coordinates":[
140.67704759,
40.60479237
]
}
},
{
"type":"Feature",
"properties":{
"Name":"かまや児童公園",
"Jusho":"青森県五所川原市字鎌谷町",
"Capacity":"－",
"la":"40.80623538000",
"ln":"140.44978021000"
},
"geometry":{
"type":"Point",
"coordinates":[
140.44978021,
40.80623538
]
}
},
{
"type":"Feature",
"properties":{
"Name":"とがわ児童公園",
"Jusho":"青森県五所川原市字鎌谷町",
"Capacity":"－",
"la":"40.80659533000",
"ln":"140.45317185000"
},
"geometry":{
"type":"Point",
"coordinates":[
140.45317185,
40.80659533
]
}
},
{
"type":"Feature",
"properties":{
"Name":"ひがし児童公園",
"Jusho":"青森県五所川原市字一ツ谷",
"Capacity":"－",
"la":"40.81336079310",
"ln":"140.45397234200"
},
"geometry":{
"type":"Point",
"coordinates":[
140.453972342,
40.8133607931
]
}
},
{
"type":"Feature",
"properties":{
"Name":"ひとつや児童公園",
"Jusho":"青森県五所川原市字一ツ谷",
"Capacity":"－",
"la":"40.81050975000",
"ln":"140.45040873000"
},
"geometry":{
"type":"Point",
"coordinates":[
140.45040873,
40.81050975
]
}
},
{
"type":"Feature",
"properties":{
"Name":"ひなた児童公園",
"Jusho":"青森県五所川原市字一ツ谷",
"Capacity":"－",
"la":"40.81456815000",
"ln":"140.45184366000"
},
"geometry":{
"type":"Point",
"coordinates":[
140.45184366,
40.81456815
]
}
},
{
"type":"Feature",
"properties":{
"Name":"ひまわり児童公園",
"Jusho":"青森県五所川原市字幾世森",
"Capacity":"－",
"la":"40.81916647000",
"ln":"140.45066963000"
},
"geometry":{
"type":"Point",
"coordinates":[
140.45066963,
40.81916647
]
}
},
{
"type":"Feature",
"properties":{
"Name":"ふじうら児童公園",
"Jusho":"青森県五所川原市みどり町八丁目",
"Capacity":"－",
"la":"40.78007626000",
"ln":"140.46264708000"
},
"geometry":{
"type":"Point",
"coordinates":[
140.46264708,
40.78007626
]
}
},
{
"type":"Feature",
"properties":{
"Name":"ふじまき児童公園",
"Jusho":"青森県五所川原市字一ツ谷",
"Capacity":"－",
"la":"40.80981685000",
"ln":"140.45640932000"
},
"geometry":{
"type":"Point",
"coordinates":[
140.45640932,
40.80981685
]
}
},
{
"type":"Feature",
"properties":{
"Name":"ふなはし児童公園",
"Jusho":"青森県五所川原市みどり町三丁目",
"Capacity":"－",
"la":"40.78621335000",
"ln":"140.45521157000"
},
"geometry":{
"type":"Point",
"coordinates":[
140.45521157,
40.78621335
]
}
},
{
"type":"Feature",
"properties":{
"Name":"やなぎぬま近隣公園",
"Jusho":"青森県五所川原市みどり町七丁目",
"Capacity":"－",
"la":"40.78236192000",
"ln":"140.45967051000"
},
"geometry":{
"type":"Point",
"coordinates":[
140.45967051,
40.78236192
]
}
},
{
"type":"Feature",
"properties":{
"Name":"芦野公園",
"Jusho":"青森県五所川原市金木町芦野",
"Capacity":"－",
"la":"40.91119918430",
"ln":"140.45095924800"
},
"geometry":{
"type":"Point",
"coordinates":[
140.450959248,
40.9111991843
]
}
},
{
"type":"Feature",
"properties":{
"Name":"嘉瀬農村公園",
"Jusho":"青森県五所川原市金木町嘉瀬雲雀野351番地",
"Capacity":"－",
"la":"40.87953314080",
"ln":"140.45761824700"
},
"geometry":{
"type":"Point",
"coordinates":[
140.457618247,
40.8795331408
]
}
},
{
"type":"Feature",
"properties":{
"Name":"岩木川河川公園",
"Jusho":"青森県五所川原市岩木川（左岸、右岸）",
"Capacity":"－",
"la":"40.82483091000",
"ln":"140.42227767000"
},
"geometry":{
"type":"Point",
"coordinates":[
140.42227767,
40.82483091
]
}
},
{
"type":"Feature",
"properties":{
"Name":"喜良市農村公園",
"Jusho":"青森県五所川原市金木町喜良市千苅208",
"Capacity":"－",
"la":"40.89282901600",
"ln":"140.48358465500"
},
"geometry":{
"type":"Point",
"coordinates":[
140.483584655,
40.892829016
]
}
},
{
"type":"Feature",
"properties":{
"Name":"菊ケ丘運動公園",
"Jusho":"青森県五所川原市字栄町他3地内",
"Capacity":"－",
"la":"40.79722086000",
"ln":"140.44268180000"
},
"geometry":{
"type":"Point",
"coordinates":[
140.4426818,
40.79722086
]
}
},
{
"type":"Feature",
"properties":{
"Name":"金木運動公園",
"Jusho":"青森県五所川原市金木町川倉",
"Capacity":"－",
"la":"40.91766442870",
"ln":"140.46592701200"
},
"geometry":{
"type":"Point",
"coordinates":[
140.465927012,
40.9176644287
]
}
},
{
"type":"Feature",
"properties":{
"Name":"金木東部農村公園",
"Jusho":"青森県五所川原市金木町芦野318番地",
"Capacity":"－",
"la":"40.90550937760",
"ln":"140.46655694900"
},
"geometry":{
"type":"Point",
"coordinates":[
140.466556949,
40.9055093776
]
}
},
{
"type":"Feature",
"properties":{
"Name":"五所川原運動公園",
"Jusho":"青森県五所川原市飯詰字狐野",
"Capacity":"－",
"la":"40.82180462000",
"ln":"140.49586719000"
},
"geometry":{
"type":"Point",
"coordinates":[
140.49586719,
40.82180462
]
}
},
{
"type":"Feature",
"properties":{
"Name":"更生農村公園",
"Jusho":"青森県五所川原市金木町喜良市",
"Capacity":"－",
"la":"40.90997315090",
"ln":"140.48132728700"
},
"geometry":{
"type":"Point",
"coordinates":[
140.481327287,
40.9099731509
]
}
},
{
"type":"Feature",
"properties":{
"Name":"蒔田農村公園",
"Jusho":"青森県五所川原市金木町蒔田",
"Capacity":"－",
"la":"40.90881193140",
"ln":"140.43191240900"
},
"geometry":{
"type":"Point",
"coordinates":[
140.431912409,
40.9088119314
]
}
},
{
"type":"Feature",
"properties":{
"Name":"松島団地児童公園",
"Jusho":"青森県五所川原市松島町",
"Capacity":"－",
"la":"40.80676685000",
"ln":"140.46027344000"
},
"geometry":{
"type":"Point",
"coordinates":[
140.46027344,
40.80676685
]
}
},
{
"type":"Feature",
"properties":{
"Name":"川倉農村公園",
"Jusho":"青森県五所川原市金木町川倉",
"Capacity":"－",
"la":"40.92850063660",
"ln":"140.45069859500"
},
"geometry":{
"type":"Point",
"coordinates":[
140.450698595,
40.9285006366
]
}
},
{
"type":"Feature",
"properties":{
"Name":"大東ケ丘農村公園",
"Jusho":"青森県五所川原市金木町川倉",
"Capacity":"－",
"la":"40.92081189280",
"ln":"140.48727655100"
},
"geometry":{
"type":"Point",
"coordinates":[
140.487276551,
40.9208118928
]
}
},
{
"type":"Feature",
"properties":{
"Name":"長者森平和公園",
"Jusho":"青森県五所川原市金山字千代鶴",
"Capacity":"－",
"la":"40.81325436460",
"ln":"140.51070724400"
},
"geometry":{
"type":"Point",
"coordinates":[
140.510707244,
40.8132543646
]
}
},
{
"type":"Feature",
"properties":{
"Name":"藤枝農村公園",
"Jusho":"青森県五所川原市金木町藤枝",
"Capacity":"－",
"la":"40.91810101590",
"ln":"140.44318191800"
},
"geometry":{
"type":"Point",
"coordinates":[
140.443181918,
40.9181010159
]
}
},
{
"type":"Feature",
"properties":{
"Name":"平和町児童公園",
"Jusho":"青森県五所川原市字蓮沼",
"Capacity":"－",
"la":"40.80047196000",
"ln":"140.44295097000"
},
"geometry":{
"type":"Point",
"coordinates":[
140.44295097,
40.80047196
]
}
},
{
"type":"Feature",
"properties":{
"Name":"北部公園",
"Jusho":"青森県五所川原市字幾世森",
"Capacity":"－",
"la":"40.82215402000",
"ln":"140.44644787000"
},
"geometry":{
"type":"Point",
"coordinates":[
140.44644787,
40.82215402
]
}
},
{
"type":"Feature",
"properties":{
"Name":"柳町児童公園",
"Jusho":"青森県五所川原市字柳町",
"Capacity":"－",
"la":"40.80530578000",
"ln":"140.44174602000"
},
"geometry":{
"type":"Point",
"coordinates":[
140.44174602,
40.80530578
]
}
},
{
"type":"Feature",
"properties":{
"Name":"狼野長根公園",
"Jusho":"青森県五所川原市持子沢字隠川",
"Capacity":"－",
"la":"40.76099332000",
"ln":"140.54355164000"
},
"geometry":{
"type":"Point",
"coordinates":[
140.54355164,
40.76099332
]
}
},
{
"type":"Feature",
"properties":{
"Name":"あけぼの公園",
"Jusho":"青森県十和田市",
"Capacity":"－",
"la":"40.60650998000",
"ln":"141.22878904000"
},
"geometry":{
"type":"Point",
"coordinates":[
141.22878904,
40.60650998
]
}
},
{
"type":"Feature",
"properties":{
"Name":"ひがしの公園",
"Jusho":"青森県十和田市",
"Capacity":"－",
"la":"40.63122130000",
"ln":"141.22551043000"
},
"geometry":{
"type":"Point",
"coordinates":[
141.22551043,
40.6312213
]
}
},
{
"type":"Feature",
"properties":{
"Name":"栄森公園",
"Jusho":"青森県十和田市",
"Capacity":"－",
"la":"40.65712761000",
"ln":"141.19124398000"
},
"geometry":{
"type":"Point",
"coordinates":[
141.19124398,
40.65712761
]
}
},
{
"type":"Feature",
"properties":{
"Name":"元町公園",
"Jusho":"青森県十和田市",
"Capacity":"－",
"la":"40.62748970000",
"ln":"141.21015502000"
},
"geometry":{
"type":"Point",
"coordinates":[
141.21015502,
40.6274897
]
}
},
{
"type":"Feature",
"properties":{
"Name":"三本木公園",
"Jusho":"青森県十和田市",
"Capacity":"－",
"la":"40.61220613000",
"ln":"141.21104818000"
},
"geometry":{
"type":"Point",
"coordinates":[
141.21104818,
40.61220613
]
}
},
{
"type":"Feature",
"properties":{
"Name":"三木野公園",
"Jusho":"青森県十和田市",
"Capacity":"－",
"la":"40.62079986000",
"ln":"141.22954800000"
},
"geometry":{
"type":"Point",
"coordinates":[
141.229548,
40.62079986
]
}
},
{
"type":"Feature",
"properties":{
"Name":"若葉公園",
"Jusho":"青森県十和田市",
"Capacity":"－",
"la":"40.60921464000",
"ln":"141.19682569000"
},
"geometry":{
"type":"Point",
"coordinates":[
141.19682569,
40.60921464
]
}
},
{
"type":"Feature",
"properties":{
"Name":"小稲公園",
"Jusho":"青森県十和田市",
"Capacity":"－",
"la":"40.60569110000",
"ln":"141.21920707000"
},
"geometry":{
"type":"Point",
"coordinates":[
141.21920707,
40.6056911
]
}
},
{
"type":"Feature",
"properties":{
"Name":"瀬戸山公園",
"Jusho":"青森県十和田市",
"Capacity":"－",
"la":"40.61414985000",
"ln":"141.21910035000"
},
"geometry":{
"type":"Point",
"coordinates":[
141.21910035,
40.61414985
]
}
},
{
"type":"Feature",
"properties":{
"Name":"西金崎公園",
"Jusho":"青森県十和田市",
"Capacity":"－",
"la":"40.61005080000",
"ln":"141.19232792000"
},
"geometry":{
"type":"Point",
"coordinates":[
141.19232792,
40.6100508
]
}
},
{
"type":"Feature",
"properties":{
"Name":"前谷地公園",
"Jusho":"青森県十和田市",
"Capacity":"－",
"la":"40.62516421000",
"ln":"141.22357114000"
},
"geometry":{
"type":"Point",
"coordinates":[
141.22357114,
40.62516421
]
}
},
{
"type":"Feature",
"properties":{
"Name":"太素公園",
"Jusho":"青森県十和田市",
"Capacity":"－",
"la":"40.61658849000",
"ln":"141.21991861000"
},
"geometry":{
"type":"Point",
"coordinates":[
141.21991861,
40.61658849
]
}
},
{
"type":"Feature",
"properties":{
"Name":"大門公園",
"Jusho":"青森県十和田市",
"Capacity":"－",
"la":"40.61944106000",
"ln":"141.21317091000"
},
"geometry":{
"type":"Point",
"coordinates":[
141.21317091,
40.61944106
]
}
},
{
"type":"Feature",
"properties":{
"Name":"中央公園",
"Jusho":"青森県十和田市",
"Capacity":"－",
"la":"40.61038166000",
"ln":"141.20679455000"
},
"geometry":{
"type":"Point",
"coordinates":[
141.20679455,
40.61038166
]
}
},
{
"type":"Feature",
"properties":{
"Name":"東小稲公園",
"Jusho":"青森県十和田市",
"Capacity":"－",
"la":"40.60254157000",
"ln":"141.22443683000"
},
"geometry":{
"type":"Point",
"coordinates":[
141.22443683,
40.60254157
]
}
},
{
"type":"Feature",
"properties":{
"Name":"八甲公園",
"Jusho":"青森県十和田市",
"Capacity":"－",
"la":"40.61519369000",
"ln":"141.20766840000"
},
"geometry":{
"type":"Point",
"coordinates":[
141.2076684,
40.61519369
]
}
},
{
"type":"Feature",
"properties":{
"Name":"北里公園",
"Jusho":"青森県十和田市",
"Capacity":"－",
"la":"40.62121380000",
"ln":"141.23497936000"
},
"geometry":{
"type":"Point",
"coordinates":[
141.23497936,
40.6212138
]
}
},
{
"type":"Feature",
"properties":{
"Name":"こがね公園",
"Jusho":"青森県三沢市堀口二丁目4番",
"Capacity":"10400",
"la":"40.68458961000",
"ln":"141.38108532000"
},
"geometry":{
"type":"Point",
"coordinates":[
141.38108532,
40.68458961
]
}
},
{
"type":"Feature",
"properties":{
"Name":"なかよし公園",
"Jusho":"青森県三沢市中央町二丁目2番1",
"Capacity":"1777",
"la":"40.68367390000",
"ln":"141.36619249000"
},
"geometry":{
"type":"Point",
"coordinates":[
141.36619249,
40.6836739
]
}
},
{
"type":"Feature",
"properties":{
"Name":"ふるさとはまなす公園",
"Jusho":"青森県三沢市庭構1044番",
"Capacity":"19995",
"la":"40.78061200000",
"ln":"141.39749992000"
},
"geometry":{
"type":"Point",
"coordinates":[
141.39749992,
40.780612
]
}
},
{
"type":"Feature",
"properties":{
"Name":"ふるまぎ希望の丘公園",
"Jusho":"青森県三沢市犬落瀬字古間木222番1",
"Capacity":"1986",
"la":"40.67219059460",
"ln":"141.34269094300"
},
"geometry":{
"type":"Point",
"coordinates":[
141.342690943,
40.6721905946
]
}
},
{
"type":"Feature",
"properties":{
"Name":"まきば公園",
"Jusho":"青森県三沢市下久保三丁目11番",
"Capacity":"1400",
"la":"40.68962616000",
"ln":"141.38167945000"
},
"geometry":{
"type":"Point",
"coordinates":[
141.38167945,
40.68962616
]
}
},
{
"type":"Feature",
"properties":{
"Name":"栄公園",
"Jusho":"青森県三沢市松園町三丁目11番",
"Capacity":"2160",
"la":"40.67631372000",
"ln":"141.36293652000"
},
"geometry":{
"type":"Point",
"coordinates":[
141.36293652,
40.67631372
]
}
},
{
"type":"Feature",
"properties":{
"Name":"岡三沢公園",
"Jusho":"青森県三沢市岡三沢三丁目11番13",
"Capacity":"1445",
"la":"40.68817513000",
"ln":"141.37600202000"
},
"geometry":{
"type":"Point",
"coordinates":[
141.37600202,
40.68817513
]
}
},
{
"type":"Feature",
"properties":{
"Name":"下久保公園",
"Jusho":"青森県三沢市下久保二丁目3番",
"Capacity":"1150",
"la":"40.68780393000",
"ln":"141.38368063000"
},
"geometry":{
"type":"Point",
"coordinates":[
141.38368063,
40.68780393
]
}
},
{
"type":"Feature",
"properties":{
"Name":"三沢公園",
"Jusho":"青森県三沢市新町四丁目31番985",
"Capacity":"18013",
"la":"40.67693354000",
"ln":"141.35267860000"
},
"geometry":{
"type":"Point",
"coordinates":[
141.3526786,
40.67693354
]
}
},
{
"type":"Feature",
"properties":{
"Name":"松園公園",
"Jusho":"青森県三沢市松園町一丁目11番3",
"Capacity":"6540",
"la":"40.67670678000",
"ln":"141.37215797000"
},
"geometry":{
"type":"Point",
"coordinates":[
141.37215797,
40.67670678
]
}
},
{
"type":"Feature",
"properties":{
"Name":"上久保公園",
"Jusho":"青森県三沢市大町三丁目9番4",
"Capacity":"1130",
"la":"40.67593937000",
"ln":"141.35950598000"
},
"geometry":{
"type":"Point",
"coordinates":[
141.35950598,
40.67593937
]
}
},
{
"type":"Feature",
"properties":{
"Name":"深谷公園",
"Jusho":"青森県三沢市松園町二丁目20番8",
"Capacity":"1170",
"la":"40.67520796000",
"ln":"141.36804437000"
},
"geometry":{
"type":"Point",
"coordinates":[
141.36804437,
40.67520796
]
}
},
{
"type":"Feature",
"properties":{
"Name":"泉公園",
"Jusho":"青森県三沢市泉町一丁目117番161",
"Capacity":"2474",
"la":"40.66545484000",
"ln":"141.38149327000"
},
"geometry":{
"type":"Point",
"coordinates":[
141.38149327,
40.66545484
]
}
},
{
"type":"Feature",
"properties":{
"Name":"滝ノ沢公園",
"Jusho":"青森県三沢市大町一丁目9番",
"Capacity":"6415",
"la":"40.67927680000",
"ln":"141.35590658000"
},
"geometry":{
"type":"Point",
"coordinates":[
141.35590658,
40.6792768
]
}
},
{
"type":"Feature",
"properties":{
"Name":"中央公園",
"Jusho":"青森県三沢市桜町一丁目1番35",
"Capacity":"10073",
"la":"40.68332980000",
"ln":"141.37076337000"
},
"geometry":{
"type":"Point",
"coordinates":[
141.37076337,
40.6833298
]
}
},
{
"type":"Feature",
"properties":{
"Name":"南公園",
"Jusho":"青森県三沢市松園町二丁目8番11",
"Capacity":"840",
"la":"40.67756921000",
"ln":"141.36685279000"
},
"geometry":{
"type":"Point",
"coordinates":[
141.36685279,
40.67756921
]
}
},
{
"type":"Feature",
"properties":{
"Name":"日の出公園",
"Jusho":"青森県三沢市日の出四丁目94番117",
"Capacity":"1423",
"la":"40.67445216000",
"ln":"141.38406605000"
},
"geometry":{
"type":"Point",
"coordinates":[
141.38406605,
40.67445216
]
}
},
{
"type":"Feature",
"properties":{
"Name":"美野原公園",
"Jusho":"青森県三沢市美野原二丁目13番",
"Capacity":"1090",
"la":"40.68050376000",
"ln":"141.37662461000"
},
"geometry":{
"type":"Point",
"coordinates":[
141.37662461,
40.68050376
]
}
},
{
"type":"Feature",
"properties":{
"Name":"木崎野公園",
"Jusho":"青森県三沢市東町三丁目1番",
"Capacity":"1900",
"la":"40.67595665000",
"ln":"141.37634747000"
},
"geometry":{
"type":"Point",
"coordinates":[
141.37634747,
40.67595665
]
}
},
{
"type":"Feature",
"properties":{
"Name":"緑町公園",
"Jusho":"青森県三沢市緑町一丁目12番",
"Capacity":"1395",
"la":"40.68502559000",
"ln":"141.37496437000"
},
"geometry":{
"type":"Point",
"coordinates":[
141.37496437,
40.68502559
]
}
},
{
"type":"Feature",
"properties":{
"Name":"むつ運動公園",
"Jusho":"青森県むつ市山田町43番1",
"Capacity":"71500",
"la":"41.29288353000",
"ln":"141.17313786000"
},
"geometry":{
"type":"Point",
"coordinates":[
141.17313786,
41.29288353
]
}
},
{
"type":"Feature",
"properties":{
"Name":"むつ北児童公園",
"Jusho":"青森県むつ市柳町二丁目155番",
"Capacity":"1250",
"la":"41.29965701000",
"ln":"141.21258686000"
},
"geometry":{
"type":"Point",
"coordinates":[
141.21258686,
41.29965701
]
}
},
{
"type":"Feature",
"properties":{
"Name":"愛宕山公園",
"Jusho":"青森県むつ市脇野沢瀬野川目1－",
"Capacity":"2000",
"la":"41.14049050720",
"ln":"140.82178489600"
},
"geometry":{
"type":"Point",
"coordinates":[
140.821784896,
41.1404905072
]
}
},
{
"type":"Feature",
"properties":{
"Name":"旭町児童公園",
"Jusho":"青森県むつ市旭町243番1",
"Capacity":"950",
"la":"41.28719611000",
"ln":"141.17751131000"
},
"geometry":{
"type":"Point",
"coordinates":[
141.17751131,
41.28719611
]
}
},
{
"type":"Feature",
"properties":{
"Name":"宇曽利川児童公園",
"Jusho":"青森県むつ市大湊字宇曽利川村42番地",
"Capacity":"1635",
"la":"41.23878104000",
"ln":"141.12663974000"
},
"geometry":{
"type":"Point",
"coordinates":[
141.12663974,
41.23878104
]
}
},
{
"type":"Feature",
"properties":{
"Name":"宇田児童公園",
"Jusho":"青森県むつ市宇田町210番",
"Capacity":"1450",
"la":"41.25630594000",
"ln":"141.14395368000"
},
"geometry":{
"type":"Point",
"coordinates":[
141.14395368,
41.25630594
]
}
},
{
"type":"Feature",
"properties":{
"Name":"横迎町児童公園",
"Jusho":"青森県むつ市横迎町二丁目229番",
"Capacity":"1750",
"la":"41.29419707000",
"ln":"141.22002534000"
},
"geometry":{
"type":"Point",
"coordinates":[
141.22002534,
41.29419707
]
}
},
{
"type":"Feature",
"properties":{
"Name":"金谷公園",
"Jusho":"青森県むつ市金谷一丁目330番1",
"Capacity":"20500",
"la":"41.29535816000",
"ln":"141.20004662000"
},
"geometry":{
"type":"Point",
"coordinates":[
141.20004662,
41.29535816
]
}
},
{
"type":"Feature",
"properties":{
"Name":"小川町児童公園",
"Jusho":"青森県むつ市小川町一丁目416番",
"Capacity":"1300",
"la":"41.29461149970",
"ln":"141.20719561200"
},
"geometry":{
"type":"Point",
"coordinates":[
141.207195612,
41.2946114997
]
}
},
{
"type":"Feature",
"properties":{
"Name":"上町児童公園",
"Jusho":"青森県むつ市大湊上町5番",
"Capacity":"900",
"la":"41.27492193000",
"ln":"141.15499132000"
},
"geometry":{
"type":"Point",
"coordinates":[
141.15499132,
41.27492193
]
}
},
{
"type":"Feature",
"properties":{
"Name":"新町児童公園",
"Jusho":"青森県むつ市新町206番",
"Capacity":"1150",
"la":"41.28992631000",
"ln":"141.20980537000"
},
"geometry":{
"type":"Point",
"coordinates":[
141.20980537,
41.28992631
]
}
},
{
"type":"Feature",
"properties":{
"Name":"水源池公園",
"Jusho":"青森県むつ市宇田町368番",
"Capacity":"28000",
"la":"41.25867960000",
"ln":"141.13990808000"
},
"geometry":{
"type":"Point",
"coordinates":[
141.13990808,
41.2586796
]
}
},
{
"type":"Feature",
"properties":{
"Name":"川守児童公園",
"Jusho":"青森県むつ市川守町20番1",
"Capacity":"1900",
"la":"41.26681188000",
"ln":"141.15098006000"
},
"geometry":{
"type":"Point",
"coordinates":[
141.15098006,
41.26681188
]
}
},
{
"type":"Feature",
"properties":{
"Name":"代官山公園",
"Jusho":"青森県むつ市小川町二丁目57番",
"Capacity":"5500",
"la":"41.29630662000",
"ln":"141.20994203000"
},
"geometry":{
"type":"Point",
"coordinates":[
141.20994203,
41.29630662
]
}
},
{
"type":"Feature",
"properties":{
"Name":"大畑中央公園",
"Jusho":"青森県むつ市大畑町涌舘地内",
"Capacity":"6712",
"la":"41.41088304000",
"ln":"141.15960639000"
},
"geometry":{
"type":"Point",
"coordinates":[
141.15960639,
41.41088304
]
}
},
{
"type":"Feature",
"properties":{
"Name":"中島児童公園",
"Jusho":"青森県むつ市大畑町中島72-2",
"Capacity":"900",
"la":"41.40590664000",
"ln":"141.16928951000"
},
"geometry":{
"type":"Point",
"coordinates":[
141.16928951,
41.40590664
]
}
},
{
"type":"Feature",
"properties":{
"Name":"文京児童公園",
"Jusho":"青森県むつ市文京町224番",
"Capacity":"750",
"la":"41.28594530000",
"ln":"141.16885908000"
},
"geometry":{
"type":"Point",
"coordinates":[
141.16885908,
41.2859453
]
}
},
{
"type":"Feature",
"properties":{
"Name":"柳町児童公園",
"Jusho":"青森県むつ市柳町一丁目296番",
"Capacity":"750",
"la":"41.29727987000",
"ln":"141.21547492000"
},
"geometry":{
"type":"Point",
"coordinates":[
141.21547492,
41.29727987
]
}
},
{
"type":"Feature",
"properties":{
"Name":"あかね公園",
"Jusho":"青森県つがる市木造赤根1番地4",
"Capacity":"－",
"la":"40.81044772940",
"ln":"140.39429173000"
},
"geometry":{
"type":"Point",
"coordinates":[
140.39429173,
40.8104477294
]
}
},
{
"type":"Feature",
"properties":{
"Name":"ふぁみりぃ公園",
"Jusho":"青森県つがる市木造三ツ館寿抱地内",
"Capacity":"－",
"la":"40.79497777650",
"ln":"140.31716869100"
},
"geometry":{
"type":"Point",
"coordinates":[
140.317168691,
40.7949777765
]
}
},
{
"type":"Feature",
"properties":{
"Name":"みどり公園",
"Jusho":"青森県つがる市木造若緑52",
"Capacity":"－",
"la":"40.80785020930",
"ln":"140.38115727400"
},
"geometry":{
"type":"Point",
"coordinates":[
140.381157274,
40.8078502093
]
}
},
{
"type":"Feature",
"properties":{
"Name":"亀ヶ岡公園",
"Jusho":"青森県つがる市木造館岡上沢部地内",
"Capacity":"－",
"la":"40.87778978000",
"ln":"140.31347116000"
},
"geometry":{
"type":"Point",
"coordinates":[
140.31347116,
40.87778978
]
}
},
{
"type":"Feature",
"properties":{
"Name":"銀杏ヶ丘公園",
"Jusho":"青森県つがる市",
"Capacity":"－",
"la":"40.80921251000",
"ln":"140.38759008000"
},
"geometry":{
"type":"Point",
"coordinates":[
140.38759008,
40.80921251
]
}
},
{
"type":"Feature",
"properties":{
"Name":"松原公園",
"Jusho":"青森県つがる市木造照日41番地2、木造野宮57番地3",
"Capacity":"－",
"la":"40.80484337210",
"ln":"140.39346442000"
},
"geometry":{
"type":"Point",
"coordinates":[
140.39346442,
40.8048433721
]
}
},
{
"type":"Feature",
"properties":{
"Name":"吹原農村公園",
"Jusho":"青森県つがる市木造吹原畠元3番地2",
"Capacity":"－",
"la":"40.82173967770",
"ln":"140.31029795100"
},
"geometry":{
"type":"Point",
"coordinates":[
140.310297951,
40.8217396777
]
}
},
{
"type":"Feature",
"properties":{
"Name":"川除農村公園",
"Jusho":"青森県つがる市木造川除栄盛87番地3",
"Capacity":"－",
"la":"40.82764567950",
"ln":"140.40996294700"
},
"geometry":{
"type":"Point",
"coordinates":[
140.409962947,
40.8276456795
]
}
},
{
"type":"Feature",
"properties":{
"Name":"縄文公園",
"Jusho":"青森県つがる市木造房松10",
"Capacity":"－",
"la":"40.80242619890",
"ln":"140.38730378600"
},
"geometry":{
"type":"Point",
"coordinates":[
140.387303786,
40.8024261989
]
}
},
{
"type":"Feature",
"properties":{
"Name":"平滝沼公園",
"Jusho":"青森県つがる市木造館岡上沢部138番地1",
"Capacity":"－",
"la":"40.88010498680",
"ln":"140.31346241200"
},
"geometry":{
"type":"Point",
"coordinates":[
140.313462412,
40.8801049868
]
}
},
{
"type":"Feature",
"properties":{
"Name":"猿賀公園",
"Jusho":"青森県平川市猿賀池上45-3",
"Capacity":"6400",
"la":"40.61741662000",
"ln":"140.56449460000"
},
"geometry":{
"type":"Point",
"coordinates":[
140.5644946,
40.61741662
]
}
},
{
"type":"Feature",
"properties":{
"Name":"児童公園",
"Jusho":"青森県平川市南田中東林元12",
"Capacity":"250",
"la":"40.60917800000",
"ln":"140.59261900000"
},
"geometry":{
"type":"Point",
"coordinates":[
140.592619,
40.609178
]
}
},
{
"type":"Feature",
"properties":{
"Name":"新屋町地区農村公園",
"Jusho":"青森県平川市新屋町松下86－",
"Capacity":"430",
"la":"40.60990324350",
"ln":"140.57618633100"
},
"geometry":{
"type":"Point",
"coordinates":[
140.576186331,
40.6099032435
]
}
},
{
"type":"Feature",
"properties":{
"Name":"中央公園",
"Jusho":"青森県平川市柏木町藤山27-22",
"Capacity":"4200",
"la":"40.58575031000",
"ln":"140.56607188000"
},
"geometry":{
"type":"Point",
"coordinates":[
140.56607188,
40.58575031
]
}
},
{
"type":"Feature",
"properties":{
"Name":"中佐渡地区農村公園",
"Jusho":"青森県平川市長田野田53-2",
"Capacity":"590",
"la":"40.61035318550",
"ln":"140.55951412600"
},
"geometry":{
"type":"Point",
"coordinates":[
140.559514126,
40.6103531855
]
}
},
{
"type":"Feature",
"properties":{
"Name":"日沼地区農村公園",
"Jusho":"青森県平川市日沼高田10－",
"Capacity":"1125",
"la":"40.61886258070",
"ln":"140.52478317000"
},
"geometry":{
"type":"Point",
"coordinates":[
140.52478317,
40.6188625807
]
}
},
{
"type":"Feature",
"properties":{
"Name":"海峡あすなろ公園",
"Jusho":"青森県東津軽郡今別町中沢36－地先",
"Capacity":"－",
"la":"41.17960053060",
"ln":"140.49336313100"
},
"geometry":{
"type":"Point",
"coordinates":[
140.493363131,
41.1796005306
]
}
},
{
"type":"Feature",
"properties":{
"Name":"村元河川公園",
"Jusho":"青森県東津軽郡今別町宮本21地先",
"Capacity":"－",
"la":"41.18245491030",
"ln":"140.49052418500"
},
"geometry":{
"type":"Point",
"coordinates":[
140.490524185,
41.1824549103
]
}
},
{
"type":"Feature",
"properties":{
"Name":"高根農村公園広場",
"Jusho":"青森県東津軽郡蓬田村広瀬字坂元672番地1",
"Capacity":"－",
"la":"41.02349829550",
"ln":"140.61298252200"
},
"geometry":{
"type":"Point",
"coordinates":[
140.612982522,
41.0234982955
]
}
},
{
"type":"Feature",
"properties":{
"Name":"磯山口広やすらぎの丘公園",
"Jusho":"青森県東津軽郡外ヶ浜町字平舘磯山26番地",
"Capacity":"－",
"la":"41.08426116050",
"ln":"140.63304209100"
},
"geometry":{
"type":"Point",
"coordinates":[
140.633042091,
41.0842611605
]
}
},
{
"type":"Feature",
"properties":{
"Name":"一本松地区公園",
"Jusho":"青森県東津軽郡外ヶ浜町字蟹田鰐ヶ淵24番地1",
"Capacity":"－",
"la":"41.04470930000",
"ln":"140.63375294000"
},
"geometry":{
"type":"Point",
"coordinates":[
140.63375294,
41.0447093
]
}
},
{
"type":"Feature",
"properties":{
"Name":"河川公園",
"Jusho":"青森県東津軽郡外ヶ浜町字蟹田川原添地先",
"Capacity":"－",
"la":"41.04528534180",
"ln":"140.63911179200"
},
"geometry":{
"type":"Point",
"coordinates":[
140.639111792,
41.0452853418
]
}
},
{
"type":"Feature",
"properties":{
"Name":"観瀾山公園",
"Jusho":"青森県東津軽郡外ヶ浜町字蟹田小国東小国山",
"Capacity":"－",
"la":"41.05137594250",
"ln":"140.64183589200"
},
"geometry":{
"type":"Point",
"coordinates":[
140.641835892,
41.0513759425
]
}
},
{
"type":"Feature",
"properties":{
"Name":"観瀾山公園海水浴場休憩所２階",
"Jusho":"青森県東津軽郡外ヶ浜町蟹田中師宮本地先",
"Capacity":"－",
"la":"41.05084713720",
"ln":"140.64365411900"
},
"geometry":{
"type":"Point",
"coordinates":[
140.643654119,
41.0508471372
]
}
},
{
"type":"Feature",
"properties":{
"Name":"玉川農村公園",
"Jusho":"青森県東津軽郡外ヶ浜町字平舘野田鳴川607番地",
"Capacity":"－",
"la":"41.13406309180",
"ln":"140.63309358000"
},
"geometry":{
"type":"Point",
"coordinates":[
140.63309358,
41.1340630918
]
}
},
{
"type":"Feature",
"properties":{
"Name":"児童公園",
"Jusho":"青森県東津軽郡外ヶ浜町字蟹田中師川原添地先",
"Capacity":"－",
"la":"41.03867752000",
"ln":"140.64408185000"
},
"geometry":{
"type":"Point",
"coordinates":[
140.64408185,
41.03867752
]
}
},
{
"type":"Feature",
"properties":{
"Name":"平舘農村公園",
"Jusho":"青森県東津軽郡外ヶ浜町字平舘門の沢21番地2",
"Capacity":"－",
"la":"41.16225657420",
"ln":"140.63904311300"
},
"geometry":{
"type":"Point",
"coordinates":[
140.639043113,
41.1622565742
]
}
},
{
"type":"Feature",
"properties":{
"Name":"釣町区域防災公園（天童山公園）施設",
"Jusho":"青森県西津軽郡鰺ヶ沢町舞戸町字小夜616",
"Capacity":"50",
"la":"40.78340516050",
"ln":"140.20299123900"
},
"geometry":{
"type":"Point",
"coordinates":[
140.202991239,
40.7834051605
]
}
},
{
"type":"Feature",
"properties":{
"Name":"岡崎区域防災公園（夕陽ケ丘公園）",
"Jusho":"青森県西津軽郡深浦町大字深浦字岡崎37外",
"Capacity":"1560",
"la":"40.64300807540",
"ln":"139.92006728500"
},
"geometry":{
"type":"Point",
"coordinates":[
139.920067285,
40.6430080754
]
}
},
{
"type":"Feature",
"properties":{
"Name":"人森山町民の森公園",
"Jusho":"青森県西津軽郡深浦町大字深浦字岡崎338地内",
"Capacity":"4545",
"la":"40.63408650910",
"ln":"139.91354817000"
},
"geometry":{
"type":"Point",
"coordinates":[
139.91354817,
40.6340865091
]
}
},
{
"type":"Feature",
"properties":{
"Name":"追良瀬何川公園",
"Jusho":"青森県西津軽郡深浦町大宇追良瀬宇塩見山平248-23地先",
"Capacity":"2484",
"la":"40.68362680260",
"ln":"139.97549246200"
},
"geometry":{
"type":"Point",
"coordinates":[
139.975492462,
40.6836268026
]
}
},
{
"type":"Feature",
"properties":{
"Name":"清川児童公園",
"Jusho":"青森県南津軽郡大鰐町虹貝字清川154－",
"Capacity":"2050",
"la":"40.51897203760",
"ln":"140.56429894900"
},
"geometry":{
"type":"Point",
"coordinates":[
140.564298949,
40.5189720376
]
}
},
{
"type":"Feature",
"properties":{
"Name":"大鰐町総合運動公園",
"Jusho":"青森県南津軽郡大鰐町大鰐字出張沢11-39",
"Capacity":"11422",
"la":"40.50748707500",
"ln":"140.57715048800"
},
"geometry":{
"type":"Point",
"coordinates":[
140.577150488,
40.507487075
]
}
},
{
"type":"Feature",
"properties":{
"Name":"高田農村公園",
"Jusho":"青森県南津軽郡田舎館村大字東光寺字和田五十六番地四号",
"Capacity":"399",
"la":"40.66407329060",
"ln":"140.56626567900"
},
"geometry":{
"type":"Point",
"coordinates":[
140.566265679,
40.6640732906
]
}
},
{
"type":"Feature",
"properties":{
"Name":"諏訪堂農村公園",
"Jusho":"青森県南津軽郡田舎館村大字諏訪堂字松岡十二番地一号",
"Capacity":"400",
"la":"40.63128092330",
"ln":"140.52563623200"
},
"geometry":{
"type":"Point",
"coordinates":[
140.525636232,
40.6312809233
]
}
},
{
"type":"Feature",
"properties":{
"Name":"垂柳地区農村公園",
"Jusho":"青森県南津軽郡田舎館村大字垂柳字石森八十番地三号",
"Capacity":"588",
"la":"40.63864082970",
"ln":"140.56679962100"
},
"geometry":{
"type":"Point",
"coordinates":[
140.566799621,
40.6386408297
]
}
},
{
"type":"Feature",
"properties":{
"Name":"川部駅前児童公園",
"Jusho":"青森県南津軽郡田舎館村大字川部字上西田百二十二番地",
"Capacity":"459",
"la":"40.64563644000",
"ln":"140.51818817000"
},
"geometry":{
"type":"Point",
"coordinates":[
140.51818817,
40.64563644
]
}
},
{
"type":"Feature",
"properties":{
"Name":"川部児童公園",
"Jusho":"青森県南津軽郡田舎館村",
"Capacity":"523",
"la":"40.64457460000",
"ln":"140.51990777000"
},
"geometry":{
"type":"Point",
"coordinates":[
140.51990777,
40.6445746
]
}
},
{
"type":"Feature",
"properties":{
"Name":"前田屋敷農村公園",
"Jusho":"青森県南津軽郡田舎館村大字堂野前字西田二十番地一号",
"Capacity":"384",
"la":"40.65153677380",
"ln":"140.55416658000"
},
"geometry":{
"type":"Point",
"coordinates":[
140.55416658,
40.6515367738
]
}
},
{
"type":"Feature",
"properties":{
"Name":"大曲農村公園",
"Jusho":"青森県南津軽郡田舎館村大字大曲字早稲田百十六番地",
"Capacity":"392",
"la":"40.63289719190",
"ln":"140.53630236200"
},
"geometry":{
"type":"Point",
"coordinates":[
140.536302362,
40.6328971919
]
}
},
{
"type":"Feature",
"properties":{
"Name":"大根子農村公園",
"Jusho":"青森県南津軽郡田舎館村大字大根子字宮崎十七番地四号",
"Capacity":"234",
"la":"40.63742198320",
"ln":"140.52014386000"
},
"geometry":{
"type":"Point",
"coordinates":[
140.52014386,
40.6374219832
]
}
},
{
"type":"Feature",
"properties":{
"Name":"大袋農村公園",
"Jusho":"青森県南津軽郡田舎館村大袋字樋田百四十一番地二号",
"Capacity":"400",
"la":"40.62133359120",
"ln":"140.51235239100"
},
"geometry":{
"type":"Point",
"coordinates":[
140.512352391,
40.6213335912
]
}
},
{
"type":"Feature",
"properties":{
"Name":"田舎館街区公園",
"Jusho":"青森県南津軽郡田舎館村大字田舎館字東田二百番地一号",
"Capacity":"284",
"la":"40.63037588090",
"ln":"140.55604716300"
},
"geometry":{
"type":"Point",
"coordinates":[
140.556047163,
40.6303758809
]
}
},
{
"type":"Feature",
"properties":{
"Name":"二津屋農村公園",
"Jusho":"青森県南津軽郡田舎館村大字東光寺字村井六番地一号",
"Capacity":"302",
"la":"40.65831820950",
"ln":"140.55967370900"
},
"geometry":{
"type":"Point",
"coordinates":[
140.559673709,
40.6583182095
]
}
},
{
"type":"Feature",
"properties":{
"Name":"畑中児童公園",
"Jusho":"青森県南津軽郡田舎館村",
"Capacity":"480",
"la":"40.63243238000",
"ln":"140.54081159000"
},
"geometry":{
"type":"Point",
"coordinates":[
140.54081159,
40.63243238
]
}
},
{
"type":"Feature",
"properties":{
"Name":"豊蒔農村公園",
"Jusho":"青森県南津軽郡田舎館村大字豊蒔字南前田三番地三号",
"Capacity":"1408",
"la":"40.63660280030",
"ln":"140.50633951700"
},
"geometry":{
"type":"Point",
"coordinates":[
140.506339517,
40.6366028003
]
}
},
{
"type":"Feature",
"properties":{
"Name":"鶴寿公園",
"Jusho":"青森県北津軽郡鶴田町大字鶴田字早瀬81番地2",
"Capacity":"－",
"la":"40.75515921000",
"ln":"140.42849625000"
},
"geometry":{
"type":"Point",
"coordinates":[
140.42849625,
40.75515921
]
}
},
{
"type":"Feature",
"properties":{
"Name":"七戸町七戸運動公園",
"Jusho":"青森県上北郡七戸町字鶴児平1番地108",
"Capacity":"－",
"la":"40.70519266910",
"ln":"141.12970167000"
},
"geometry":{
"type":"Point",
"coordinates":[
141.12970167,
40.7051926691
]
}
},
{
"type":"Feature",
"properties":{
"Name":"七戸町中央公園",
"Jusho":"青森県上北郡七戸町字中野16番地1",
"Capacity":"－",
"la":"40.73829393230",
"ln":"141.16435320000"
},
"geometry":{
"type":"Point",
"coordinates":[
141.1643532,
40.7382939323
]
}
},
{
"type":"Feature",
"properties":{
"Name":"七戸町天間林運動公園",
"Jusho":"青森県上北郡七戸町字森ノ上16番地4",
"Capacity":"－",
"la":"40.74449664130",
"ln":"141.17045504000"
},
"geometry":{
"type":"Point",
"coordinates":[
141.17045504,
40.7444966413
]
}
},
{
"type":"Feature",
"properties":{
"Name":"倉越児童公園",
"Jusho":"青森県上北郡七戸町字倉越66番地6",
"Capacity":"－",
"la":"40.70365054000",
"ln":"141.15920527000"
},
"geometry":{
"type":"Point",
"coordinates":[
141.15920527,
40.70365054
]
}
},
{
"type":"Feature",
"properties":{
"Name":"天神林児童公園",
"Jusho":"青森県上北郡七戸町字天神林18番地3",
"Capacity":"－",
"la":"40.69136414000",
"ln":"141.15453956000"
},
"geometry":{
"type":"Point",
"coordinates":[
141.15453956,
40.69136414
]
}
},
{
"type":"Feature",
"properties":{
"Name":"柏葉公園",
"Jusho":"青森県上北郡七戸町字町1番地",
"Capacity":"－",
"la":"40.69876443000",
"ln":"141.14978808000"
},
"geometry":{
"type":"Point",
"coordinates":[
141.14978808,
40.69876443
]
}
},
{
"type":"Feature",
"properties":{
"Name":"大石総合運動公園",
"Jusho":"青森県上北郡六ヶ所村大字尾駮字野附521－",
"Capacity":"－",
"la":"40.98125389000",
"ln":"141.33750341000"
},
"geometry":{
"type":"Point",
"coordinates":[
141.33750341,
40.98125389
]
}
},
{
"type":"Feature",
"properties":{
"Name":"いちょう公園交流館",
"Jusho":"青森県上北郡おいらせ町沼端14－65",
"Capacity":"270",
"la":"40.60754024460",
"ln":"141.43937688400"
},
"geometry":{
"type":"Point",
"coordinates":[
141.439376884,
40.6075402446
]
}
},
{
"type":"Feature",
"properties":{
"Name":"いちょう公園体育館",
"Jusho":"青森県上北郡おいらせ町沼端14－61",
"Capacity":"860",
"la":"40.60804800000",
"ln":"141.43785100000"
},
"geometry":{
"type":"Point",
"coordinates":[
141.437851,
40.608048
]
}
},
{
"type":"Feature",
"properties":{
"Name":"一川目児童公園（一川目地区生活会館）",
"Jusho":"青森県上北郡おいらせ町",
"Capacity":"－",
"la":"40.63469045000",
"ln":"141.44191698000"
},
"geometry":{
"type":"Point",
"coordinates":[
141.44191698,
40.63469045
]
}
},
{
"type":"Feature",
"properties":{
"Name":"中央公園",
"Jusho":"青森県上北郡おいらせ町上明堂61番地1号外",
"Capacity":"－",
"la":"40.59454478000",
"ln":"141.42862616000"
},
"geometry":{
"type":"Point",
"coordinates":[
141.42862616,
40.59454478
]
}
},
{
"type":"Feature",
"properties":{
"Name":"明神山公園",
"Jusho":"青森県上北郡おいらせ町",
"Capacity":"－",
"la":"40.60749574000",
"ln":"141.45597269000"
},
"geometry":{
"type":"Point",
"coordinates":[
141.45597269,
40.60749574
]
}
},
{
"type":"Feature",
"properties":{
"Name":"奥戸地区防災公園",
"Jusho":"青森県下北郡大間町大字奥戸字奥戸村53番地2",
"Capacity":"－",
"la":"41.49229070470",
"ln":"140.91018755600"
},
"geometry":{
"type":"Point",
"coordinates":[
140.910187556,
41.4922907047
]
}
},
{
"type":"Feature",
"properties":{
"Name":"向町防災公園",
"Jusho":"青森県下北郡大間町大字奥戸字二ツ石179番地25",
"Capacity":"－",
"la":"41.50223262320",
"ln":"140.91264309600"
},
"geometry":{
"type":"Point",
"coordinates":[
140.912643096,
41.5022326232
]
}
},
{
"type":"Feature",
"properties":{
"Name":"材木防災公園",
"Jusho":"青森県下北郡大間町大字奥戸字八森4番地1",
"Capacity":"－",
"la":"41.46879659560",
"ln":"140.89015266200"
},
"geometry":{
"type":"Point",
"coordinates":[
140.890152662,
41.4687965956
]
}
},
{
"type":"Feature",
"properties":{
"Name":"ひばり野公園スポーツ交流センタ－駐車場・五戸ド－ム駐車場",
"Jusho":"青森県三戸郡五戸町",
"Capacity":"－",
"la":"40.50890899910",
"ln":"141.33053300000"
},
"geometry":{
"type":"Point",
"coordinates":[
141.330533,
40.5089089991
]
}
},
{
"type":"Feature",
"properties":{
"Name":"古川代農村公園",
"Jusho":"青森県三戸郡五戸町大字倉石又重字古川代69番地",
"Capacity":"－",
"la":"40.47543321050",
"ln":"141.20181900000"
},
"geometry":{
"type":"Point",
"coordinates":[
141.201819,
40.4754332105
]
}
},
{
"type":"Feature",
"properties":{
"Name":"手倉橋農村公園",
"Jusho":"青森県三戸郡五戸町",
"Capacity":"－",
"la":"40.45447012810",
"ln":"141.25470630500"
},
"geometry":{
"type":"Point",
"coordinates":[
141.254706305,
40.4544701281
]
}
},
{
"type":"Feature",
"properties":{
"Name":"槍沢・鳥沼新田農村公園",
"Jusho":"青森県三戸郡五戸町大字倉石石沢字槍沢35番地63",
"Capacity":"－",
"la":"40.50117029820",
"ln":"141.29525732700"
},
"geometry":{
"type":"Point",
"coordinates":[
141.295257327,
40.5011702982
]
}
},
{
"type":"Feature",
"properties":{
"Name":"北向農村公園",
"Jusho":"青森県三戸郡五戸町大字倉石又重字北向下モ42番地1",
"Capacity":"－",
"la":"40.48540759500",
"ln":"141.23555480900"
},
"geometry":{
"type":"Point",
"coordinates":[
141.235554809,
40.485407595
]
}
},
{
"type":"Feature",
"properties":{
"Name":"立場公園",
"Jusho":"青森県三戸郡五戸町",
"Capacity":"－",
"la":"40.51624832180",
"ln":"141.30317610200"
},
"geometry":{
"type":"Point",
"coordinates":[
141.303176102,
40.5162483218
]
}
}
]
};