var o={
"type":"FeatureCollection",
"features":[
{
"type":"Feature",
"properties":{
"Name":"１号遊歩道緑地",
"Jusho":"青森県青森市勝田1丁目9",
"Capacity":"－",
"la":"40.81771614000",
"ln":"140.75294235000",
"":""
},
"geometry":{
"type":"Point",
"coordinates":[
140.75294235,
40.81771614
]
}
},
{
"type":"Feature",
"properties":{
"Name":"２号遊歩道緑地",
"Jusho":"青森県青森市造道三丁目～泉野字野脇",
"Capacity":"－",
"la":"40.82925089000",
"ln":"140.78859813000",
"":""
},
"geometry":{
"type":"Point",
"coordinates":[
140.78859813,
40.82925089
]
}
},
{
"type":"Feature",
"properties":{
"Name":"あさむし保育園",
"Jusho":"青森県青森市浅虫字山下143－",
"Capacity":"－",
"la":"40.88722300000",
"ln":"140.86535100000",
"":""
},
"geometry":{
"type":"Point",
"coordinates":[
140.865351,
40.887223
]
}
},
{
"type":"Feature",
"properties":{
"Name":"あすか海岸緑地",
"Jusho":"青森県青森市飛鳥字塩越地内",
"Capacity":"－",
"la":"40.86957189000",
"ln":"140.68577240000",
"":""
},
"geometry":{
"type":"Point",
"coordinates":[
140.6857724,
40.86957189
]
}
},
{
"type":"Feature",
"properties":{
"Name":"おきだて保育園",
"Jusho":"青森県青森市新田二丁目21－8",
"Capacity":"－",
"la":"40.84039100000",
"ln":"140.71394900000",
"":""
},
"geometry":{
"type":"Point",
"coordinates":[
140.713949,
40.840391
]
}
},
{
"type":"Feature",
"properties":{
"Name":"くぐりざか保育園",
"Jusho":"青森県青森市久栗坂字山辺130-4",
"Capacity":"－",
"la":"40.87403471620",
"ln":"140.84960631700",
"":""
},
"geometry":{
"type":"Point",
"coordinates":[
140.849606317,
40.8740347162
]
}
},
{
"type":"Feature",
"properties":{
"Name":"スポーツ会館",
"Jusho":"青森県青森市合浦一丁目13－",
"Capacity":"1065",
"la":"40.82842800000",
"ln":"140.77398800000",
"":""
},
"geometry":{
"type":"Point",
"coordinates":[
140.773988,
40.828428
]
}
},
{
"type":"Feature",
"properties":{
"Name":"つくだウェザーパーク",
"Jusho":"青森県青森市佃二丁目155－6他",
"Capacity":"－",
"la":"40.82005941000",
"ln":"140.77767855000",
"":""
},
"geometry":{
"type":"Point",
"coordinates":[
140.77767855,
40.82005941
]
}
},
{
"type":"Feature",
"properties":{
"Name":"ときわ保育園",
"Jusho":"青森県青森市旭町二丁目11－",
"Capacity":"－",
"la":"40.81489400000",
"ln":"140.73767100000",
"":""
},
"geometry":{
"type":"Point",
"coordinates":[
140.737671,
40.814894
]
}
},
{
"type":"Feature",
"properties":{
"Name":"なごやかプラザ福田",
"Jusho":"青森県青森市浪岡福田二丁目4-3",
"Capacity":"84",
"la":"40.71933928690",
"ln":"140.58434466600",
"":""
},
"geometry":{
"type":"Point",
"coordinates":[
140.584344666,
40.7193392869
]
}
},
{
"type":"Feature",
"properties":{
"Name":"はまなす会館",
"Jusho":"青森県青森市問屋町一丁目10－0",
"Capacity":"412",
"la":"40.78880000000",
"ln":"140.75463800000",
"":""
},
"geometry":{
"type":"Point",
"coordinates":[
140.754638,
40.7888
]
}
},
{
"type":"Feature",
"properties":{
"Name":"ほろがけ福祉館",
"Jusho":"青森県青森市小柳六丁目2-7",
"Capacity":"37",
"la":"40.81853399910",
"ln":"140.78703900000",
"":""
},
"geometry":{
"type":"Point",
"coordinates":[
140.787039,
40.8185339991
]
}
},
{
"type":"Feature",
"properties":{
"Name":"ユーサ浅虫",
"Jusho":"青森県青森市浅虫字蛍谷341－9",
"Capacity":"189",
"la":"40.89148686580",
"ln":"140.86149407200",
"":""
},
"geometry":{
"type":"Point",
"coordinates":[
140.861494072,
40.8914868658
]
}
},
{
"type":"Feature",
"properties":{
"Name":"横内市民センター",
"Jusho":"青森県青森市横内字亀井28-2",
"Capacity":"363",
"la":"40.77781800000",
"ln":"140.76600600000",
"":""
},
"geometry":{
"type":"Point",
"coordinates":[
140.766006,
40.777818
]
}
},
{
"type":"Feature",
"properties":{
"Name":"沖館市民センター",
"Jusho":"青森県青森市沖館一丁目1－1",
"Capacity":"227",
"la":"40.83253400000",
"ln":"140.72451900000",
"":""
},
"geometry":{
"type":"Point",
"coordinates":[
140.724519,
40.832534
]
}
},
{
"type":"Feature",
"properties":{
"Name":"下石川ふれあいセンター",
"Jusho":"青森県青森市浪岡下石川字岡田272",
"Capacity":"71",
"la":"40.73433852750",
"ln":"140.53294948400",
"":""
},
"geometry":{
"type":"Point",
"coordinates":[
140.532949484,
40.7343385275
]
}
},
{
"type":"Feature",
"properties":{
"Name":"花岡集会所",
"Jusho":"青森県青森市浪岡女鹿沢字野尻28-3",
"Capacity":"30",
"la":"40.71099460660",
"ln":"140.57508395600",
"":""
},
"geometry":{
"type":"Point",
"coordinates":[
140.575083956,
40.7109946066
]
}
},
{
"type":"Feature",
"properties":{
"Name":"花岡農村環境改善センター",
"Jusho":"青森県青森市浪岡女鹿沢字野尻14－",
"Capacity":"150",
"la":"40.71199800000",
"ln":"140.57247200000",
"":""
},
"geometry":{
"type":"Point",
"coordinates":[
140.572472,
40.711998
]
}
},
{
"type":"Feature",
"properties":{
"Name":"吉野田児童館",
"Jusho":"青森県青森市浪岡吉野田字木戸口10－",
"Capacity":"73",
"la":"40.72280648840",
"ln":"140.54463734800",
"":""
},
"geometry":{
"type":"Point",
"coordinates":[
140.544637348,
40.7228064884
]
}
},
{
"type":"Feature",
"properties":{
"Name":"吉野田農村センター",
"Jusho":"青森県青森市浪岡吉野田字木戸口10",
"Capacity":"89",
"la":"40.72309800000",
"ln":"140.54460900000",
"":""
},
"geometry":{
"type":"Point",
"coordinates":[
140.544609,
40.723098
]
}
},
{
"type":"Feature",
"properties":{
"Name":"久須志福祉館",
"Jusho":"青森県青森市久須志二丁目9-5",
"Capacity":"42",
"la":"40.81855199910",
"ln":"140.72869100000",
"":""
},
"geometry":{
"type":"Point",
"coordinates":[
140.728691,
40.8185519991
]
}
},
{
"type":"Feature",
"properties":{
"Name":"郷山前農村センター",
"Jusho":"青森県青森市浪岡郷山前字上野62-5",
"Capacity":"80",
"la":"40.71597200000",
"ln":"140.55328500000",
"":""
},
"geometry":{
"type":"Point",
"coordinates":[
140.553285,
40.715972
]
}
},
{
"type":"Feature",
"properties":{
"Name":"勤労青少年ホーム",
"Jusho":"青森県青森市松原一丁目6-3",
"Capacity":"149",
"la":"40.82090999910",
"ln":"140.76033300000",
"":""
},
"geometry":{
"type":"Point",
"coordinates":[
140.760333,
40.8209099991
]
}
},
{
"type":"Feature",
"properties":{
"Name":"戸山市民センター",
"Jusho":"青森県青森市駒込字蛍沢48－90",
"Capacity":"283",
"la":"40.79908300000",
"ln":"140.80457100000",
"":""
},
"geometry":{
"type":"Point",
"coordinates":[
140.804571,
40.799083
]
}
},
{
"type":"Feature",
"properties":{
"Name":"戸山中央緑地",
"Jusho":"青森県青森市戸山字赤坂268－80他",
"Capacity":"－",
"la":"40.79925163000",
"ln":"140.80705587000",
"":""
},
"geometry":{
"type":"Point",
"coordinates":[
140.80705587,
40.79925163
]
}
},
{
"type":"Feature",
"properties":{
"Name":"五本松農村センター",
"Jusho":"青森県青森市浪岡五本松字羽黒平40－",
"Capacity":"89",
"la":"40.72288300000",
"ln":"140.61591100000",
"":""
},
"geometry":{
"type":"Point",
"coordinates":[
140.615911,
40.722883
]
}
},
{
"type":"Feature",
"properties":{
"Name":"幸畑福祉館",
"Jusho":"青森県青森市幸畑二丁目2-2",
"Capacity":"43",
"la":"40.78174400000",
"ln":"140.78229600000",
"":""
},
"geometry":{
"type":"Point",
"coordinates":[
140.782296,
40.781744
]
}
},
{
"type":"Feature",
"properties":{
"Name":"荒川市民センター",
"Jusho":"青森県青森市荒川字柴田129－",
"Capacity":"290",
"la":"40.78523100000",
"ln":"140.73969400000",
"":""
},
"geometry":{
"type":"Point",
"coordinates":[
140.739694,
40.785231
]
}
},
{
"type":"Feature",
"properties":{
"Name":"合浦保育園",
"Jusho":"青森県青森市合浦一丁目4-9",
"Capacity":"－",
"la":"40.82683800000",
"ln":"140.76944600000",
"":""
},
"geometry":{
"type":"Point",
"coordinates":[
140.769446,
40.826838
]
}
},
{
"type":"Feature",
"properties":{
"Name":"国民保養センター花岡荘",
"Jusho":"青森県青森市浪岡女鹿沢字野尻14－",
"Capacity":"75",
"la":"40.71201601600",
"ln":"140.57330981900",
"":""
},
"geometry":{
"type":"Point",
"coordinates":[
140.573309819,
40.712016016
]
}
},
{
"type":"Feature",
"properties":{
"Name":"桜川八甲緑地",
"Jusho":"青森県青森市桜川一丁目1",
"Capacity":"－",
"la":"40.81793932000",
"ln":"140.76746488000",
"":""
},
"geometry":{
"type":"Point",
"coordinates":[
140.76746488,
40.81793932
]
}
},
{
"type":"Feature",
"properties":{
"Name":"桜川福祉館",
"Jusho":"青森県青森市桜川五丁目19-3",
"Capacity":"52",
"la":"40.81315400000",
"ln":"140.77236300000",
"":""
},
"geometry":{
"type":"Point",
"coordinates":[
140.772363,
40.813154
]
}
},
{
"type":"Feature",
"properties":{
"Name":"市民体育館",
"Jusho":"青森県青森市合浦二丁目9－",
"Capacity":"1173",
"la":"40.82778600000",
"ln":"140.77542100000",
"":""
},
"geometry":{
"type":"Point",
"coordinates":[
140.775421,
40.827786
]
}
},
{
"type":"Feature",
"properties":{
"Name":"市民美術展示館",
"Jusho":"青森県青森市新町二丁目7－",
"Capacity":"440",
"la":"40.82627649640",
"ln":"140.74423154300",
"":""
},
"geometry":{
"type":"Point",
"coordinates":[
140.744231543,
40.8262764964
]
}
},
{
"type":"Feature",
"properties":{
"Name":"篠田福祉館",
"Jusho":"青森県青森市篠田二丁目20-25",
"Capacity":"50",
"la":"40.82752900000",
"ln":"140.72436000000",
"":""
},
"geometry":{
"type":"Point",
"coordinates":[
140.72436,
40.827529
]
}
},
{
"type":"Feature",
"properties":{
"Name":"女鹿沢児童館",
"Jusho":"青森県青森市浪岡女鹿沢字東富田57-2",
"Capacity":"37",
"la":"40.70385899910",
"ln":"140.57765900000",
"":""
},
"geometry":{
"type":"Point",
"coordinates":[
140.577659,
40.7038589991
]
}
},
{
"type":"Feature",
"properties":{
"Name":"女鹿沢農村センター",
"Jusho":"青森県青森市浪岡女鹿沢字西花岡35",
"Capacity":"101",
"la":"40.70680700000",
"ln":"140.57911100000",
"":""
},
"geometry":{
"type":"Point",
"coordinates":[
140.579111,
40.706807
]
}
},
{
"type":"Feature",
"properties":{
"Name":"小柳緑地",
"Jusho":"青森県青森市小柳四丁目9",
"Capacity":"－",
"la":"40.81966707000",
"ln":"140.79770175000",
"":""
},
"geometry":{
"type":"Point",
"coordinates":[
140.79770175,
40.81966707
]
}
},
{
"type":"Feature",
"properties":{
"Name":"杉高児童館",
"Jusho":"青森県青森市浪岡高屋敷字後田32",
"Capacity":"201",
"la":"40.73115700000",
"ln":"140.58645400000",
"":""
},
"geometry":{
"type":"Point",
"coordinates":[
140.586454,
40.731157
]
}
},
{
"type":"Feature",
"properties":{
"Name":"瀬戸子グラウンド",
"Jusho":"青森県青森市瀬戸子字神田110－8",
"Capacity":"－",
"la":"40.88332214000",
"ln":"140.66885668900",
"":""
},
"geometry":{
"type":"Point",
"coordinates":[
140.668856689,
40.88332214
]
}
},
{
"type":"Feature",
"properties":{
"Name":"西部市民センター",
"Jusho":"青森県青森市新城字平岡163-22",
"Capacity":"216",
"la":"40.82616100000",
"ln":"140.67813900000",
"":""
},
"geometry":{
"type":"Point",
"coordinates":[
140.678139,
40.826161
]
}
},
{
"type":"Feature",
"properties":{
"Name":"青い森セントラルパーク",
"Jusho":"青森県青森市浦町字橋本他",
"Capacity":"－",
"la":"40.81343818160",
"ln":"140.74796246800",
"":""
},
"geometry":{
"type":"Point",
"coordinates":[
140.747962468,
40.8134381816
]
}
},
{
"type":"Feature",
"properties":{
"Name":"青少年研修センター跡地",
"Jusho":"青森県青森市四戸橋字磯部64-3",
"Capacity":"－",
"la":"40.94708801850",
"ln":"140.65534882800",
"":""
},
"geometry":{
"type":"Point",
"coordinates":[
140.655348828,
40.9470880185
]
}
},
{
"type":"Feature",
"properties":{
"Name":"青森戸山高等学校",
"Jusho":"青森県青森市戸山字安原7－",
"Capacity":"1093",
"la":"40.81128500000",
"ln":"140.79786100000",
"":""
},
"geometry":{
"type":"Point",
"coordinates":[
140.797861,
40.811285
]
}
},
{
"type":"Feature",
"properties":{
"Name":"青森工業高等学校",
"Jusho":"青森県青森市篠田三丁目16－",
"Capacity":"1019",
"la":"40.82878100000",
"ln":"140.72203200000",
"":""
},
"geometry":{
"type":"Point",
"coordinates":[
140.722032,
40.828781
]
}
},
{
"type":"Feature",
"properties":{
"Name":"青森高等学校",
"Jusho":"青森県青森市桜川八丁目1-2",
"Capacity":"991",
"la":"40.80878400000",
"ln":"140.76703000000",
"":""
},
"geometry":{
"type":"Point",
"coordinates":[
140.76703,
40.808784
]
}
},
{
"type":"Feature",
"properties":{
"Name":"青森市民ホール",
"Jusho":"青森県青森市柳川一丁目2－4",
"Capacity":"253",
"la":"40.82666300000",
"ln":"140.73334300000",
"":""
},
"geometry":{
"type":"Point",
"coordinates":[
140.733343,
40.826663
]
}
},
{
"type":"Feature",
"properties":{
"Name":"青森商業高等学校",
"Jusho":"青森県青森市東造道一丁目6－",
"Capacity":"1091",
"la":"40.83211600000",
"ln":"140.79341600000",
"":""
},
"geometry":{
"type":"Point",
"coordinates":[
140.793416,
40.832116
]
}
},
{
"type":"Feature",
"properties":{
"Name":"青森西高等学校",
"Jusho":"青森県青森市新城字平岡266-20",
"Capacity":"1001",
"la":"40.82905800000",
"ln":"140.68453500000",
"":""
},
"geometry":{
"type":"Point",
"coordinates":[
140.684535,
40.829058
]
}
},
{
"type":"Feature",
"properties":{
"Name":"青森中央高等学校",
"Jusho":"青森県青森市浦町字奥野428",
"Capacity":"1142",
"la":"40.80124100000",
"ln":"140.74442600000",
"":""
},
"geometry":{
"type":"Point",
"coordinates":[
140.744426,
40.801241
]
}
},
{
"type":"Feature",
"properties":{
"Name":"青森東高等学校",
"Jusho":"青森県青森市原別三丁目1－",
"Capacity":"1042",
"la":"40.83465900000",
"ln":"140.80555200000",
"":""
},
"geometry":{
"type":"Point",
"coordinates":[
140.805552,
40.834659
]
}
},
{
"type":"Feature",
"properties":{
"Name":"青森南高等学校",
"Jusho":"青森県青森市大野字笹崎6－",
"Capacity":"1079",
"la":"40.80322800000",
"ln":"140.72314500000",
"":""
},
"geometry":{
"type":"Point",
"coordinates":[
140.723145,
40.803228
]
}
},
{
"type":"Feature",
"properties":{
"Name":"青森北高等学校",
"Jusho":"青森県青森市羽白字富田80-7",
"Capacity":"1093",
"la":"40.85044400000",
"ln":"140.68870100000",
"":""
},
"geometry":{
"type":"Point",
"coordinates":[
140.688701,
40.850444
]
}
},
{
"type":"Feature",
"properties":{
"Name":"浅虫緑地",
"Jusho":"青森県青森市浅虫字山下～浅虫字螢谷",
"Capacity":"－",
"la":"40.89049301570",
"ln":"140.86150418200",
"":""
},
"geometry":{
"type":"Point",
"coordinates":[
140.861504182,
40.8904930157
]
}
},
{
"type":"Feature",
"properties":{
"Name":"造道福祉館",
"Jusho":"青森県青森市造道三丁目12-3",
"Capacity":"52",
"la":"40.82974900000",
"ln":"140.78784200000",
"":""
},
"geometry":{
"type":"Point",
"coordinates":[
140.787842,
40.829749
]
}
},
{
"type":"Feature",
"properties":{
"Name":"孫内農村センター",
"Jusho":"青森県青森市孫内字北原140－",
"Capacity":"82",
"la":"40.75856900000",
"ln":"140.63447800000",
"":""
},
"geometry":{
"type":"Point",
"coordinates":[
140.634478,
40.758569
]
}
},
{
"type":"Feature",
"properties":{
"Name":"太陽台市民館",
"Jusho":"青森県青森市高田字朝日山809-334",
"Capacity":"－",
"la":"40.75871462230",
"ln":"140.70978754600",
"":""
},
"geometry":{
"type":"Point",
"coordinates":[
140.709787546,
40.7587146223
]
}
},
{
"type":"Feature",
"properties":{
"Name":"大野市民センター",
"Jusho":"青森県青森市大野字若宮71",
"Capacity":"228",
"la":"40.80451100000",
"ln":"140.73429900000",
"":""
},
"geometry":{
"type":"Point",
"coordinates":[
140.734299,
40.804511
]
}
},
{
"type":"Feature",
"properties":{
"Name":"滝内福祉館",
"Jusho":"青森県青森市三内字稲元122－",
"Capacity":"37",
"la":"40.82130400000",
"ln":"140.70794000000",
"":""
},
"geometry":{
"type":"Point",
"coordinates":[
140.70794,
40.821304
]
}
},
{
"type":"Feature",
"properties":{
"Name":"中央市民センター",
"Jusho":"青森県青森市松原一丁目6－5",
"Capacity":"465",
"la":"40.82071700000",
"ln":"140.76076900000",
"":""
},
"geometry":{
"type":"Point",
"coordinates":[
140.760769,
40.820717
]
}
},
{
"type":"Feature",
"properties":{
"Name":"中央市民センター安田分館",
"Jusho":"青森県青森市安田字近野370-4",
"Capacity":"135",
"la":"40.80174000000",
"ln":"140.71270900000",
"":""
},
"geometry":{
"type":"Point",
"coordinates":[
140.712709,
40.80174
]
}
},
{
"type":"Feature",
"properties":{
"Name":"中央市民センター雲谷分館",
"Jusho":"青森県青森市雲谷字山吹47",
"Capacity":"87",
"la":"40.74600401890",
"ln":"140.78177009200",
"":""
},
"geometry":{
"type":"Point",
"coordinates":[
140.781770092,
40.7460040189
]
}
},
{
"type":"Feature",
"properties":{
"Name":"中央市民センター岡町分館",
"Jusho":"青森県青森市岡町字松本7-4",
"Capacity":"75",
"la":"40.84009300000",
"ln":"140.68367700000",
"":""
},
"geometry":{
"type":"Point",
"coordinates":[
140.683677,
40.840093
]
}
},
{
"type":"Feature",
"properties":{
"Name":"中央市民センター岩渡分館",
"Jusho":"青森県青森市岩渡字熊沢181-2",
"Capacity":"53",
"la":"40.77870673140",
"ln":"140.66755542300",
"":""
},
"geometry":{
"type":"Point",
"coordinates":[
140.667555423,
40.7787067314
]
}
},
{
"type":"Feature",
"properties":{
"Name":"中央市民センター駒込分館",
"Jusho":"青森県青森市駒込字見吉159－",
"Capacity":"94",
"la":"40.79879300000",
"ln":"140.79141900000",
"":""
},
"geometry":{
"type":"Point",
"coordinates":[
140.791419,
40.798793
]
}
},
{
"type":"Feature",
"properties":{
"Name":"中央市民センター戸山分館",
"Jusho":"青森県青森市戸山字赤坂15-5",
"Capacity":"48",
"la":"40.80631200000",
"ln":"140.80312100000",
"":""
},
"geometry":{
"type":"Point",
"coordinates":[
140.803121,
40.806312
]
}
},
{
"type":"Feature",
"properties":{
"Name":"中央市民センター戸門分館",
"Jusho":"青森県青森市戸門字山部106-3",
"Capacity":"79",
"la":"40.80869300000",
"ln":"140.64236800000",
"":""
},
"geometry":{
"type":"Point",
"coordinates":[
140.642368,
40.808693
]
}
},
{
"type":"Feature",
"properties":{
"Name":"中央市民センター後潟分館",
"Jusho":"青森県青森市後潟字平野17-7",
"Capacity":"62",
"la":"40.94219000000",
"ln":"140.66108100000",
"":""
},
"geometry":{
"type":"Point",
"coordinates":[
140.661081,
40.94219
]
}
},
{
"type":"Feature",
"properties":{
"Name":"中央市民センター高田分館",
"Jusho":"青森県青森市高田字日野229－",
"Capacity":"132",
"la":"40.76778900000",
"ln":"140.72123400000",
"":""
},
"geometry":{
"type":"Point",
"coordinates":[
140.721234,
40.767789
]
}
},
{
"type":"Feature",
"properties":{
"Name":"中央市民センター合子沢分館",
"Jusho":"青森県青森市合子沢字松森93",
"Capacity":"237",
"la":"40.77085700000",
"ln":"140.75846500000",
"":""
},
"geometry":{
"type":"Point",
"coordinates":[
140.758465,
40.770857
]
}
},
{
"type":"Feature",
"properties":{
"Name":"中央市民センター左堰分館",
"Jusho":"青森県青森市左堰字野田35",
"Capacity":"50",
"la":"40.91556600000",
"ln":"140.66814600000",
"":""
},
"geometry":{
"type":"Point",
"coordinates":[
140.668146,
40.915566
]
}
},
{
"type":"Feature",
"properties":{
"Name":"中央市民センター細越分館",
"Jusho":"青森県青森市細越字栄山469-6",
"Capacity":"121",
"la":"40.78925200000",
"ln":"140.71187400000",
"":""
},
"geometry":{
"type":"Point",
"coordinates":[
140.711874,
40.789252
]
}
},
{
"type":"Feature",
"properties":{
"Name":"中央市民センター三内分館",
"Jusho":"青森県青森市三内字沢部191－",
"Capacity":"77",
"la":"40.81935700000",
"ln":"140.70186500000",
"":""
},
"geometry":{
"type":"Point",
"coordinates":[
140.701865,
40.819357
]
}
},
{
"type":"Feature",
"properties":{
"Name":"中央市民センター小橋分館",
"Jusho":"青森県青森市小橋字田川56-5",
"Capacity":"88",
"la":"40.92228900000",
"ln":"140.66734200000",
"":""
},
"geometry":{
"type":"Point",
"coordinates":[
140.667342,
40.922289
]
}
},
{
"type":"Feature",
"properties":{
"Name":"中央市民センター小柳分館",
"Jusho":"青森県青森市小柳三丁目3-5",
"Capacity":"63",
"la":"40.81930600000",
"ln":"140.79229400000",
"":""
},
"geometry":{
"type":"Point",
"coordinates":[
140.792294,
40.819306
]
}
},
{
"type":"Feature",
"properties":{
"Name":"中央市民センター松森分館",
"Jusho":"青森県青森市松森三丁目20－4",
"Capacity":"82",
"la":"40.81203800000",
"ln":"140.77660100000",
"":""
},
"geometry":{
"type":"Point",
"coordinates":[
140.776601,
40.812038
]
}
},
{
"type":"Feature",
"properties":{
"Name":"中央市民センター瀬戸子分館",
"Jusho":"青森県青森市瀬戸子字磯田25",
"Capacity":"54",
"la":"40.88314500000",
"ln":"140.67829300000",
"":""
},
"geometry":{
"type":"Point",
"coordinates":[
140.678293,
40.883145
]
}
},
{
"type":"Feature",
"properties":{
"Name":"中央市民センター西滝分館",
"Jusho":"青森県青森市富田二丁目3-33",
"Capacity":"46",
"la":"40.82672300000",
"ln":"140.71608600000",
"":""
},
"geometry":{
"type":"Point",
"coordinates":[
140.716086,
40.826723
]
}
},
{
"type":"Feature",
"properties":{
"Name":"中央市民センター西田沢分館",
"Jusho":"青森県青森市西田沢字浜田105",
"Capacity":"51",
"la":"40.86241600000",
"ln":"140.68672000000",
"":""
},
"geometry":{
"type":"Point",
"coordinates":[
140.68672,
40.862416
]
}
},
{
"type":"Feature",
"properties":{
"Name":"中央市民センター石江分館",
"Jusho":"青森県青森市石江字江渡25－",
"Capacity":"111",
"la":"40.82589400000",
"ln":"140.69512100000",
"":""
},
"geometry":{
"type":"Point",
"coordinates":[
140.695121,
40.825894
]
}
},
{
"type":"Feature",
"properties":{
"Name":"中央市民センター相野分館",
"Jusho":"青森県青森市富田二丁目14－2",
"Capacity":"56",
"la":"40.83002664760",
"ln":"140.71555784000",
"":""
},
"geometry":{
"type":"Point",
"coordinates":[
140.71555784,
40.8300266476
]
}
},
{
"type":"Feature",
"properties":{
"Name":"中央市民センター大矢沢分館",
"Jusho":"青森県青森市大矢沢字里見35-2",
"Capacity":"92",
"la":"40.78029000000",
"ln":"140.77405600000",
"":""
},
"geometry":{
"type":"Point",
"coordinates":[
140.774056,
40.78029
]
}
},
{
"type":"Feature",
"properties":{
"Name":"中央市民センター中筒井分館",
"Jusho":"青森県青森市筒井字桜川87-4",
"Capacity":"94",
"la":"40.80263800000",
"ln":"140.77633000000",
"":""
},
"geometry":{
"type":"Point",
"coordinates":[
140.77633,
40.802638
]
}
},
{
"type":"Feature",
"properties":{
"Name":"中央市民センター鶴ヶ坂分館",
"Jusho":"青森県青森市鶴ヶ坂字田川148-2",
"Capacity":"84",
"la":"40.78809700000",
"ln":"140.63004600000",
"":""
},
"geometry":{
"type":"Point",
"coordinates":[
140.630046,
40.788097
]
}
},
{
"type":"Feature",
"properties":{
"Name":"中央市民センター田茂木野分館",
"Jusho":"青森県青森市田茂木野字阿部野77",
"Capacity":"103",
"la":"40.76659000000",
"ln":"140.79932000000",
"":""
},
"geometry":{
"type":"Point",
"coordinates":[
140.79932,
40.76659
]
}
},
{
"type":"Feature",
"properties":{
"Name":"中央市民センター筒井分館",
"Jusho":"青森県青森市桜川八丁目1-3",
"Capacity":"30",
"la":"40.80693199910",
"ln":"140.76834400000",
"":""
},
"geometry":{
"type":"Point",
"coordinates":[
140.768344,
40.8069319991
]
}
},
{
"type":"Feature",
"properties":{
"Name":"中央市民センター内真部分館",
"Jusho":"青森県青森市清水字浜元45－",
"Capacity":"119",
"la":"40.90625499910",
"ln":"140.67208200000",
"":""
},
"geometry":{
"type":"Point",
"coordinates":[
140.672082,
40.9062549991
]
}
},
{
"type":"Feature",
"properties":{
"Name":"中央市民センター白旗野分館",
"Jusho":"青森県青森市新城字山田270－",
"Capacity":"63",
"la":"40.82294799910",
"ln":"140.65345300000",
"":""
},
"geometry":{
"type":"Point",
"coordinates":[
140.653453,
40.8229479991
]
}
},
{
"type":"Feature",
"properties":{
"Name":"中央市民センター飛鳥分館",
"Jusho":"青森県青森市飛鳥字塩越49-53",
"Capacity":"90",
"la":"40.87554799910",
"ln":"140.68210700000",
"":""
},
"geometry":{
"type":"Point",
"coordinates":[
140.682107,
40.8755479991
]
}
},
{
"type":"Feature",
"properties":{
"Name":"中央市民センター野沢分館",
"Jusho":"青森県青森市小館字桜苅180",
"Capacity":"104",
"la":"40.74678700000",
"ln":"140.72101700000",
"":""
},
"geometry":{
"type":"Point",
"coordinates":[
140.721017,
40.746787
]
}
},
{
"type":"Feature",
"properties":{
"Name":"中央市民センター浪館分館",
"Jusho":"青森県青森市浪館字平岡66－",
"Capacity":"60",
"la":"40.80970000000",
"ln":"140.71388300000",
"":""
},
"geometry":{
"type":"Point",
"coordinates":[
140.713883,
40.8097
]
}
},
{
"type":"Feature",
"properties":{
"Name":"中央保育園",
"Jusho":"青森県青森市本町一丁目5-41",
"Capacity":"－",
"la":"40.82469899910",
"ln":"140.74794800000",
"":""
},
"geometry":{
"type":"Point",
"coordinates":[
140.747948,
40.8246989991
]
}
},
{
"type":"Feature",
"properties":{
"Name":"佃福祉館",
"Jusho":"青森県青森市佃一丁目3-21",
"Capacity":"43",
"la":"40.81979200000",
"ln":"140.77334100000",
"":""
},
"geometry":{
"type":"Point",
"coordinates":[
140.773341,
40.819792
]
}
},
{
"type":"Feature",
"properties":{
"Name":"田代平少年の家跡地",
"Jusho":"青森県青森市駒込字深沢852",
"Capacity":"－",
"la":"40.70018483120",
"ln":"140.91898371100",
"":""
},
"geometry":{
"type":"Point",
"coordinates":[
140.918983711,
40.7001848312
]
}
},
{
"type":"Feature",
"properties":{
"Name":"東部市民センター",
"Jusho":"青森県青森市原別三丁目8－",
"Capacity":"246",
"la":"40.83736600000",
"ln":"140.80729900000",
"":""
},
"geometry":{
"type":"Point",
"coordinates":[
140.807299,
40.837366
]
}
},
{
"type":"Feature",
"properties":{
"Name":"南栄町保育園",
"Jusho":"青森県青森市花園二丁目11-39",
"Capacity":"－",
"la":"40.82278300000",
"ln":"140.77205700000",
"":""
},
"geometry":{
"type":"Point",
"coordinates":[
140.772057,
40.822783
]
}
},
{
"type":"Feature",
"properties":{
"Name":"浜田福祉館",
"Jusho":"青森県青森市青葉三丁目8－",
"Capacity":"46",
"la":"40.80268000000",
"ln":"140.75590900000",
"":""
},
"geometry":{
"type":"Point",
"coordinates":[
140.755909,
40.80268
]
}
},
{
"type":"Feature",
"properties":{
"Name":"福祉増進センター",
"Jusho":"青森県青森市本町四丁目1-3",
"Capacity":"68",
"la":"40.82932400000",
"ln":"140.75128400000",
"":""
},
"geometry":{
"type":"Point",
"coordinates":[
140.751284,
40.829324
]
}
},
{
"type":"Feature",
"properties":{
"Name":"文化会館",
"Jusho":"青森県青森市堤町一丁目4－",
"Capacity":"2700",
"la":"40.82446400000",
"ln":"140.75684200000",
"":""
},
"geometry":{
"type":"Point",
"coordinates":[
140.756842,
40.824464
]
}
},
{
"type":"Feature",
"properties":{
"Name":"片岡福祉館",
"Jusho":"青森県青森市旭町三丁目7-20",
"Capacity":"29",
"la":"40.81133100000",
"ln":"140.73867700000",
"":""
},
"geometry":{
"type":"Point",
"coordinates":[
140.738677,
40.811331
]
}
},
{
"type":"Feature",
"properties":{
"Name":"北斗高等学校",
"Jusho":"青森県青森市松原二丁目1-24",
"Capacity":"672",
"la":"40.81878300000",
"ln":"140.76036400000",
"":""
},
"geometry":{
"type":"Point",
"coordinates":[
140.760364,
40.818783
]
}
},
{
"type":"Feature",
"properties":{
"Name":"北部地区農村環境改善センター",
"Jusho":"青森県青森市奥内字宮田41-3",
"Capacity":"216",
"la":"40.88631500000",
"ln":"140.67585000000",
"":""
},
"geometry":{
"type":"Point",
"coordinates":[
140.67585,
40.886315
]
}
},
{
"type":"Feature",
"properties":{
"Name":"油川市民センター",
"Jusho":"青森県青森市羽白字池上197－",
"Capacity":"215",
"la":"40.85222800000",
"ln":"140.68328800000",
"":""
},
"geometry":{
"type":"Point",
"coordinates":[
140.683288,
40.852228
]
}
},
{
"type":"Feature",
"properties":{
"Name":"梨の木清掃工場",
"Jusho":"青森県青森市駒込字深沢1175",
"Capacity":"85",
"la":"40.75797148510",
"ln":"140.82498943300",
"":""
},
"geometry":{
"type":"Point",
"coordinates":[
140.824989433,
40.7579714851
]
}
},
{
"type":"Feature",
"properties":{
"Name":"浪岡トレーニングセンター",
"Jusho":"青森県青森市浪岡女鹿沢字野尻14－",
"Capacity":"240",
"la":"40.71234143040",
"ln":"140.57296221300",
"":""
},
"geometry":{
"type":"Point",
"coordinates":[
140.572962213,
40.7123414304
]
}
},
{
"type":"Feature",
"properties":{
"Name":"浪岡高等学校",
"Jusho":"青森県青森市浪岡浪岡字稲村101-2",
"Capacity":"924",
"la":"40.70840900000",
"ln":"140.59351400000",
"":""
},
"geometry":{
"type":"Point",
"coordinates":[
140.593514,
40.708409
]
}
},
{
"type":"Feature",
"properties":{
"Name":"浪岡細野山の家",
"Jusho":"青森県青森市浪岡細野字沢井37-3",
"Capacity":"166",
"la":"40.69364800000",
"ln":"140.66001000000",
"":""
},
"geometry":{
"type":"Point",
"coordinates":[
140.66001,
40.693648
]
}
},
{
"type":"Feature",
"properties":{
"Name":"浪岡女鹿沢公民館",
"Jusho":"青森県青森市浪岡下十川字宮本36－",
"Capacity":"119",
"la":"40.68974800000",
"ln":"140.55658600000",
"":""
},
"geometry":{
"type":"Point",
"coordinates":[
140.556586,
40.689748
]
}
},
{
"type":"Feature",
"properties":{
"Name":"浪岡大杉公民館",
"Jusho":"青森県青森市浪岡高屋敷字安田35",
"Capacity":"87",
"la":"40.74117400000",
"ln":"140.58664000000",
"":""
},
"geometry":{
"type":"Point",
"coordinates":[
140.58664,
40.741174
]
}
},
{
"type":"Feature",
"properties":{
"Name":"浪岡茶屋町会館",
"Jusho":"青森県青森市浪岡浪岡字林本120",
"Capacity":"90",
"la":"40.71462820650",
"ln":"140.59278804900",
"":""
},
"geometry":{
"type":"Point",
"coordinates":[
140.592788049,
40.7146282065
]
}
},
{
"type":"Feature",
"properties":{
"Name":"浪岡中央公民館",
"Jusho":"青森県青森市浪岡浪岡字稲村101-3",
"Capacity":"134",
"la":"40.70951859050",
"ln":"140.59508578700",
"":""
},
"geometry":{
"type":"Point",
"coordinates":[
140.595085787,
40.7095185905
]
}
},
{
"type":"Feature",
"properties":{
"Name":"浪岡中世の館",
"Jusho":"青森県青森市浪岡浪岡字岡田43",
"Capacity":"195",
"la":"40.71423900000",
"ln":"140.59700200000",
"":""
},
"geometry":{
"type":"Point",
"coordinates":[
140.597002,
40.714239
]
}
},
{
"type":"Feature",
"properties":{
"Name":"浪岡野沢公民館",
"Jusho":"青森県青森市浪岡樽沢字村元313-4",
"Capacity":"85",
"la":"40.71105600000",
"ln":"140.55689000000",
"":""
},
"geometry":{
"type":"Point",
"coordinates":[
140.55689,
40.711056
]
}
},
{
"type":"Feature",
"properties":{
"Name":"浪館福祉館",
"Jusho":"青森県青森市浪館字志田36",
"Capacity":"37",
"la":"40.80831100000",
"ln":"140.72097800000",
"":""
},
"geometry":{
"type":"Point",
"coordinates":[
140.720978,
40.808311
]
}
},
{
"type":"Feature",
"properties":{
"Name":"蜆貝保育園",
"Jusho":"青森県青森市青柳一丁目8-28",
"Capacity":"－",
"la":"40.82955900000",
"ln":"140.75608600000",
"":""
},
"geometry":{
"type":"Point",
"coordinates":[
140.756086,
40.829559
]
}
},
{
"type":"Feature",
"properties":{
"Name":"であいの家あうん",
"Jusho":"青森県弘前市高屋字安田735-3",
"Capacity":"195",
"la":"40.62072900000",
"ln":"140.42923900000",
"":""
},
"geometry":{
"type":"Point",
"coordinates":[
140.429239,
40.620729
]
}
},
{
"type":"Feature",
"properties":{
"Name":"愛宕多目的集会所",
"Jusho":"青森県弘前市愛宕字山下42－",
"Capacity":"126",
"la":"40.62749700000",
"ln":"140.40795000000",
"":""
},
"geometry":{
"type":"Point",
"coordinates":[
140.40795,
40.627497
]
}
},
{
"type":"Feature",
"properties":{
"Name":"安田公民館",
"Jusho":"青森県弘前市湯口字二ノ安田21－",
"Capacity":"23",
"la":"40.58952690170",
"ln":"140.40755542000",
"":""
},
"geometry":{
"type":"Point",
"coordinates":[
140.40755542,
40.5895269017
]
}
},
{
"type":"Feature",
"properties":{
"Name":"一丁目多目的集会所",
"Jusho":"青森県弘前市一丁目田字村元559-3",
"Capacity":"139",
"la":"40.60999681000",
"ln":"140.42466052200",
"":""
},
"geometry":{
"type":"Point",
"coordinates":[
140.424660522,
40.60999681
]
}
},
{
"type":"Feature",
"properties":{
"Name":"賀田公民館",
"Jusho":"青森県弘前市賀田一丁目20-6",
"Capacity":"129",
"la":"40.61689600000",
"ln":"140.42174900000",
"":""
},
"geometry":{
"type":"Point",
"coordinates":[
140.421749,
40.616896
]
}
},
{
"type":"Feature",
"properties":{
"Name":"岳暘保育園",
"Jusho":"青森県弘前市宮地字川添108-4",
"Capacity":"37",
"la":"40.61762800000",
"ln":"140.39373500000",
"":""
},
"geometry":{
"type":"Point",
"coordinates":[
140.393735,
40.617628
]
}
},
{
"type":"Feature",
"properties":{
"Name":"葛原健康増進センター",
"Jusho":"青森県弘前市葛原字大柳122-3",
"Capacity":"149",
"la":"40.62400981260",
"ln":"140.38883980900",
"":""
},
"geometry":{
"type":"Point",
"coordinates":[
140.388839809,
40.6240098126
]
}
},
{
"type":"Feature",
"properties":{
"Name":"岩木Ｂ＆Ｇ海洋センター",
"Jusho":"青森県弘前市兼平字猿沢32－1",
"Capacity":"644",
"la":"40.60534500000",
"ln":"140.41370000000",
"":""
},
"geometry":{
"type":"Point",
"coordinates":[
140.4137,
40.605345
]
}
},
{
"type":"Feature",
"properties":{
"Name":"岩木高校",
"Jusho":"青森県弘前市駒越字村元75－",
"Capacity":"520",
"la":"40.60990800000",
"ln":"140.44345300000",
"":""
},
"geometry":{
"type":"Point",
"coordinates":[
140.443453,
40.609908
]
}
},
{
"type":"Feature",
"properties":{
"Name":"岩木青少年スポーツセンター",
"Jusho":"青森県弘前市常盤野字湯段萢1-2",
"Capacity":"2122",
"la":"40.62640016540",
"ln":"140.26483500000",
"":""
},
"geometry":{
"type":"Point",
"coordinates":[
140.264835,
40.6264001654
]
}
},
{
"type":"Feature",
"properties":{
"Name":"岩木文化センター",
"Jusho":"青森県弘前市賀田一丁目18-4",
"Capacity":"1383",
"la":"40.61677400000",
"ln":"140.42024900000",
"":""
},
"geometry":{
"type":"Point",
"coordinates":[
140.420249,
40.616774
]
}
},
{
"type":"Feature",
"properties":{
"Name":"宮地研修館",
"Jusho":"青森県弘前市宮地字宮本150-6",
"Capacity":"148",
"la":"40.61816275900",
"ln":"140.39092219100",
"":""
},
"geometry":{
"type":"Point",
"coordinates":[
140.390922191,
40.618162759
]
}
},
{
"type":"Feature",
"properties":{
"Name":"桐ノ木沢公民館",
"Jusho":"青森県弘前市相馬字薬師堂下34-3",
"Capacity":"19",
"la":"40.55510006940",
"ln":"140.36560917100",
"":""
},
"geometry":{
"type":"Point",
"coordinates":[
140.365609171,
40.5551000694
]
}
},
{
"type":"Feature",
"properties":{
"Name":"駒越会館",
"Jusho":"青森県弘前市駒越字村元69-2",
"Capacity":"78",
"la":"40.60866991210",
"ln":"140.44442116000",
"":""
},
"geometry":{
"type":"Point",
"coordinates":[
140.44442116,
40.6086699121
]
}
},
{
"type":"Feature",
"properties":{
"Name":"熊嶋多目的集会所",
"Jusho":"青森県弘前市熊嶋字豊田208",
"Capacity":"107",
"la":"40.61492419380",
"ln":"140.43905646900",
"":""
},
"geometry":{
"type":"Point",
"coordinates":[
140.439056469,
40.6149241938
]
}
},
{
"type":"Feature",
"properties":{
"Name":"兼平公民館",
"Jusho":"青森県弘前市兼平字富田72",
"Capacity":"79",
"la":"40.60322009670",
"ln":"140.41072160900",
"":""
},
"geometry":{
"type":"Point",
"coordinates":[
140.410721609,
40.6032200967
]
}
},
{
"type":"Feature",
"properties":{
"Name":"五代多目的集会所",
"Jusho":"青森県弘前市五代字沼田136",
"Capacity":"206",
"la":"40.61265059550",
"ln":"140.40902301200",
"":""
},
"geometry":{
"type":"Point",
"coordinates":[
140.409023012,
40.6126505955
]
}
},
{
"type":"Feature",
"properties":{
"Name":"弘前Ｂ＆Ｇ海洋センター",
"Jusho":"青森県弘前市八幡町一丁目9－",
"Capacity":"403",
"la":"40.61601800000",
"ln":"140.47809300000",
"":""
},
"geometry":{
"type":"Point",
"coordinates":[
140.478093,
40.616018
]
}
},
{
"type":"Feature",
"properties":{
"Name":"弘前高校",
"Jusho":"青森県弘前市新寺町1－",
"Capacity":"1208",
"la":"40.59518900000",
"ln":"140.46761900000",
"":""
},
"geometry":{
"type":"Point",
"coordinates":[
140.467619,
40.595189
]
}
},
{
"type":"Feature",
"properties":{
"Name":"弘前市立観光館",
"Jusho":"青森県弘前市下白銀町2－",
"Capacity":"183",
"la":"40.60328116260",
"ln":"140.46554017000",
"":""
},
"geometry":{
"type":"Point",
"coordinates":[
140.46554017,
40.6032811626
]
}
},
{
"type":"Feature",
"properties":{
"Name":"弘前実業高校",
"Jusho":"青森県弘前市中野三丁目6－0",
"Capacity":"671",
"la":"40.57852400000",
"ln":"140.47484200000",
"":""
},
"geometry":{
"type":"Point",
"coordinates":[
140.474842,
40.578524
]
}
},
{
"type":"Feature",
"properties":{
"Name":"弘前大学",
"Jusho":"青森県弘前市文京町1",
"Capacity":"1697",
"la":"40.58935599910",
"ln":"140.47234200000",
"":""
},
"geometry":{
"type":"Point",
"coordinates":[
140.472342,
40.5893559991
]
}
},
{
"type":"Feature",
"properties":{
"Name":"弘前中央高校",
"Jusho":"青森県弘前市蔵主町7－",
"Capacity":"－",
"la":"40.60907600000",
"ln":"140.46872900000",
"":""
},
"geometry":{
"type":"Point",
"coordinates":[
140.468729,
40.609076
]
}
},
{
"type":"Feature",
"properties":{
"Name":"弘前南高校",
"Jusho":"青森県弘前市大開四丁目1－",
"Capacity":"－",
"la":"40.58046700000",
"ln":"140.44539900000",
"":""
},
"geometry":{
"type":"Point",
"coordinates":[
140.445399,
40.580467
]
}
},
{
"type":"Feature",
"properties":{
"Name":"高岡担い手センター",
"Jusho":"青森県弘前市高岡字神馬野87－",
"Capacity":"83",
"la":"40.62336410000",
"ln":"140.35604830400",
"":""
},
"geometry":{
"type":"Point",
"coordinates":[
140.356048304,
40.6233641
]
}
},
{
"type":"Feature",
"properties":{
"Name":"高屋公民館",
"Jusho":"青森県弘前市高屋字本宮493",
"Capacity":"54",
"la":"40.61812100000",
"ln":"140.42387700000",
"":""
},
"geometry":{
"type":"Point",
"coordinates":[
140.423877,
40.618121
]
}
},
{
"type":"Feature",
"properties":{
"Name":"黒滝担い手センター",
"Jusho":"青森県弘前市黒滝字一ノ川瀬17",
"Capacity":"46",
"la":"40.58993970840",
"ln":"140.40228514700",
"":""
},
"geometry":{
"type":"Point",
"coordinates":[
140.402285147,
40.5899397084
]
}
},
{
"type":"Feature",
"properties":{
"Name":"坂市町会集会所",
"Jusho":"青森県弘前市藤沢字野田1-7",
"Capacity":"17",
"la":"40.57130067570",
"ln":"140.37743071000",
"":""
},
"geometry":{
"type":"Point",
"coordinates":[
140.37743071,
40.5713006757
]
}
},
{
"type":"Feature",
"properties":{
"Name":"山田集落センター",
"Jusho":"青森県弘前市相馬字山田12-6",
"Capacity":"23",
"la":"40.56220100000",
"ln":"140.36182200000",
"":""
},
"geometry":{
"type":"Point",
"coordinates":[
140.361822,
40.562201
]
}
},
{
"type":"Feature",
"properties":{
"Name":"市民体育館",
"Jusho":"青森県弘前市五十石町7",
"Capacity":"828",
"la":"40.60835400000",
"ln":"140.45886900000",
"":""
},
"geometry":{
"type":"Point",
"coordinates":[
140.458869,
40.608354
]
}
},
{
"type":"Feature",
"properties":{
"Name":"上弥生集会所",
"Jusho":"青森県弘前市百沢字東岩木山876－",
"Capacity":"80",
"la":"40.65665939920",
"ln":"140.37379280900",
"":""
},
"geometry":{
"type":"Point",
"coordinates":[
140.373792809,
40.6566593992
]
}
},
{
"type":"Feature",
"properties":{
"Name":"常盤野コミュニティセンター",
"Jusho":"青森県弘前市常盤野字上黒沢25-73",
"Capacity":"103",
"la":"40.63963000000",
"ln":"140.23993900000",
"":""
},
"geometry":{
"type":"Point",
"coordinates":[
140.239939,
40.63963
]
}
},
{
"type":"Feature",
"properties":{
"Name":"常盤野保育所",
"Jusho":"青森県弘前市常盤野字湯の沢45－8",
"Capacity":"15",
"la":"40.62878900000",
"ln":"140.26500000000",
"":""
},
"geometry":{
"type":"Point",
"coordinates":[
140.265,
40.628789
]
}
},
{
"type":"Feature",
"properties":{
"Name":"新岡公民館",
"Jusho":"青森県弘前市新岡字山本15－",
"Capacity":"111",
"la":"40.63304685050",
"ln":"140.39686427600",
"":""
},
"geometry":{
"type":"Point",
"coordinates":[
140.396864276,
40.6330468505
]
}
},
{
"type":"Feature",
"properties":{
"Name":"新法師会館",
"Jusho":"青森県弘前市新法師字稔172-4",
"Capacity":"117",
"la":"40.61986149450",
"ln":"140.36673237700",
"":""
},
"geometry":{
"type":"Point",
"coordinates":[
140.366732377,
40.6198614945
]
}
},
{
"type":"Feature",
"properties":{
"Name":"真土多目的集会所",
"Jusho":"青森県弘前市真土字苅田59－",
"Capacity":"104",
"la":"40.60094873150",
"ln":"140.43217345600",
"":""
},
"geometry":{
"type":"Point",
"coordinates":[
140.432173456,
40.6009487315
]
}
},
{
"type":"Feature",
"properties":{
"Name":"真土保育園",
"Jusho":"青森県弘前市大字真土字苅田125－",
"Capacity":"28",
"la":"40.60401900000",
"ln":"140.43351500000",
"":""
},
"geometry":{
"type":"Point",
"coordinates":[
140.433515,
40.604019
]
}
},
{
"type":"Feature",
"properties":{
"Name":"水木在家公民館",
"Jusho":"青森県弘前市水木在家字桜井81－",
"Capacity":"30",
"la":"40.57464800000",
"ln":"140.38830300000",
"":""
},
"geometry":{
"type":"Point",
"coordinates":[
140.388303,
40.574648
]
}
},
{
"type":"Feature",
"properties":{
"Name":"杉山集会所",
"Jusho":"青森県弘前市百沢字東岩木山141-4",
"Capacity":"76",
"la":"40.67148749850",
"ln":"140.37605040600",
"":""
},
"geometry":{
"type":"Point",
"coordinates":[
140.376050406,
40.6714874985
]
}
},
{
"type":"Feature",
"properties":{
"Name":"相馬ふれあい館",
"Jusho":"青森県弘前市相馬字八反田25",
"Capacity":"253",
"la":"40.56342200000",
"ln":"140.36868100000",
"":""
},
"geometry":{
"type":"Point",
"coordinates":[
140.368681,
40.563422
]
}
},
{
"type":"Feature",
"properties":{
"Name":"大浦保育所",
"Jusho":"青森県弘前市賀田二丁目7-2",
"Capacity":"151",
"la":"40.61429600000",
"ln":"140.41826100000",
"":""
},
"geometry":{
"type":"Point",
"coordinates":[
140.418261,
40.614296
]
}
},
{
"type":"Feature",
"properties":{
"Name":"大久保集会所",
"Jusho":"青森県弘前市如来瀬字大久保平294",
"Capacity":"20",
"la":"40.59142910700",
"ln":"140.38689096800",
"":""
},
"geometry":{
"type":"Point",
"coordinates":[
140.386890968,
40.591429107
]
}
},
{
"type":"Feature",
"properties":{
"Name":"大助公民館",
"Jusho":"青森県弘前市大助字野田102",
"Capacity":"26",
"la":"40.56509800000",
"ln":"140.36176900000",
"":""
},
"geometry":{
"type":"Point",
"coordinates":[
140.361769,
40.565098
]
}
},
{
"type":"Feature",
"properties":{
"Name":"鷹揚園",
"Jusho":"青森県弘前市下白銀町",
"Capacity":"－",
"la":"40.60807247910",
"ln":"140.46376729000",
"":""
},
"geometry":{
"type":"Point",
"coordinates":[
140.46376729,
40.6080724791
]
}
},
{
"type":"Feature",
"properties":{
"Name":"瀧ノ口研修館",
"Jusho":"青森県弘前市龍ノ口字村元256-2",
"Capacity":"84",
"la":"40.59770553530",
"ln":"140.42451628800",
"":""
},
"geometry":{
"type":"Point",
"coordinates":[
140.424516288,
40.5977055353
]
}
},
{
"type":"Feature",
"properties":{
"Name":"沢田生活改善センター",
"Jusho":"青森県弘前市沢田字園村18-2",
"Capacity":"30",
"la":"40.56497027880",
"ln":"140.32994621700",
"":""
},
"geometry":{
"type":"Point",
"coordinates":[
140.329946217,
40.5649702788
]
}
},
{
"type":"Feature",
"properties":{
"Name":"中央公民館岩木館",
"Jusho":"青森県弘前市賀田一丁目18-3",
"Capacity":"1423",
"la":"40.61657099910",
"ln":"140.41950200000",
"":""
},
"geometry":{
"type":"Point",
"coordinates":[
140.419502,
40.6165709991
]
}
},
{
"type":"Feature",
"properties":{
"Name":"鳥井野多目的集会所",
"Jusho":"青森県弘前市鳥井野字長田50-8",
"Capacity":"150",
"la":"40.59449391940",
"ln":"140.41015059600",
"":""
},
"geometry":{
"type":"Point",
"coordinates":[
140.410150596,
40.5944939194
]
}
},
{
"type":"Feature",
"properties":{
"Name":"鳥井野保育所",
"Jusho":"青森県弘前市鳥井野字長田39-3",
"Capacity":"54",
"la":"40.59479800000",
"ln":"140.41101200000",
"":""
},
"geometry":{
"type":"Point",
"coordinates":[
140.411012,
40.594798
]
}
},
{
"type":"Feature",
"properties":{
"Name":"東目屋ふれあいセンター",
"Jusho":"青森県弘前市中野字中豊田20",
"Capacity":"374",
"la":"40.58940799910",
"ln":"140.32301600000",
"":""
},
"geometry":{
"type":"Point",
"coordinates":[
140.323016,
40.5894079991
]
}
},
{
"type":"Feature",
"properties":{
"Name":"湯口公民館",
"Jusho":"青森県弘前市湯口字二ノ安田70",
"Capacity":"58",
"la":"40.58987957520",
"ln":"140.41260126400",
"":""
},
"geometry":{
"type":"Point",
"coordinates":[
140.412601264,
40.5898795752
]
}
},
{
"type":"Feature",
"properties":{
"Name":"藤沢活性化施設",
"Jusho":"青森県弘前市藤沢字野田123－",
"Capacity":"70",
"la":"40.56824183150",
"ln":"140.37176855600",
"":""
},
"geometry":{
"type":"Point",
"coordinates":[
140.371768556,
40.5682418315
]
}
},
{
"type":"Feature",
"properties":{
"Name":"如来瀬コミュニティセンター",
"Jusho":"青森県弘前市如来瀬字種本54-3",
"Capacity":"73",
"la":"40.59414290820",
"ln":"140.40418715300",
"":""
},
"geometry":{
"type":"Point",
"coordinates":[
140.404187153,
40.5941429082
]
}
},
{
"type":"Feature",
"properties":{
"Name":"八幡多目的集会所",
"Jusho":"青森県弘前市八幡字北原43－",
"Capacity":"101",
"la":"40.62205261950",
"ln":"140.41571068200",
"":""
},
"geometry":{
"type":"Point",
"coordinates":[
140.415710682,
40.6220526195
]
}
},
{
"type":"Feature",
"properties":{
"Name":"鼻和多目的集会所",
"Jusho":"青森県弘前市鼻和字平岡22-3",
"Capacity":"143",
"la":"40.63310472210",
"ln":"140.41809366400",
"":""
},
"geometry":{
"type":"Point",
"coordinates":[
140.418093664,
40.6331047221
]
}
},
{
"type":"Feature",
"properties":{
"Name":"百沢担い手センター",
"Jusho":"青森県弘前市百沢字笹平8－7",
"Capacity":"162",
"la":"40.61768402020",
"ln":"140.34143371000",
"":""
},
"geometry":{
"type":"Point",
"coordinates":[
140.34143371,
40.6176840202
]
}
},
{
"type":"Feature",
"properties":{
"Name":"百沢保育所",
"Jusho":"青森県弘前市百沢字寺沢88-2",
"Capacity":"39",
"la":"40.61979300000",
"ln":"140.35060000000",
"":""
},
"geometry":{
"type":"Point",
"coordinates":[
140.3506,
40.619793
]
}
},
{
"type":"Feature",
"properties":{
"Name":"北辰学区高杉ふれあいセンター",
"Jusho":"青森県弘前市独狐字山辺72－",
"Capacity":"382",
"la":"40.65592900000",
"ln":"140.43670100000",
"":""
},
"geometry":{
"type":"Point",
"coordinates":[
140.436701,
40.655929
]
}
},
{
"type":"Feature",
"properties":{
"Name":"藍内公民館",
"Jusho":"青森県弘前市藍内字富田70-4",
"Capacity":"21",
"la":"40.53625677040",
"ln":"140.36978938700",
"":""
},
"geometry":{
"type":"Point",
"coordinates":[
140.369789387,
40.5362567704
]
}
},
{
"type":"Feature",
"properties":{
"Name":"嶽さわやかホール",
"Jusho":"青森県弘前市常盤野字湯の沢45-24",
"Capacity":"180",
"la":"40.62943400000",
"ln":"140.26390500000",
"":""
},
"geometry":{
"type":"Point",
"coordinates":[
140.263905,
40.629434
]
}
},
{
"type":"Feature",
"properties":{
"Name":"昴地区集会所",
"Jusho":"青森県弘前市湯口字二ノ安田31-39",
"Capacity":"55",
"la":"40.58779487880",
"ln":"140.40729210400",
"":""
},
"geometry":{
"type":"Point",
"coordinates":[
140.407292104,
40.5877948788
]
}
},
{
"type":"Feature",
"properties":{
"Name":"旭ケ丘会館",
"Jusho":"青森県八戸市旭ケ丘一丁目1－9",
"Capacity":"160",
"la":"40.49797500000",
"ln":"141.53582300000",
"":""
},
"geometry":{
"type":"Point",
"coordinates":[
141.535823,
40.497975
]
}
},
{
"type":"Feature",
"properties":{
"Name":"下長公民館",
"Jusho":"青森県八戸市下長一丁目4-9",
"Capacity":"140",
"la":"40.52826700000",
"ln":"141.46775100000",
"":""
},
"geometry":{
"type":"Point",
"coordinates":[
141.467751,
40.528267
]
}
},
{
"type":"Feature",
"properties":{
"Name":"館公民館",
"Jusho":"青森県八戸市大字八幡字下陣屋40－",
"Capacity":"150",
"la":"40.48735900000",
"ln":"141.43037900000",
"":""
},
"geometry":{
"type":"Point",
"coordinates":[
141.430379,
40.487359
]
}
},
{
"type":"Feature",
"properties":{
"Name":"勤労青少年ホーム",
"Jusho":"青森県八戸市沼館二丁目13-20",
"Capacity":"70",
"la":"40.52628748670",
"ln":"141.48842261000",
"":""
},
"geometry":{
"type":"Point",
"coordinates":[
141.48842261,
40.5262874867
]
}
},
{
"type":"Feature",
"properties":{
"Name":"県立八戸工科学院",
"Jusho":"青森県八戸市大字市川町字長七谷地2-568",
"Capacity":"380",
"la":"40.56609839420",
"ln":"141.45520365700",
"":""
},
"geometry":{
"type":"Point",
"coordinates":[
141.455203657,
40.5660983942
]
}
},
{
"type":"Feature",
"properties":{
"Name":"県立八戸高等学校",
"Jusho":"青森県八戸市長者四丁目4－",
"Capacity":"610",
"la":"40.49772700000",
"ln":"141.48253600000",
"":""
},
"geometry":{
"type":"Point",
"coordinates":[
141.482536,
40.497727
]
}
},
{
"type":"Feature",
"properties":{
"Name":"県立八戸東高等学校",
"Jusho":"青森県八戸市類家一丁目4-47",
"Capacity":"540",
"la":"40.50744800000",
"ln":"141.49864500000",
"":""
},
"geometry":{
"type":"Point",
"coordinates":[
141.498645,
40.507448
]
}
},
{
"type":"Feature",
"properties":{
"Name":"県立八戸盲学校・八戸聾学校",
"Jusho":"青森県八戸市柏崎六丁目29-24",
"Capacity":"400",
"la":"40.51494700000",
"ln":"141.50614300000",
"":""
},
"geometry":{
"type":"Point",
"coordinates":[
141.506143,
40.514947
]
}
},
{
"type":"Feature",
"properties":{
"Name":"江陽公民館",
"Jusho":"青森県八戸市江陽二丁目18-34",
"Capacity":"160",
"la":"40.52402400000",
"ln":"141.50554900000",
"":""
},
"geometry":{
"type":"Point",
"coordinates":[
141.505549,
40.524024
]
}
},
{
"type":"Feature",
"properties":{
"Name":"国立八戸工業高等専門学校",
"Jusho":"青森県八戸市大宇田面木字上野平16－",
"Capacity":"850",
"la":"40.49161600000",
"ln":"141.44809500000",
"":""
},
"geometry":{
"type":"Point",
"coordinates":[
141.448095,
40.491616
]
}
},
{
"type":"Feature",
"properties":{
"Name":"根岸公民館",
"Jusho":"青森県八戸市高洲二丁目23－9",
"Capacity":"200",
"la":"40.54007300000",
"ln":"141.48363400000",
"":""
},
"geometry":{
"type":"Point",
"coordinates":[
141.483634,
40.540073
]
}
},
{
"type":"Feature",
"properties":{
"Name":"根城コミュニティセンター",
"Jusho":"青森県八戸市売市四丁目7-6",
"Capacity":"150",
"la":"40.51202700000",
"ln":"141.47199900000",
"":""
},
"geometry":{
"type":"Point",
"coordinates":[
141.471999,
40.512027
]
}
},
{
"type":"Feature",
"properties":{
"Name":"根城公民館",
"Jusho":"青森県八戸市根城コ丁目11-22",
"Capacity":"200",
"la":"40.50405100000",
"ln":"141.47552800000",
"":""
},
"geometry":{
"type":"Point",
"coordinates":[
141.475528,
40.504051
]
}
},
{
"type":"Feature",
"properties":{
"Name":"鮫公民館",
"Jusho":"青森県八戸市大字鮫町字住吉町14－",
"Capacity":"220",
"la":"40.53031600000",
"ln":"141.55775800000",
"":""
},
"geometry":{
"type":"Point",
"coordinates":[
141.557758,
40.530316
]
}
},
{
"type":"Feature",
"properties":{
"Name":"市川公民館",
"Jusho":"青森県八戸市大字市川町字赤畑19-2",
"Capacity":"130",
"la":"40.57844700000",
"ln":"141.44091300000",
"":""
},
"geometry":{
"type":"Point",
"coordinates":[
141.440913,
40.578447
]
}
},
{
"type":"Feature",
"properties":{
"Name":"小中野公民館",
"Jusho":"青森県八戸市小中野五丁目2－7",
"Capacity":"220",
"la":"40.52082200000",
"ln":"141.51395600000",
"":""
},
"geometry":{
"type":"Point",
"coordinates":[
141.513956,
40.520822
]
}
},
{
"type":"Feature",
"properties":{
"Name":"上長公民館",
"Jusho":"青森県八戸市一番町一丁目4－",
"Capacity":"190",
"la":"40.51103552310",
"ln":"141.43513290800",
"":""
},
"geometry":{
"type":"Point",
"coordinates":[
141.435132908,
40.5110355231
]
}
},
{
"type":"Feature",
"properties":{
"Name":"吹上公民館",
"Jusho":"青森県八戸市吹上二丁目17-3",
"Capacity":"170",
"la":"40.49922300000",
"ln":"141.49664800000",
"":""
},
"geometry":{
"type":"Point",
"coordinates":[
141.496648,
40.499223
]
}
},
{
"type":"Feature",
"properties":{
"Name":"是川公民館",
"Jusho":"青森県八戸市大字是川字東前田3－1",
"Capacity":"160",
"la":"40.45849900000",
"ln":"141.49590300000",
"":""
},
"geometry":{
"type":"Point",
"coordinates":[
141.495903,
40.458499
]
}
},
{
"type":"Feature",
"properties":{
"Name":"泉清水集会所",
"Jusho":"青森県八戸市南郷区大字泉清水字浜渡45－6",
"Capacity":"40",
"la":"40.37377700000",
"ln":"141.39138600000",
"":""
},
"geometry":{
"type":"Point",
"coordinates":[
141.391386,
40.373777
]
}
},
{
"type":"Feature",
"properties":{
"Name":"総合教育センター",
"Jusho":"青森県八戸市諏訪一丁目2－7",
"Capacity":"140",
"la":"40.51509854150",
"ln":"141.51612124600",
"":""
},
"geometry":{
"type":"Point",
"coordinates":[
141.516121246,
40.5150985415
]
}
},
{
"type":"Feature",
"properties":{
"Name":"大館公民館",
"Jusho":"青森県八戸市大字新井田字常光田17－",
"Capacity":"190",
"la":"40.49612600000",
"ln":"141.52257900000",
"":""
},
"geometry":{
"type":"Point",
"coordinates":[
141.522579,
40.496126
]
}
},
{
"type":"Feature",
"properties":{
"Name":"中居林コミュニティセンター",
"Jusho":"青森県八戸市大宇中居林字綿ノ端13－3",
"Capacity":"150",
"la":"40.48922631210",
"ln":"141.50015087700",
"":""
},
"geometry":{
"type":"Point",
"coordinates":[
141.500150877,
40.4892263121
]
}
},
{
"type":"Feature",
"properties":{
"Name":"長者公民館",
"Jusho":"青森県八戸市大字糠塚字下道2－",
"Capacity":"220",
"la":"40.50527152230",
"ln":"141.48714217100",
"":""
},
"geometry":{
"type":"Point",
"coordinates":[
141.487142171,
40.5052715223
]
}
},
{
"type":"Feature",
"properties":{
"Name":"田面木公民館",
"Jusho":"青森県八戸市大宇田面木字上野道下タ30－",
"Capacity":"160",
"la":"40.49802100000",
"ln":"141.44755100000",
"":""
},
"geometry":{
"type":"Point",
"coordinates":[
141.447551,
40.498021
]
}
},
{
"type":"Feature",
"properties":{
"Name":"島守コミニティセンター",
"Jusho":"青森県八戸市南郷区大字島守字小山田8",
"Capacity":"740",
"la":"40.41481199910",
"ln":"141.48707800000",
"":""
},
"geometry":{
"type":"Point",
"coordinates":[
141.487078,
40.4148119991
]
}
},
{
"type":"Feature",
"properties":{
"Name":"東公民館",
"Jusho":"青森県八戸市大字新井田字八森平7-67",
"Capacity":"170",
"la":"40.50027800000",
"ln":"141.53996800000",
"":""
},
"geometry":{
"type":"Point",
"coordinates":[
141.539968,
40.500278
]
}
},
{
"type":"Feature",
"properties":{
"Name":"南郷公民館",
"Jusho":"青森県八戸市南郷区大字市野沢字黒坂7-2",
"Capacity":"550",
"la":"40.40454300000",
"ln":"141.43578500000",
"":""
},
"geometry":{
"type":"Point",
"coordinates":[
141.435785,
40.404543
]
}
},
{
"type":"Feature",
"properties":{
"Name":"南郷公民館中野分館",
"Jusho":"青森県八戸市南郷区大宇中野字樋河ノ上1",
"Capacity":"140",
"la":"40.41023100000",
"ln":"141.41781800000",
"":""
},
"geometry":{
"type":"Point",
"coordinates":[
141.417818,
40.410231
]
}
},
{
"type":"Feature",
"properties":{
"Name":"南郷公民館緑分館",
"Jusho":"青森県八戸市南郷区大字市島守字馳下り14－",
"Capacity":"220",
"la":"40.38390400000",
"ln":"141.50037400000",
"":""
},
"geometry":{
"type":"Point",
"coordinates":[
141.500374,
40.383904
]
}
},
{
"type":"Feature",
"properties":{
"Name":"南郷体育館",
"Jusho":"青森県八戸市南郷区大字市野沢字中市野沢44－0",
"Capacity":"680",
"la":"40.40457900000",
"ln":"141.43515500000",
"":""
},
"geometry":{
"type":"Point",
"coordinates":[
141.435155,
40.404579
]
}
},
{
"type":"Feature",
"properties":{
"Name":"南浜公民館",
"Jusho":"青森県八戸市大字鮫町字棚久保14-48",
"Capacity":"150",
"la":"40.50625100000",
"ln":"141.60988900000",
"":""
},
"geometry":{
"type":"Point",
"coordinates":[
141.609889,
40.506251
]
}
},
{
"type":"Feature",
"properties":{
"Name":"南部山健康運動センター体育館",
"Jusho":"青森県八戸市大字河原木字蝦夷館3-6",
"Capacity":"800",
"la":"40.53675499910",
"ln":"141.45198800000",
"":""
},
"geometry":{
"type":"Point",
"coordinates":[
141.451988,
40.5367549991
]
}
},
{
"type":"Feature",
"properties":{
"Name":"三八城公民館",
"Jusho":"青森県八戸市城下二丁目1－7",
"Capacity":"200",
"la":"40.52039900000",
"ln":"141.48782900000",
"":""
},
"geometry":{
"type":"Point",
"coordinates":[
141.487829,
40.520399
]
}
},
{
"type":"Feature",
"properties":{
"Name":"農村環境改善センター瑞豊館",
"Jusho":"青森県八戸市大字豊崎町字上永福寺130－",
"Capacity":"270",
"la":"40.51439985430",
"ln":"141.38051158800",
"":""
},
"geometry":{
"type":"Point",
"coordinates":[
141.380511588,
40.5143998543
]
}
},
{
"type":"Feature",
"properties":{
"Name":"農村婦人の家",
"Jusho":"青森県八戸市南郷区大字島守字番屋4－",
"Capacity":"80",
"la":"40.39625601180",
"ln":"141.52288998500",
"":""
},
"geometry":{
"type":"Point",
"coordinates":[
141.522889985,
40.3962560118
]
}
},
{
"type":"Feature",
"properties":{
"Name":"柏崎公民館",
"Jusho":"青森県八戸市柏崎二丁目13-5",
"Capacity":"220",
"la":"40.51386400000",
"ln":"141.50069400000",
"":""
},
"geometry":{
"type":"Point",
"coordinates":[
141.500694,
40.513864
]
}
},
{
"type":"Feature",
"properties":{
"Name":"白銀公民館",
"Jusho":"青森県八戸市白銀二丁目2－4",
"Capacity":"210",
"la":"40.52258700000",
"ln":"141.54614200000",
"":""
},
"geometry":{
"type":"Point",
"coordinates":[
141.546142,
40.522587
]
}
},
{
"type":"Feature",
"properties":{
"Name":"白銀南公民館",
"Jusho":"青森県八戸市大字大久保字行人坂36-6",
"Capacity":"190",
"la":"40.51089900000",
"ln":"141.55666700000",
"":""
},
"geometry":{
"type":"Point",
"coordinates":[
141.556667,
40.510899
]
}
},
{
"type":"Feature",
"properties":{
"Name":"白山台公民館",
"Jusho":"青森県八戸市北白山台五丁目2-5",
"Capacity":"230",
"la":"40.48542669500",
"ln":"141.46292344000",
"":""
},
"geometry":{
"type":"Point",
"coordinates":[
141.46292344,
40.485426695
]
}
},
{
"type":"Feature",
"properties":{
"Name":"八戸シーガルビューホテル",
"Jusho":"青森県八戸市大字鮫町字小舟渡平9－9",
"Capacity":"410",
"la":"40.53939600000",
"ln":"141.57153700000",
"":""
},
"geometry":{
"type":"Point",
"coordinates":[
141.571537,
40.539396
]
}
},
{
"type":"Feature",
"properties":{
"Name":"八戸ポータルミュージアム（はっち）",
"Jusho":"青森県八戸市大字三日町11－",
"Capacity":"170",
"la":"40.50995300020",
"ln":"141.49058964000",
"":""
},
"geometry":{
"type":"Point",
"coordinates":[
141.49058964,
40.5099530002
]
}
},
{
"type":"Feature",
"properties":{
"Name":"八戸市屋内トレーニングセンター",
"Jusho":"青森県八戸市大字河原木字谷地田4",
"Capacity":"1650",
"la":"40.53623000000",
"ln":"141.46942800000",
"":""
},
"geometry":{
"type":"Point",
"coordinates":[
141.469428,
40.53623
]
}
},
{
"type":"Feature",
"properties":{
"Name":"八戸市公民館",
"Jusho":"青森県八戸市内丸一丁目1－",
"Capacity":"320",
"la":"40.51227800000",
"ln":"141.48840400000",
"":""
},
"geometry":{
"type":"Point",
"coordinates":[
141.488404,
40.512278
]
}
},
{
"type":"Feature",
"properties":{
"Name":"八戸市農業経営振興センター",
"Jusho":"青森県八戸巾大字尻内町字毛合清水29",
"Capacity":"60",
"la":"40.53400200000",
"ln":"141.42574800000",
"":""
},
"geometry":{
"type":"Point",
"coordinates":[
141.425748,
40.534002
]
}
},
{
"type":"Feature",
"properties":{
"Name":"八戸市公会堂",
"Jusho":"青森県八戸市内丸一丁目1－",
"Capacity":"250",
"la":"40.51328825290",
"ln":"141.48813177100",
"":""
},
"geometry":{
"type":"Point",
"coordinates":[
141.488131771,
40.5132882529
]
}
},
{
"type":"Feature",
"properties":{
"Name":"八戸市体育館",
"Jusho":"青森県八戸市大字売市字興遊下3",
"Capacity":"790",
"la":"40.50902000000",
"ln":"141.48296900000",
"":""
},
"geometry":{
"type":"Point",
"coordinates":[
141.482969,
40.50902
]
}
},
{
"type":"Feature",
"properties":{
"Name":"八戸市東体育館",
"Jusho":"青森県八戸市湊向台八丁目1－",
"Capacity":"810",
"la":"40.50187500000",
"ln":"141.54471800000",
"":""
},
"geometry":{
"type":"Point",
"coordinates":[
141.544718,
40.501875
]
}
},
{
"type":"Feature",
"properties":{
"Name":"鳩田農業研修センター",
"Jusho":"青森県八戸市南郷区大字大森字鳩田向21-2",
"Capacity":"110",
"la":"40.38193300000",
"ln":"141.40778000000",
"":""
},
"geometry":{
"type":"Point",
"coordinates":[
141.40778,
40.381933
]
}
},
{
"type":"Feature",
"properties":{
"Name":"福祉公民館",
"Jusho":"青森県八戸市類家四丁目3－",
"Capacity":"110",
"la":"40.50720700000",
"ln":"141.50577700000",
"":""
},
"geometry":{
"type":"Point",
"coordinates":[
141.505777,
40.507207
]
}
},
{
"type":"Feature",
"properties":{
"Name":"福祉体育館",
"Jusho":"青森県八戸市類家四丁目3－",
"Capacity":"550",
"la":"40.50768892020",
"ln":"141.50604356700",
"":""
},
"geometry":{
"type":"Point",
"coordinates":[
141.506043567,
40.5076889202
]
}
},
{
"type":"Feature",
"properties":{
"Name":"文化教養センター南部会館",
"Jusho":"青森県八戸市内丸三丁目3-6",
"Capacity":"30",
"la":"40.51292300000",
"ln":"141.49019300000",
"":""
},
"geometry":{
"type":"Point",
"coordinates":[
141.490193,
40.512923
]
}
},
{
"type":"Feature",
"properties":{
"Name":"湊公民館",
"Jusho":"青森県八戸市大字湊町宇中道64-7",
"Capacity":"180",
"la":"40.52183600000",
"ln":"141.53093500000",
"":""
},
"geometry":{
"type":"Point",
"coordinates":[
141.530935,
40.521836
]
}
},
{
"type":"Feature",
"properties":{
"Name":"老人いこいの家臥牛荘",
"Jusho":"青森県八戸市大字新井田字八森平7－",
"Capacity":"70",
"la":"40.49994900000",
"ln":"141.53998100000",
"":""
},
"geometry":{
"type":"Point",
"coordinates":[
141.539981,
40.499949
]
}
},
{
"type":"Feature",
"properties":{
"Name":"スポカルイン黒石",
"Jusho":"青森県黒石市ぐみの木三丁目65",
"Capacity":"1000",
"la":"40.65064200000",
"ln":"140.59412000000",
"":""
},
"geometry":{
"type":"Point",
"coordinates":[
140.59412,
40.650642
]
}
},
{
"type":"Feature",
"properties":{
"Name":"ちとせ中央広場",
"Jusho":"青森県黒石市ちとせ二丁目102",
"Capacity":"－",
"la":"40.63832394890",
"ln":"140.59850959400",
"":""
},
"geometry":{
"type":"Point",
"coordinates":[
140.598509594,
40.6383239489
]
}
},
{
"type":"Feature",
"properties":{
"Name":"駅前多目的広場",
"Jusho":"青森県黒石市一番町135－",
"Capacity":"－",
"la":"40.64910967000",
"ln":"140.59231191000",
"":""
},
"geometry":{
"type":"Point",
"coordinates":[
140.59231191,
40.64910967
]
}
},
{
"type":"Feature",
"properties":{
"Name":"沖揚平活性化施設",
"Jusho":"青森県黒石市大川原字蛭貝沢203",
"Capacity":"55",
"la":"40.64160550510",
"ln":"140.79994942500",
"":""
},
"geometry":{
"type":"Point",
"coordinates":[
140.799949425,
40.6416055051
]
}
},
{
"type":"Feature",
"properties":{
"Name":"牡丹平公民館",
"Jusho":"青森県黒石市牡丹平字諏訪野平6",
"Capacity":"72",
"la":"40.63136800000",
"ln":"140.62912200000",
"":""
},
"geometry":{
"type":"Point",
"coordinates":[
140.629122,
40.631368
]
}
},
{
"type":"Feature",
"properties":{
"Name":"勤労青少年ホーム",
"Jusho":"青森県黒石市内町24－",
"Capacity":"47",
"la":"40.64258499910",
"ln":"140.59274600000",
"":""
},
"geometry":{
"type":"Point",
"coordinates":[
140.592746,
40.6425849991
]
}
},
{
"type":"Feature",
"properties":{
"Name":"黒石高等学校",
"Jusho":"青森県黒石市西ヶ丘65",
"Capacity":"878",
"la":"40.64740900000",
"ln":"140.58760700000",
"":""
},
"geometry":{
"type":"Point",
"coordinates":[
140.587607,
40.647409
]
}
},
{
"type":"Feature",
"properties":{
"Name":"黒石商業高等学校",
"Jusho":"青森県黒石市あけぼの町97-2",
"Capacity":"1050",
"la":"40.65574100000",
"ln":"140.60677200000",
"":""
},
"geometry":{
"type":"Point",
"coordinates":[
140.606772,
40.655741
]
}
},
{
"type":"Feature",
"properties":{
"Name":"黒石幼稚園",
"Jusho":"青森県黒石市美原町99-2",
"Capacity":"105",
"la":"40.64799200000",
"ln":"140.60574400000",
"":""
},
"geometry":{
"type":"Point",
"coordinates":[
140.605744,
40.647992
]
}
},
{
"type":"Feature",
"properties":{
"Name":"山形公民館",
"Jusho":"青森県黒石市温湯字派15－",
"Capacity":"179",
"la":"40.60913500000",
"ln":"140.66458400000",
"":""
},
"geometry":{
"type":"Point",
"coordinates":[
140.664584,
40.609135
]
}
},
{
"type":"Feature",
"properties":{
"Name":"上十川公民館",
"Jusho":"青森県黒石市上十川字留岡一番17-2",
"Capacity":"158",
"la":"40.65728600000",
"ln":"140.61596800000",
"":""
},
"geometry":{
"type":"Point",
"coordinates":[
140.615968,
40.657286
]
}
},
{
"type":"Feature",
"properties":{
"Name":"西部地区センター",
"Jusho":"青森県黒石市西ヶ丘189－",
"Capacity":"126",
"la":"40.64958600000",
"ln":"140.58524600000",
"":""
},
"geometry":{
"type":"Point",
"coordinates":[
140.585246,
40.649586
]
}
},
{
"type":"Feature",
"properties":{
"Name":"浅瀬石公民館",
"Jusho":"青森県黒石市浅瀬石字村上123-2",
"Capacity":"107",
"la":"40.62791500000",
"ln":"140.61215400000",
"":""
},
"geometry":{
"type":"Point",
"coordinates":[
140.612154,
40.627915
]
}
},
{
"type":"Feature",
"properties":{
"Name":"大川原活性化施設",
"Jusho":"青森県黒石市大川原字萢森下6－",
"Capacity":"59",
"la":"40.63387264290",
"ln":"140.71530297200",
"":""
},
"geometry":{
"type":"Point",
"coordinates":[
140.715302972,
40.6338726429
]
}
},
{
"type":"Feature",
"properties":{
"Name":"中央スポーツ館",
"Jusho":"青森県黒石市内町24－",
"Capacity":"434",
"la":"40.64258500000",
"ln":"140.59274600000",
"":""
},
"geometry":{
"type":"Point",
"coordinates":[
140.592746,
40.642585
]
}
},
{
"type":"Feature",
"properties":{
"Name":"中郷公民館",
"Jusho":"青森県黒石市小屋敷字馬場尻道添12-2",
"Capacity":"110",
"la":"40.67603165060",
"ln":"140.59534472500",
"":""
},
"geometry":{
"type":"Point",
"coordinates":[
140.595344725,
40.6760316506
]
}
},
{
"type":"Feature",
"properties":{
"Name":"中部公民館",
"Jusho":"青森県黒石市北美町一丁目65－",
"Capacity":"153",
"la":"40.65430800000",
"ln":"140.60168900000",
"":""
},
"geometry":{
"type":"Point",
"coordinates":[
140.601689,
40.654308
]
}
},
{
"type":"Feature",
"properties":{
"Name":"津軽伝承工芸館",
"Jusho":"青森県黒石市袋字富山65－",
"Capacity":"400",
"la":"40.60557377110",
"ln":"140.67582244300",
"":""
},
"geometry":{
"type":"Point",
"coordinates":[
140.675822443,
40.6055737711
]
}
},
{
"type":"Feature",
"properties":{
"Name":"追子野木会館",
"Jusho":"青森県黒石市追子野木一丁目92",
"Capacity":"100",
"la":"40.63899900010",
"ln":"140.59004524100",
"":""
},
"geometry":{
"type":"Point",
"coordinates":[
140.590045241,
40.6389990001
]
}
},
{
"type":"Feature",
"properties":{
"Name":"東公民館",
"Jusho":"青森県黒石市春日町20-9",
"Capacity":"120",
"la":"40.64428800000",
"ln":"140.60377500000",
"":""
},
"geometry":{
"type":"Point",
"coordinates":[
140.603775,
40.644288
]
}
},
{
"type":"Feature",
"properties":{
"Name":"北地区小体育館",
"Jusho":"青森県黒石市小屋敷南71-2",
"Capacity":"161",
"la":"40.67583514750",
"ln":"140.59541796800",
"":""
},
"geometry":{
"type":"Point",
"coordinates":[
140.595417968,
40.6758351475
]
}
},
{
"type":"Feature",
"properties":{
"Name":"六郷公民館",
"Jusho":"青森県黒石市赤坂字野崎1",
"Capacity":"258",
"la":"40.67033200000",
"ln":"140.62385000000",
"":""
},
"geometry":{
"type":"Point",
"coordinates":[
140.62385,
40.670332
]
}
},
{
"type":"Feature",
"properties":{
"Name":"Ｂ＆Ｇ海洋センター市浦",
"Jusho":"青森県五所川原市相内岩井81-385",
"Capacity":"551",
"la":"41.05955500000",
"ln":"140.35201500000",
"":""
},
"geometry":{
"type":"Point",
"coordinates":[
140.352015,
41.059555
]
}
},
{
"type":"Feature",
"properties":{
"Name":"コミュニティセンター栄",
"Jusho":"青森県五所川原市みどり町4丁目130",
"Capacity":"308",
"la":"40.78298600000",
"ln":"140.45926200000",
"":""
},
"geometry":{
"type":"Point",
"coordinates":[
140.459262,
40.782986
]
}
},
{
"type":"Feature",
"properties":{
"Name":"コミュニティセンター三好",
"Jusho":"青森県五所川原市鶴ヶ岡字鎌田281-3",
"Capacity":"300",
"la":"40.84798000000",
"ln":"140.40927700000",
"":""
},
"geometry":{
"type":"Point",
"coordinates":[
140.409277,
40.84798
]
}
},
{
"type":"Feature",
"properties":{
"Name":"コミュニティセンター七和",
"Jusho":"青森県五所川原市羽野木沢字隈無13",
"Capacity":"299",
"la":"40.75615000000",
"ln":"140.52175800000",
"":""
},
"geometry":{
"type":"Point",
"coordinates":[
140.521758,
40.75615
]
}
},
{
"type":"Feature",
"properties":{
"Name":"コミュニティセンター松島",
"Jusho":"青森県五所川原市金山字竹崎48－0",
"Capacity":"299",
"la":"40.80657000000",
"ln":"140.47786800000",
"":""
},
"geometry":{
"type":"Point",
"coordinates":[
140.477868,
40.80657
]
}
},
{
"type":"Feature",
"properties":{
"Name":"コミュニティセンター中川",
"Jusho":"青森県五所川原市川山字森内395",
"Capacity":"301",
"la":"40.83764000000",
"ln":"140.43897800000",
"":""
},
"geometry":{
"type":"Point",
"coordinates":[
140.438978,
40.83764
]
}
},
{
"type":"Feature",
"properties":{
"Name":"コミュニティセンター長橋",
"Jusho":"青森県五所川原市神山字鶉野34-2",
"Capacity":"310",
"la":"40.79099700000",
"ln":"140.51324600000",
"":""
},
"geometry":{
"type":"Point",
"coordinates":[
140.513246,
40.790997
]
}
},
{
"type":"Feature",
"properties":{
"Name":"コミュニティセンター飯詰",
"Jusho":"青森県五所川原市飯詰字福泉164-4",
"Capacity":"396",
"la":"40.83061500000",
"ln":"140.48763700000",
"":""
},
"geometry":{
"type":"Point",
"coordinates":[
140.487637,
40.830615
]
}
},
{
"type":"Feature",
"properties":{
"Name":"コミュニティ防災センター",
"Jusho":"青森県五所川原市鎌谷町16",
"Capacity":"124",
"la":"40.80560500000",
"ln":"140.44672600000",
"":""
},
"geometry":{
"type":"Point",
"coordinates":[
140.446726,
40.805605
]
}
},
{
"type":"Feature",
"properties":{
"Name":"しきしまコミュニティセンター",
"Jusho":"青森県五所川原市敷島町36-28",
"Capacity":"143",
"la":"40.81512500000",
"ln":"140.44658900000",
"":""
},
"geometry":{
"type":"Point",
"coordinates":[
140.446589,
40.815125
]
}
},
{
"type":"Feature",
"properties":{
"Name":"みなとコミュニティセンター",
"Jusho":"青森県五所川原市湊字千鳥90",
"Capacity":"107",
"la":"40.79502642140",
"ln":"140.44699918900",
"":""
},
"geometry":{
"type":"Point",
"coordinates":[
140.446999189,
40.7950264214
]
}
},
{
"type":"Feature",
"properties":{
"Name":"もや会館",
"Jusho":"青森県五所川原市磯松山の井115－38",
"Capacity":"200",
"la":"41.08392300000",
"ln":"140.32472200000",
"":""
},
"geometry":{
"type":"Point",
"coordinates":[
140.324722,
41.083923
]
}
},
{
"type":"Feature",
"properties":{
"Name":"磯松集会所",
"Jusho":"青森県五所川原市磯松磯野186－",
"Capacity":"168",
"la":"41.07645300000",
"ln":"140.32545000000",
"":""
},
"geometry":{
"type":"Point",
"coordinates":[
140.32545,
41.076453
]
}
},
{
"type":"Feature",
"properties":{
"Name":"稲実集会所",
"Jusho":"青森県五所川原市稲実字開野265",
"Capacity":"91",
"la":"40.78937400000",
"ln":"140.46803000000",
"":""
},
"geometry":{
"type":"Point",
"coordinates":[
140.46803,
40.789374
]
}
},
{
"type":"Feature",
"properties":{
"Name":"下岩崎集会所",
"Jusho":"青森県五所川原市下岩崎町尾花原31-9",
"Capacity":"33",
"la":"40.83994400000",
"ln":"140.48491000000",
"":""
},
"geometry":{
"type":"Point",
"coordinates":[
140.48491,
40.839944
]
}
},
{
"type":"Feature",
"properties":{
"Name":"嘉瀬コミュニティセンター",
"Jusho":"青森県五所川原市金木町嘉瀬端山崎76－",
"Capacity":"249",
"la":"40.88214600000",
"ln":"140.46183200000",
"":""
},
"geometry":{
"type":"Point",
"coordinates":[
140.461832,
40.882146
]
}
},
{
"type":"Feature",
"properties":{
"Name":"嘉瀬スキー場",
"Jusho":"青森県五所川原市金木町嘉瀬",
"Capacity":"－",
"la":"40.88159381240",
"ln":"140.47791972400",
"":""
},
"geometry":{
"type":"Point",
"coordinates":[
140.477919724,
40.8815938124
]
}
},
{
"type":"Feature",
"properties":{
"Name":"嘉瀬集会所",
"Jusho":"青森県五所川原市金木町嘉瀬雲雀野109－",
"Capacity":"272",
"la":"40.88170500000",
"ln":"140.46748000000",
"":""
},
"geometry":{
"type":"Point",
"coordinates":[
140.46748,
40.881705
]
}
},
{
"type":"Feature",
"properties":{
"Name":"嘉瀬西部コミュニティ消防センター",
"Jusho":"青森県五所川原市金木町嘉瀬雲雀野212-3",
"Capacity":"94",
"la":"40.88135800000",
"ln":"140.45823300000",
"":""
},
"geometry":{
"type":"Point",
"coordinates":[
140.458233,
40.881358
]
}
},
{
"type":"Feature",
"properties":{
"Name":"嘉瀬農協倉庫",
"Jusho":"青森県五所川原市金木町中柏木鎧石214－",
"Capacity":"800",
"la":"40.87454471730",
"ln":"140.46025164900",
"":""
},
"geometry":{
"type":"Point",
"coordinates":[
140.460251649,
40.8745447173
]
}
},
{
"type":"Feature",
"properties":{
"Name":"嘉瀬老人福祉センター",
"Jusho":"青森県五所川原市金木町嘉瀬端山崎35-40",
"Capacity":"131",
"la":"40.88328800000",
"ln":"140.46703300000",
"":""
},
"geometry":{
"type":"Point",
"coordinates":[
140.467033,
40.883288
]
}
},
{
"type":"Feature",
"properties":{
"Name":"喜良市コミュニティセンター",
"Jusho":"青森県五所川原市金木町喜良市千苅196-3",
"Capacity":"165",
"la":"40.89282900000",
"ln":"140.48398900000",
"":""
},
"geometry":{
"type":"Point",
"coordinates":[
140.483989,
40.892829
]
}
},
{
"type":"Feature",
"properties":{
"Name":"喜良市老人福祉センター",
"Jusho":"青森県五所川原市金木町喜良市坂本476",
"Capacity":"84",
"la":"40.90237500000",
"ln":"140.47564200000",
"":""
},
"geometry":{
"type":"Point",
"coordinates":[
140.475642,
40.902375
]
}
},
{
"type":"Feature",
"properties":{
"Name":"基幹集落センター",
"Jusho":"青森県五所川原市相内岩井81－",
"Capacity":"200",
"la":"41.05430300000",
"ln":"140.35602600000",
"":""
},
"geometry":{
"type":"Point",
"coordinates":[
140.356026,
41.054303
]
}
},
{
"type":"Feature",
"properties":{
"Name":"旧金木第一保育所",
"Jusho":"青森県五所川原市金木町朝日山422－",
"Capacity":"420",
"la":"40.90435000000",
"ln":"140.45271800000",
"":""
},
"geometry":{
"type":"Point",
"coordinates":[
140.452718,
40.90435
]
}
},
{
"type":"Feature",
"properties":{
"Name":"金木オートキャンプ場",
"Jusho":"青森県五所川原市金木町川倉",
"Capacity":"－",
"la":"40.91820548280",
"ln":"140.45363305200",
"":""
},
"geometry":{
"type":"Point",
"coordinates":[
140.453633052,
40.9182054828
]
}
},
{
"type":"Feature",
"properties":{
"Name":"金木公民館",
"Jusho":"青森県五所川原市金木町菅原367－",
"Capacity":"944",
"la":"40.89694100000",
"ln":"140.45375500000",
"":""
},
"geometry":{
"type":"Point",
"coordinates":[
140.453755,
40.896941
]
}
},
{
"type":"Feature",
"properties":{
"Name":"金木高等学校市浦分校",
"Jusho":"青森県五所川原市磯松赤川3-42",
"Capacity":"203",
"la":"41.08929900000",
"ln":"140.32483100000",
"":""
},
"geometry":{
"type":"Point",
"coordinates":[
140.324831,
41.089299
]
}
},
{
"type":"Feature",
"properties":{
"Name":"金木自然休養村管理センター",
"Jusho":"青森県五所川原市金木町芦野234－",
"Capacity":"330",
"la":"40.91133507250",
"ln":"140.44864828700",
"":""
},
"geometry":{
"type":"Point",
"coordinates":[
140.448648287,
40.9113350725
]
}
},
{
"type":"Feature",
"properties":{
"Name":"金木東部地区コミュニティセンター",
"Jusho":"青森県五所川原市金木町芦野318",
"Capacity":"220",
"la":"40.91203600000",
"ln":"140.47630800000",
"":""
},
"geometry":{
"type":"Point",
"coordinates":[
140.476308,
40.912036
]
}
},
{
"type":"Feature",
"properties":{
"Name":"金木老人福祉センター",
"Jusho":"青森県五所川原市金木町芦野336－",
"Capacity":"96",
"la":"40.90664300000",
"ln":"140.45548400000",
"":""
},
"geometry":{
"type":"Point",
"coordinates":[
140.455484,
40.906643
]
}
},
{
"type":"Feature",
"properties":{
"Name":"熊野宮境内",
"Jusho":"青森県五所川原市磯松磯野",
"Capacity":"－",
"la":"41.07890033020",
"ln":"140.33266885800",
"":""
},
"geometry":{
"type":"Point",
"coordinates":[
140.332668858,
41.0789003302
]
}
},
{
"type":"Feature",
"properties":{
"Name":"桂川集会所",
"Jusho":"青森県五所川原市相内桂川288－",
"Capacity":"114",
"la":"41.06532400000",
"ln":"140.37855000000",
"":""
},
"geometry":{
"type":"Point",
"coordinates":[
140.37855,
41.065324
]
}
},
{
"type":"Feature",
"properties":{
"Name":"県立五所川原工業高等学校",
"Jusho":"青森県五所川原市湊字船越192",
"Capacity":"911",
"la":"40.79127900000",
"ln":"140.44650100000",
"":""
},
"geometry":{
"type":"Point",
"coordinates":[
140.446501,
40.791279
]
}
},
{
"type":"Feature",
"properties":{
"Name":"県立五所川原農林高等学校",
"Jusho":"青森県五所川原市一野坪字朝日田12-37",
"Capacity":"845",
"la":"40.81877600000",
"ln":"140.48538500000",
"":""
},
"geometry":{
"type":"Point",
"coordinates":[
140.485385,
40.818776
]
}
},
{
"type":"Feature",
"properties":{
"Name":"戸沢集会所",
"Jusho":"青森県五所川原市戸沢字玉清水208-2",
"Capacity":"36",
"la":"40.81869700000",
"ln":"140.50548000000",
"":""
},
"geometry":{
"type":"Point",
"coordinates":[
140.50548,
40.818697
]
}
},
{
"type":"Feature",
"properties":{
"Name":"更生研修センター",
"Jusho":"青森県五所川原市金木町喜良市坂本56-206",
"Capacity":"83",
"la":"40.91010400000",
"ln":"140.48145200000",
"":""
},
"geometry":{
"type":"Point",
"coordinates":[
140.481452,
40.910104
]
}
},
{
"type":"Feature",
"properties":{
"Name":"高瀬集会所",
"Jusho":"青森県五所川原市高瀬字一本柳118-3",
"Capacity":"91",
"la":"40.83403300000",
"ln":"140.41905400000",
"":""
},
"geometry":{
"type":"Point",
"coordinates":[
140.419054,
40.834033
]
}
},
{
"type":"Feature",
"properties":{
"Name":"桜田集会所",
"Jusho":"青森県五所川原市沖飯詰字鴻ノ巣282-2",
"Capacity":"92",
"la":"40.84146800000",
"ln":"140.45914300000",
"":""
},
"geometry":{
"type":"Point",
"coordinates":[
140.459143,
40.841468
]
}
},
{
"type":"Feature",
"properties":{
"Name":"三ツ谷コミュニティ消防センター",
"Jusho":"青森県五所川原市姥萢字桜木209-3",
"Capacity":"61",
"la":"40.78337400000",
"ln":"140.44103500000",
"":""
},
"geometry":{
"type":"Point",
"coordinates":[
140.441035,
40.783374
]
}
},
{
"type":"Feature",
"properties":{
"Name":"市浦アトム保育園",
"Jusho":"青森県五所川原市相内258－",
"Capacity":"52",
"la":"41.05629200000",
"ln":"140.34830100000",
"":""
},
"geometry":{
"type":"Point",
"coordinates":[
140.348301,
41.056292
]
}
},
{
"type":"Feature",
"properties":{
"Name":"市浦コミュニティセンター",
"Jusho":"青森県五所川原市相内岩井81-384",
"Capacity":"750",
"la":"41.05976100000",
"ln":"140.35150600000",
"":""
},
"geometry":{
"type":"Point",
"coordinates":[
140.351506,
41.059761
]
}
},
{
"type":"Feature",
"properties":{
"Name":"市浦老人生きがいセンター",
"Jusho":"青森県五所川原市脇元赤川113－",
"Capacity":"124",
"la":"41.09101900000",
"ln":"140.32175400000",
"":""
},
"geometry":{
"type":"Point",
"coordinates":[
140.321754,
41.091019
]
}
},
{
"type":"Feature",
"properties":{
"Name":"市民体育館",
"Jusho":"青森県五所川原市栄町20－",
"Capacity":"2629",
"la":"40.79916400000",
"ln":"140.44333000000",
"":""
},
"geometry":{
"type":"Point",
"coordinates":[
140.44333,
40.799164
]
}
},
{
"type":"Feature",
"properties":{
"Name":"持子沢コミュニティ消防センター",
"Jusho":"青森県五所川原市持子沢字笠野前405",
"Capacity":"113",
"la":"40.74946600000",
"ln":"140.52222700000",
"":""
},
"geometry":{
"type":"Point",
"coordinates":[
140.522227,
40.749466
]
}
},
{
"type":"Feature",
"properties":{
"Name":"蒔田コミュニティ消防センター",
"Jusho":"青森県五所川原市金木町沢部396－",
"Capacity":"119",
"la":"40.90838900000",
"ln":"140.43369300000",
"":""
},
"geometry":{
"type":"Point",
"coordinates":[
140.433693,
40.908389
]
}
},
{
"type":"Feature",
"properties":{
"Name":"蒔田老人憩の家",
"Jusho":"青森県五所川原市金木町蒔田桑元51-4",
"Capacity":"85",
"la":"40.91132500000",
"ln":"140.43009400000",
"":""
},
"geometry":{
"type":"Point",
"coordinates":[
140.430094,
40.911325
]
}
},
{
"type":"Feature",
"properties":{
"Name":"若山集会所",
"Jusho":"青森県五所川原市松野木字影日83-3",
"Capacity":"29",
"la":"40.80995900000",
"ln":"140.51841700000",
"":""
},
"geometry":{
"type":"Point",
"coordinates":[
140.518417,
40.809959
]
}
},
{
"type":"Feature",
"properties":{
"Name":"十三コミュニティセンター",
"Jusho":"青森県五所川原市十三深津187－",
"Capacity":"261",
"la":"41.03099100000",
"ln":"140.32714100000",
"":""
},
"geometry":{
"type":"Point",
"coordinates":[
140.327141,
41.030991
]
}
},
{
"type":"Feature",
"properties":{
"Name":"十三山子地区高台",
"Jusho":"青森県五所川原市十三通行道",
"Capacity":"－",
"la":"41.02417564340",
"ln":"140.32654337000",
"":""
},
"geometry":{
"type":"Point",
"coordinates":[
140.32654337,
41.0241756434
]
}
},
{
"type":"Feature",
"properties":{
"Name":"十三湊発掘調査事務所",
"Jusho":"青森県五所川原市十三琴湖岳456",
"Capacity":"930",
"la":"41.03109996470",
"ln":"140.32881822900",
"":""
},
"geometry":{
"type":"Point",
"coordinates":[
140.328818229,
41.0310999647
]
}
},
{
"type":"Feature",
"properties":{
"Name":"松島会館",
"Jusho":"青森県五所川原市松島町2丁目89",
"Capacity":"244",
"la":"40.80728000000",
"ln":"140.45945800000",
"":""
},
"geometry":{
"type":"Point",
"coordinates":[
140.459458,
40.80728
]
}
},
{
"type":"Feature",
"properties":{
"Name":"神原コミュニティ消防センター",
"Jusho":"青森県五所川原市金木町神原小泉126-77",
"Capacity":"61",
"la":"40.91272600000",
"ln":"140.42217900000",
"":""
},
"geometry":{
"type":"Point",
"coordinates":[
140.422179,
40.912726
]
}
},
{
"type":"Feature",
"properties":{
"Name":"吹畑コミュニティ消防センター",
"Jusho":"青森県五所川原市松島町5丁目7-2",
"Capacity":"43",
"la":"40.80700000000",
"ln":"140.46414100000",
"":""
},
"geometry":{
"type":"Point",
"coordinates":[
140.464141,
40.807
]
}
},
{
"type":"Feature",
"properties":{
"Name":"水野尾コミュニティ消防センター",
"Jusho":"青森県五所川原市水野尾字宮井36-3",
"Capacity":"113",
"la":"40.79566300000",
"ln":"140.48077900000",
"":""
},
"geometry":{
"type":"Point",
"coordinates":[
140.480779,
40.795663
]
}
},
{
"type":"Feature",
"properties":{
"Name":"青森職業能力開発短期大学校",
"Jusho":"青森県五所川原市飯詰字狐野171-2",
"Capacity":"3169",
"la":"40.81952100000",
"ln":"140.49601600000",
"":""
},
"geometry":{
"type":"Point",
"coordinates":[
140.496016,
40.819521
]
}
},
{
"type":"Feature",
"properties":{
"Name":"川倉ふれあいセンター",
"Jusho":"青森県五所川原市金木町川倉米出100－",
"Capacity":"329",
"la":"40.92787323850",
"ln":"140.45229907800",
"":""
},
"geometry":{
"type":"Point",
"coordinates":[
140.452299078,
40.9278732385
]
}
},
{
"type":"Feature",
"properties":{
"Name":"川倉老人憩の家",
"Jusho":"青森県五所川原市金木町川倉林下76－",
"Capacity":"98",
"la":"40.92899200000",
"ln":"140.45027900000",
"":""
},
"geometry":{
"type":"Point",
"coordinates":[
140.450279,
40.928992
]
}
},
{
"type":"Feature",
"properties":{
"Name":"前田野目集会所",
"Jusho":"青森県五所川原市前田野目字長峰28",
"Capacity":"201",
"la":"40.75414500000",
"ln":"140.55153500000",
"":""
},
"geometry":{
"type":"Point",
"coordinates":[
140.551535,
40.754145
]
}
},
{
"type":"Feature",
"properties":{
"Name":"双葉町コミュニティ消防センター",
"Jusho":"青森県五所川原市金木町喜良市千苅248-50",
"Capacity":"51",
"la":"40.89745000000",
"ln":"140.49407700000",
"":""
},
"geometry":{
"type":"Point",
"coordinates":[
140.494077,
40.89745
]
}
},
{
"type":"Feature",
"properties":{
"Name":"藻川コミュニティ消防センター",
"Jusho":"青森県五所川原市藻川字中島2－",
"Capacity":"107",
"la":"40.86230144420",
"ln":"140.40642159400",
"":""
},
"geometry":{
"type":"Point",
"coordinates":[
140.406421594,
40.8623014442
]
}
},
{
"type":"Feature",
"properties":{
"Name":"太田集会所",
"Jusho":"青森県五所川原市太田山の井597",
"Capacity":"475",
"la":"41.05244300000",
"ln":"140.39871600000",
"":""
},
"geometry":{
"type":"Point",
"coordinates":[
140.398716,
41.052443
]
}
},
{
"type":"Feature",
"properties":{
"Name":"大東ヶ丘コミュニティ消防センター",
"Jusho":"青森県五所川原市金木町川倉七夕野84-637",
"Capacity":"57",
"la":"40.92093800000",
"ln":"140.48705500000",
"":""
},
"geometry":{
"type":"Point",
"coordinates":[
140.487055,
40.920938
]
}
},
{
"type":"Feature",
"properties":{
"Name":"中央コミュニティセンター",
"Jusho":"青森県五所川原市上平井町16",
"Capacity":"188",
"la":"40.81171900000",
"ln":"140.44295800000",
"":""
},
"geometry":{
"type":"Point",
"coordinates":[
140.442958,
40.811719
]
}
},
{
"type":"Feature",
"properties":{
"Name":"中央公民館",
"Jusho":"青森県五所川原市一ツ谷504－",
"Capacity":"1890",
"la":"40.80814400000",
"ln":"140.44896400000",
"":""
},
"geometry":{
"type":"Point",
"coordinates":[
140.448964,
40.808144
]
}
},
{
"type":"Feature",
"properties":{
"Name":"中泉集会所",
"Jusho":"青森県五所川原市中泉字松枝88",
"Capacity":"93",
"la":"40.76216700000",
"ln":"140.49898800000",
"":""
},
"geometry":{
"type":"Point",
"coordinates":[
140.498988,
40.762167
]
}
},
{
"type":"Feature",
"properties":{
"Name":"中柏木コミュニティ消防センター",
"Jusho":"青森県五所川原市金木町中柏木鎧石141－",
"Capacity":"97",
"la":"40.87217600000",
"ln":"140.47680200000",
"":""
},
"geometry":{
"type":"Point",
"coordinates":[
140.476802,
40.872176
]
}
},
{
"type":"Feature",
"properties":{
"Name":"長富コミュニティ消防センター",
"Jusho":"青森県五所川原市長富字鎧石167-4",
"Capacity":"81",
"la":"40.86466000000",
"ln":"140.45802300000",
"":""
},
"geometry":{
"type":"Point",
"coordinates":[
140.458023,
40.86466
]
}
},
{
"type":"Feature",
"properties":{
"Name":"津軽フラワーセンター",
"Jusho":"青森県五所川原市神山字殊ノ峰",
"Capacity":"－",
"la":"40.79777010000",
"ln":"140.52583283000",
"":""
},
"geometry":{
"type":"Point",
"coordinates":[
140.52583283,
40.7977701
]
}
},
{
"type":"Feature",
"properties":{
"Name":"藤枝集会所",
"Jusho":"青森県五所川原市金木町藤枝東田430－",
"Capacity":"67",
"la":"40.91822300000",
"ln":"140.44339800000",
"":""
},
"geometry":{
"type":"Point",
"coordinates":[
140.443398,
40.918223
]
}
},
{
"type":"Feature",
"properties":{
"Name":"働く婦人の家",
"Jusho":"青森県五所川原市新町33－",
"Capacity":"1080",
"la":"40.80641600000",
"ln":"140.44374800000",
"":""
},
"geometry":{
"type":"Point",
"coordinates":[
140.443748,
40.806416
]
}
},
{
"type":"Feature",
"properties":{
"Name":"農業センター",
"Jusho":"青森県五所川原市毘沙門字上熊石1－3",
"Capacity":"191",
"la":"40.85739200000",
"ln":"140.48312900000",
"":""
},
"geometry":{
"type":"Point",
"coordinates":[
140.483129,
40.857392
]
}
},
{
"type":"Feature",
"properties":{
"Name":"農村婦人の家",
"Jusho":"青森県五所川原市小曲字豊里176",
"Capacity":"169",
"la":"40.81355400000",
"ln":"140.43032900000",
"":""
},
"geometry":{
"type":"Point",
"coordinates":[
140.430329,
40.813554
]
}
},
{
"type":"Feature",
"properties":{
"Name":"梅沢コミュニティセンター",
"Jusho":"青森県五所川原市梅田字燕口118-3",
"Capacity":"270",
"la":"40.76556600000",
"ln":"140.47750000000",
"":""
},
"geometry":{
"type":"Point",
"coordinates":[
140.4775,
40.765566
]
}
},
{
"type":"Feature",
"properties":{
"Name":"毘沙門・長富コミュニティセンター",
"Jusho":"青森県五所川原市毘沙門字熊石30-2",
"Capacity":"253",
"la":"40.85221000000",
"ln":"140.45745100000",
"":""
},
"geometry":{
"type":"Point",
"coordinates":[
140.457451,
40.85221
]
}
},
{
"type":"Feature",
"properties":{
"Name":"富士見コミュニティセンター",
"Jusho":"青森県五所川原市蓮沼14",
"Capacity":"156",
"la":"40.80036700000",
"ln":"140.44260300000",
"":""
},
"geometry":{
"type":"Point",
"coordinates":[
140.442603,
40.800367
]
}
},
{
"type":"Feature",
"properties":{
"Name":"福山コミュニティ消防センター",
"Jusho":"青森県五所川原市福山字広富165-3",
"Capacity":"129",
"la":"40.77971000000",
"ln":"140.50874300000",
"":""
},
"geometry":{
"type":"Point",
"coordinates":[
140.508743,
40.77971
]
}
},
{
"type":"Feature",
"properties":{
"Name":"北部コミュニティセンター",
"Jusho":"青森県五所川原市幾世森51－",
"Capacity":"142",
"la":"40.81932000000",
"ln":"140.45092500000",
"":""
},
"geometry":{
"type":"Point",
"coordinates":[
140.450925,
40.81932
]
}
},
{
"type":"Feature",
"properties":{
"Name":"脇元放牧場地高台",
"Jusho":"青森県五所川原市磯松山の井",
"Capacity":"－",
"la":"41.08280171570",
"ln":"140.32697524600",
"":""
},
"geometry":{
"type":"Point",
"coordinates":[
140.326975246,
41.0828017157
]
}
},
{
"type":"Feature",
"properties":{
"Name":"ふるさと皆館",
"Jusho":"青森県十和田市大字奥瀬字中平70番地3",
"Capacity":"－",
"la":"40.58637200000",
"ln":"141.10905100000",
"":""
},
"geometry":{
"type":"Point",
"coordinates":[
141.109051,
40.586372
]
}
},
{
"type":"Feature",
"properties":{
"Name":"夏間木地区会館",
"Jusho":"青森県十和田市大字切田字夏間木46番地2",
"Capacity":"－",
"la":"40.55516193500",
"ln":"141.14093705900",
"":""
},
"geometry":{
"type":"Point",
"coordinates":[
141.140937059,
40.555161935
]
}
},
{
"type":"Feature",
"properties":{
"Name":"月日山林業会館",
"Jusho":"青森県十和田市大字米田字森ノ越19番地1",
"Capacity":"－",
"la":"40.51512190380",
"ln":"141.13899284300",
"":""
},
"geometry":{
"type":"Point",
"coordinates":[
141.138992843,
40.5151219038
]
}
},
{
"type":"Feature",
"properties":{
"Name":"高齢者福祉センター",
"Jusho":"青森県十和田市大字奥瀬字中平61－",
"Capacity":"－",
"la":"40.58623500000",
"ln":"141.10726200000",
"":""
},
"geometry":{
"type":"Point",
"coordinates":[
141.107262,
40.586235
]
}
},
{
"type":"Feature",
"properties":{
"Name":"三本木高等学校",
"Jusho":"青森県十和田市西五番町7－",
"Capacity":"－",
"la":"40.60354000000",
"ln":"141.21950100000",
"":""
},
"geometry":{
"type":"Point",
"coordinates":[
141.219501,
40.60354
]
}
},
{
"type":"Feature",
"properties":{
"Name":"三本木農業高等学校",
"Jusho":"青森県十和田市相坂高清水78-92",
"Capacity":"－",
"la":"40.63992700000",
"ln":"141.26643900000",
"":""
},
"geometry":{
"type":"Point",
"coordinates":[
141.266439,
40.639927
]
}
},
{
"type":"Feature",
"properties":{
"Name":"三本木霊園",
"Jusho":"青森県十和田市",
"Capacity":"－",
"la":"40.61531067000",
"ln":"141.23093549000",
"":""
},
"geometry":{
"type":"Point",
"coordinates":[
141.23093549,
40.61531067
]
}
},
{
"type":"Feature",
"properties":{
"Name":"市総合体育センター",
"Jusho":"青森県十和田市西三番町6番6号",
"Capacity":"－",
"la":"40.61106200000",
"ln":"141.21059000000",
"":""
},
"geometry":{
"type":"Point",
"coordinates":[
141.21059,
40.611062
]
}
},
{
"type":"Feature",
"properties":{
"Name":"十和田湖公民館",
"Jusho":"青森県十和田市大字奥瀬字下川目126番地",
"Capacity":"－",
"la":"40.58699600000",
"ln":"141.09952400000",
"":""
},
"geometry":{
"type":"Point",
"coordinates":[
141.099524,
40.586996
]
}
},
{
"type":"Feature",
"properties":{
"Name":"十和田湖体育館",
"Jusho":"青森県十和田市大字奥瀬字生内101番28",
"Capacity":"－",
"la":"40.58003600000",
"ln":"141.10855700000",
"":""
},
"geometry":{
"type":"Point",
"coordinates":[
141.108557,
40.580036
]
}
},
{
"type":"Feature",
"properties":{
"Name":"十和田工業高等学校",
"Jusho":"青森県十和田市三本木下平215－",
"Capacity":"－",
"la":"40.62909300000",
"ln":"141.22949900000",
"":""
},
"geometry":{
"type":"Point",
"coordinates":[
141.229499,
40.629093
]
}
},
{
"type":"Feature",
"properties":{
"Name":"十和田西高等学校",
"Jusho":"青森県十和田市沢田下洗53-3",
"Capacity":"－",
"la":"40.58548600000",
"ln":"141.15450800000",
"":""
},
"geometry":{
"type":"Point",
"coordinates":[
141.154508,
40.585486
]
}
},
{
"type":"Feature",
"properties":{
"Name":"焼山福祉センター",
"Jusho":"青森県十和田市大字奥瀬字栃久保11-33",
"Capacity":"－",
"la":"40.57869800000",
"ln":"140.99982100000",
"":""
},
"geometry":{
"type":"Point",
"coordinates":[
140.999821,
40.578698
]
}
},
{
"type":"Feature",
"properties":{
"Name":"沢田悠学館",
"Jusho":"青森県十和田市大字沢田字下洗21番地1",
"Capacity":"－",
"la":"40.58432300000",
"ln":"141.15681900000",
"":""
},
"geometry":{
"type":"Point",
"coordinates":[
141.156819,
40.584323
]
}
},
{
"type":"Feature",
"properties":{
"Name":"中央公民館",
"Jusho":"青森県十和田市西十三番町1番1号",
"Capacity":"－",
"la":"40.61167200000",
"ln":"141.20628500000",
"":""
},
"geometry":{
"type":"Point",
"coordinates":[
141.206285,
40.611672
]
}
},
{
"type":"Feature",
"properties":{
"Name":"南運動広場",
"Jusho":"青森県十和田市",
"Capacity":"－",
"la":"40.60102550610",
"ln":"141.22028035900",
"":""
},
"geometry":{
"type":"Point",
"coordinates":[
141.220280359,
40.6010255061
]
}
},
{
"type":"Feature",
"properties":{
"Name":"南公民館",
"Jusho":"青森県十和田市西六番町5番10号",
"Capacity":"－",
"la":"40.59889139140",
"ln":"141.21866981100",
"":""
},
"geometry":{
"type":"Point",
"coordinates":[
141.218669811,
40.5988913914
]
}
},
{
"type":"Feature",
"properties":{
"Name":"保健センター",
"Jusho":"青森県十和田市西十三番町4-37",
"Capacity":"－",
"la":"40.61061132540",
"ln":"141.20363744200",
"":""
},
"geometry":{
"type":"Point",
"coordinates":[
141.203637442,
40.6106113254
]
}
},
{
"type":"Feature",
"properties":{
"Name":"母子福祉会館",
"Jusho":"青森県十和田市西二番町12－2",
"Capacity":"－",
"la":"40.61498125520",
"ln":"141.20662243000",
"":""
},
"geometry":{
"type":"Point",
"coordinates":[
141.20662243,
40.6149812552
]
}
},
{
"type":"Feature",
"properties":{
"Name":"老人福祉センター",
"Jusho":"青森県十和田市西二番町12番14号",
"Capacity":"－",
"la":"40.61471100000",
"ln":"141.20595200000",
"":""
},
"geometry":{
"type":"Point",
"coordinates":[
141.205952,
40.614711
]
}
},
{
"type":"Feature",
"properties":{
"Name":"三沢高等学校（野球場）",
"Jusho":"青森県三沢市松原町二丁目45",
"Capacity":"10121",
"la":"40.66847200210",
"ln":"141.37476721500",
"":""
},
"geometry":{
"type":"Point",
"coordinates":[
141.374767215,
40.6684720021
]
}
},
{
"type":"Feature",
"properties":{
"Name":"勤労青少年ホーム働く婦人の家",
"Jusho":"青森県三沢市幸町一丁目7-5",
"Capacity":"268",
"la":"40.68446700000",
"ln":"141.36761200000",
"":""
},
"geometry":{
"type":"Point",
"coordinates":[
141.367612,
40.684467
]
}
},
{
"type":"Feature",
"properties":{
"Name":"根井団体活動センター",
"Jusho":"青森県三沢市根井一丁目94－",
"Capacity":"2247",
"la":"40.75722800000",
"ln":"141.37726900000",
"":""
},
"geometry":{
"type":"Point",
"coordinates":[
141.377269,
40.757228
]
}
},
{
"type":"Feature",
"properties":{
"Name":"三沢高等学校",
"Jusho":"青森県三沢市松園町一丁目1",
"Capacity":"8481",
"la":"40.67881500000",
"ln":"141.37087300000",
"":""
},
"geometry":{
"type":"Point",
"coordinates":[
141.370873,
40.678815
]
}
},
{
"type":"Feature",
"properties":{
"Name":"三沢商業高等学校",
"Jusho":"青森県三沢市春日台二丁目154",
"Capacity":"20382",
"la":"40.66825900000",
"ln":"141.34393100000",
"":""
},
"geometry":{
"type":"Point",
"coordinates":[
141.343931,
40.668259
]
}
},
{
"type":"Feature",
"properties":{
"Name":"招和台",
"Jusho":"青森県三沢市山ノ神19番",
"Capacity":"3818",
"la":"40.69227627000",
"ln":"141.40111020000",
"":""
},
"geometry":{
"type":"Point",
"coordinates":[
141.4011102,
40.69227627
]
}
},
{
"type":"Feature",
"properties":{
"Name":"織笠団体活動センター",
"Jusho":"青森県三沢市織笠四丁目2692－",
"Capacity":"10925",
"la":"40.79439300000",
"ln":"141.39789500000",
"":""
},
"geometry":{
"type":"Point",
"coordinates":[
141.397895,
40.794393
]
}
},
{
"type":"Feature",
"properties":{
"Name":"総合体育館",
"Jusho":"青森県三沢市桜町一丁目4-7",
"Capacity":"617",
"la":"40.68243100000",
"ln":"141.37030700000",
"":""
},
"geometry":{
"type":"Point",
"coordinates":[
141.370307,
40.682431
]
}
},
{
"type":"Feature",
"properties":{
"Name":"谷地頭団体活動センター",
"Jusho":"青森県三沢市谷地頭一丁目1752－",
"Capacity":"13676",
"la":"40.77908700000",
"ln":"141.36988300000",
"":""
},
"geometry":{
"type":"Point",
"coordinates":[
141.369883,
40.779087
]
}
},
{
"type":"Feature",
"properties":{
"Name":"天ヶ森庁舎",
"Jusho":"青森県三沢市天ヶ森天ヶ森13-283",
"Capacity":"1451",
"la":"40.84899040320",
"ln":"141.38947106900",
"":""
},
"geometry":{
"type":"Point",
"coordinates":[
141.389471069,
40.8489904032
]
}
},
{
"type":"Feature",
"properties":{
"Name":"南山いこいの広場",
"Jusho":"青森県三沢市南山四丁目36番17",
"Capacity":"1162",
"la":"40.67897019000",
"ln":"141.39357544000",
"":""
},
"geometry":{
"type":"Point",
"coordinates":[
141.39357544,
40.67897019
]
}
},
{
"type":"Feature",
"properties":{
"Name":"武道館",
"Jusho":"青森県三沢市中央町一丁目4-20",
"Capacity":"852",
"la":"40.68335600000",
"ln":"141.36686000000",
"":""
},
"geometry":{
"type":"Point",
"coordinates":[
141.36686,
40.683356
]
}
},
{
"type":"Feature",
"properties":{
"Name":"六川目団体活動センター",
"Jusho":"青森県三沢市六川目二丁目100-7",
"Capacity":"5788",
"la":"40.76471500000",
"ln":"141.40433600000",
"":""
},
"geometry":{
"type":"Point",
"coordinates":[
141.404336,
40.764715
]
}
},
{
"type":"Feature",
"properties":{
"Name":"あたご幼稚園遊戯室等",
"Jusho":"青森県むつ市川内町川内87",
"Capacity":"25",
"la":"41.19773481510",
"ln":"140.99944309300",
"":""
},
"geometry":{
"type":"Point",
"coordinates":[
140.999443093,
41.1977348151
]
}
},
{
"type":"Feature",
"properties":{
"Name":"エビナ保育園遊戯室等",
"Jusho":"青森県むつ市川内町休所42－84",
"Capacity":"110",
"la":"41.19916400000",
"ln":"140.97924500000",
"":""
},
"geometry":{
"type":"Point",
"coordinates":[
140.979245,
41.199164
]
}
},
{
"type":"Feature",
"properties":{
"Name":"ふれあい広場",
"Jusho":"青森県むつ市川内町中道129-7",
"Capacity":"1805",
"la":"41.20293266030",
"ln":"140.99065809900",
"":""
},
"geometry":{
"type":"Point",
"coordinates":[
140.990658099,
41.2029326603
]
}
},
{
"type":"Feature",
"properties":{
"Name":"むつ下北観光物産館",
"Jusho":"青森県むつ市柳町1－0-25",
"Capacity":"864",
"la":"41.29785869770",
"ln":"141.21625262000",
"":""
},
"geometry":{
"type":"Point",
"coordinates":[
141.21625262,
41.2978586977
]
}
},
{
"type":"Feature",
"properties":{
"Name":"むつ工業高等学校体育館",
"Jusho":"青森県むつ市文京町22-7",
"Capacity":"19379",
"la":"41.28902000000",
"ln":"141.16781000000",
"":""
},
"geometry":{
"type":"Point",
"coordinates":[
141.16781,
41.28902
]
}
},
{
"type":"Feature",
"properties":{
"Name":"むつ市イベント広場",
"Jusho":"青森県むつ市柳町一丁目323番4",
"Capacity":"500",
"la":"41.29702579960",
"ln":"141.21689875200",
"":""
},
"geometry":{
"type":"Point",
"coordinates":[
141.216898752,
41.2970257996
]
}
},
{
"type":"Feature",
"properties":{
"Name":"むつ市ウエルネスパークしもきた克雪ドームセンターハウス",
"Jusho":"青森県むつ市真砂町8-8",
"Capacity":"10834",
"la":"41.28161300000",
"ln":"141.17478800000",
"":""
},
"geometry":{
"type":"Point",
"coordinates":[
141.174788,
41.281613
]
}
},
{
"type":"Feature",
"properties":{
"Name":"むつ市下北自然の家体育館",
"Jusho":"青森県むつ市大畑町佐助川399",
"Capacity":"61525",
"la":"41.44781229620",
"ln":"141.11539941400",
"":""
},
"geometry":{
"type":"Point",
"coordinates":[
141.115399414,
41.4478122962
]
}
},
{
"type":"Feature",
"properties":{
"Name":"むつ市中央公民館講堂",
"Jusho":"青森県むつ市大湊浜町13－",
"Capacity":"140",
"la":"41.27552100000",
"ln":"141.15700500000",
"":""
},
"geometry":{
"type":"Point",
"coordinates":[
141.157005,
41.275521
]
}
},
{
"type":"Feature",
"properties":{
"Name":"むつ来さまい館",
"Jusho":"青森県むつ市田名部町10－",
"Capacity":"1215",
"la":"41.29647800000",
"ln":"141.21703100000",
"":""
},
"geometry":{
"type":"Point",
"coordinates":[
141.217031,
41.296478
]
}
},
{
"type":"Feature",
"properties":{
"Name":"安部城地区公民館集会室等",
"Jusho":"青森県むつ市川内町新田290-44",
"Capacity":"20",
"la":"41.25009200000",
"ln":"140.98860100000",
"":""
},
"geometry":{
"type":"Point",
"coordinates":[
140.988601,
41.250092
]
}
},
{
"type":"Feature",
"properties":{
"Name":"芋田地区集会所",
"Jusho":"青森県むつ市脇野沢九艘泊14-3",
"Capacity":"15",
"la":"41.13783146010",
"ln":"140.77968510500",
"":""
},
"geometry":{
"type":"Point",
"coordinates":[
140.779685105,
41.1378314601
]
}
},
{
"type":"Feature",
"properties":{
"Name":"横迎町保育所遊戯室等",
"Jusho":"青森県むつ市横迎町二丁目3-23",
"Capacity":"440",
"la":"41.29435400000",
"ln":"141.21888900000",
"":""
},
"geometry":{
"type":"Point",
"coordinates":[
141.218889,
41.294354
]
}
},
{
"type":"Feature",
"properties":{
"Name":"下小倉平地区公民館集会室等",
"Jusho":"青森県むつ市川内町下小倉平98",
"Capacity":"20",
"la":"41.22357599910",
"ln":"140.98556800000",
"":""
},
"geometry":{
"type":"Point",
"coordinates":[
140.985568,
41.2235759991
]
}
},
{
"type":"Feature",
"properties":{
"Name":"海老川コミュニティセンター集会室等",
"Jusho":"青森県むつ市緑町3－",
"Capacity":"1875",
"la":"41.29005600000",
"ln":"141.19538600000",
"":""
},
"geometry":{
"type":"Point",
"coordinates":[
141.195386,
41.290056
]
}
},
{
"type":"Feature",
"properties":{
"Name":"蛎崎地区公民館集会室等",
"Jusho":"青森県むつ市川内町蛎崎寺ノ前148-36",
"Capacity":"20",
"la":"41.16852899910",
"ln":"140.90368800000",
"":""
},
"geometry":{
"type":"Point",
"coordinates":[
140.903688,
41.1685289991
]
}
},
{
"type":"Feature",
"properties":{
"Name":"学習センター集会室等",
"Jusho":"青森県むつ市宇田町21-25",
"Capacity":"142",
"la":"41.25702900000",
"ln":"141.13974200000",
"":""
},
"geometry":{
"type":"Point",
"coordinates":[
141.139742,
41.257029
]
}
},
{
"type":"Feature",
"properties":{
"Name":"関根橋地区公民館集会室等",
"Jusho":"青森県むつ市大畑町関根橋14",
"Capacity":"311",
"la":"41.37916500000",
"ln":"141.14831900000",
"":""
},
"geometry":{
"type":"Point",
"coordinates":[
141.148319,
41.379165
]
}
},
{
"type":"Feature",
"properties":{
"Name":"関根浜漁民研修センター前広場",
"Jusho":"青森県むつ市北関根313番",
"Capacity":"750",
"la":"41.36990619260",
"ln":"141.22399469600",
"":""
},
"geometry":{
"type":"Point",
"coordinates":[
141.223994696,
41.3699061926
]
}
},
{
"type":"Feature",
"properties":{
"Name":"寄浪高台",
"Jusho":"青森県むつ市脇野沢寄浪",
"Capacity":"100",
"la":"41.12997128330",
"ln":"140.80425148500",
"":""
},
"geometry":{
"type":"Point",
"coordinates":[
140.804251485,
41.1299712833
]
}
},
{
"type":"Feature",
"properties":{
"Name":"寄浪地区生活福祉センター",
"Jusho":"青森県むつ市脇野沢寄浪41",
"Capacity":"166",
"la":"41.12996700000",
"ln":"140.80289800000",
"":""
},
"geometry":{
"type":"Point",
"coordinates":[
140.802898,
41.129967
]
}
},
{
"type":"Feature",
"properties":{
"Name":"旧第一川内保育所遊戯室等",
"Jusho":"青森県むつ市川内町?木38",
"Capacity":"275",
"la":"41.19983100000",
"ln":"141.00288200000",
"":""
},
"geometry":{
"type":"Point",
"coordinates":[
141.002882,
41.199831
]
}
},
{
"type":"Feature",
"properties":{
"Name":"勤労青少年ホーム体育館",
"Jusho":"青森県むつ市大湊上町3－2",
"Capacity":"273",
"la":"41.27516700000",
"ln":"141.15505100000",
"":""
},
"geometry":{
"type":"Point",
"coordinates":[
141.155051,
41.275167
]
}
},
{
"type":"Feature",
"properties":{
"Name":"銀杏木地区公民館集会室等",
"Jusho":"青森県むつ市川内町銀杏木31",
"Capacity":"20",
"la":"41.24108268120",
"ln":"140.99276229500",
"":""
},
"geometry":{
"type":"Point",
"coordinates":[
140.992762295,
41.2410826812
]
}
},
{
"type":"Feature",
"properties":{
"Name":"九艘泊地区公民館集会室等",
"Jusho":"青森県むつ市脇野沢九艘泊110",
"Capacity":"1470",
"la":"41.14449799910",
"ln":"140.77449700000",
"":""
},
"geometry":{
"type":"Point",
"coordinates":[
140.774497,
41.1444979991
]
}
},
{
"type":"Feature",
"properties":{
"Name":"健康管理センター集会室等",
"Jusho":"青森県むつ市川内町休所42",
"Capacity":"66",
"la":"41.20011400000",
"ln":"140.98697500000",
"":""
},
"geometry":{
"type":"Point",
"coordinates":[
140.986975,
41.200114
]
}
},
{
"type":"Feature",
"properties":{
"Name":"県営駐車場",
"Jusho":"青森県むつ市大畑町薬研",
"Capacity":"1078",
"la":"41.38151385010",
"ln":"141.07014207500",
"":""
},
"geometry":{
"type":"Point",
"coordinates":[
141.070142075,
41.3815138501
]
}
},
{
"type":"Feature",
"properties":{
"Name":"源藤城神社",
"Jusho":"青森県むつ市脇野沢源藤城",
"Capacity":"100",
"la":"41.18069506660",
"ln":"140.80076051800",
"":""
},
"geometry":{
"type":"Point",
"coordinates":[
140.800760518,
41.1806950666
]
}
},
{
"type":"Feature",
"properties":{
"Name":"戸沢地区公民館集会室等",
"Jusho":"青森県むつ市川内町川代15－",
"Capacity":"41",
"la":"41.19068999910",
"ln":"141.06119500000",
"":""
},
"geometry":{
"type":"Point",
"coordinates":[
141.061195,
41.1906899991
]
}
},
{
"type":"Feature",
"properties":{
"Name":"高橋川コミュニティセンター集会室等",
"Jusho":"青森県むつ市大畑町高橋川30-7",
"Capacity":"221",
"la":"41.39438200000",
"ln":"141.13275900000",
"":""
},
"geometry":{
"type":"Point",
"coordinates":[
141.132759,
41.394382
]
}
},
{
"type":"Feature",
"properties":{
"Name":"市民体育館体育館",
"Jusho":"青森県むつ市金谷一丁目7-26",
"Capacity":"510",
"la":"41.29390400000",
"ln":"141.19923300000",
"":""
},
"geometry":{
"type":"Point",
"coordinates":[
141.199233,
41.293904
]
}
},
{
"type":"Feature",
"properties":{
"Name":"宿野部地区公民館集会室等",
"Jusho":"青森県むつ市川内町宿野部106－",
"Capacity":"20",
"la":"41.17564299910",
"ln":"140.93368300000",
"":""
},
"geometry":{
"type":"Point",
"coordinates":[
140.933683,
41.1756429991
]
}
},
{
"type":"Feature",
"properties":{
"Name":"初見地区公民館集会室等",
"Jusho":"青森県むつ市川内町休所42－40",
"Capacity":"25",
"la":"41.19958700000",
"ln":"140.97857500000",
"":""
},
"geometry":{
"type":"Point",
"coordinates":[
140.978575,
41.199587
]
}
},
{
"type":"Feature",
"properties":{
"Name":"小川町第２白百合保育園遊戯室等",
"Jusho":"青森県むつ市小川町一丁目15－3",
"Capacity":"491",
"la":"41.29527100000",
"ln":"141.20405700000",
"":""
},
"geometry":{
"type":"Point",
"coordinates":[
141.204057,
41.295271
]
}
},
{
"type":"Feature",
"properties":{
"Name":"小沢稲平高原",
"Jusho":"青森県むつ市脇野沢稲平",
"Capacity":"100",
"la":"41.16453973860",
"ln":"140.86412401100",
"":""
},
"geometry":{
"type":"Point",
"coordinates":[
140.864124011,
41.1645397386
]
}
},
{
"type":"Feature",
"properties":{
"Name":"小沢鹿間平高原",
"Jusho":"青森県むつ市脇野沢鹿間平",
"Capacity":"100",
"la":"41.16844931220",
"ln":"140.87794102400",
"":""
},
"geometry":{
"type":"Point",
"coordinates":[
140.877941024,
41.1684493122
]
}
},
{
"type":"Feature",
"properties":{
"Name":"小沢地区公民館集会室等",
"Jusho":"青森県むつ市脇野沢小サ沢1-9",
"Capacity":"4015",
"la":"41.16690699910",
"ln":"140.87186400000",
"":""
},
"geometry":{
"type":"Point",
"coordinates":[
140.871864,
41.1669069991
]
}
},
{
"type":"Feature",
"properties":{
"Name":"小沢地区生活福祉センター",
"Jusho":"青森県むつ市脇野沢鹿間平6-4",
"Capacity":"201",
"la":"41.16728400000",
"ln":"140.87450500000",
"":""
},
"geometry":{
"type":"Point",
"coordinates":[
140.874505,
41.167284
]
}
},
{
"type":"Feature",
"properties":{
"Name":"小目名地区公民館集会室等",
"Jusho":"青森県むつ市大畑町小目名村54",
"Capacity":"209",
"la":"41.39177000000",
"ln":"141.12393800000",
"":""
},
"geometry":{
"type":"Point",
"coordinates":[
141.123938,
41.39177
]
}
},
{
"type":"Feature",
"properties":{
"Name":"上小倉平地区公民館集会室等",
"Jusho":"青森県むつ市川内町上小倉平140－",
"Capacity":"25",
"la":"41.23088899910",
"ln":"140.98736000000",
"":""
},
"geometry":{
"type":"Point",
"coordinates":[
140.98736,
41.2308889991
]
}
},
{
"type":"Feature",
"properties":{
"Name":"上野町内会館集会室等",
"Jusho":"青森県むつ市大畑町上野85",
"Capacity":"387",
"la":"41.40414097780",
"ln":"141.17228324400",
"":""
},
"geometry":{
"type":"Point",
"coordinates":[
141.172283244,
41.4041409778
]
}
},
{
"type":"Feature",
"properties":{
"Name":"新井田高台",
"Jusho":"青森県むつ市脇野沢新井田",
"Capacity":"50",
"la":"41.13408566090",
"ln":"140.81332916400",
"":""
},
"geometry":{
"type":"Point",
"coordinates":[
140.813329164,
41.1340856609
]
}
},
{
"type":"Feature",
"properties":{
"Name":"新井田地区生活改善センター",
"Jusho":"青森県むつ市脇野沢新井田12",
"Capacity":"61",
"la":"41.13398400000",
"ln":"140.81522300000",
"":""
},
"geometry":{
"type":"Point",
"coordinates":[
140.815223,
41.133984
]
}
},
{
"type":"Feature",
"properties":{
"Name":"新町集会所集会室等",
"Jusho":"青森県むつ市川内町熊ケ平1-5",
"Capacity":"25",
"la":"41.19824072510",
"ln":"141.00882408000",
"":""
},
"geometry":{
"type":"Point",
"coordinates":[
141.00882408,
41.1982407251
]
}
},
{
"type":"Feature",
"properties":{
"Name":"新町町内会館集会室等",
"Jusho":"青森県むつ市大畑町新町99－",
"Capacity":"265",
"la":"41.40451200000",
"ln":"141.16077800000",
"":""
},
"geometry":{
"type":"Point",
"coordinates":[
141.160778,
41.404512
]
}
},
{
"type":"Feature",
"properties":{
"Name":"新町保育所遊戯室等",
"Jusho":"青森県むつ市新町6-35",
"Capacity":"1010",
"la":"41.29179900000",
"ln":"141.21161200000",
"":""
},
"geometry":{
"type":"Point",
"coordinates":[
141.211612,
41.291799
]
}
},
{
"type":"Feature",
"properties":{
"Name":"瀬野地区コミュニティセンター",
"Jusho":"青森県むつ市脇野沢瀬野川目65",
"Capacity":"164",
"la":"41.13968900000",
"ln":"140.81688900000",
"":""
},
"geometry":{
"type":"Point",
"coordinates":[
140.816889,
41.139689
]
}
},
{
"type":"Feature",
"properties":{
"Name":"正津川児童館体育館",
"Jusho":"青森県むつ市大畑町正津川平114-64",
"Capacity":"1240",
"la":"41.39456400000",
"ln":"141.18235200000",
"":""
},
"geometry":{
"type":"Point",
"coordinates":[
141.182352,
41.394564
]
}
},
{
"type":"Feature",
"properties":{
"Name":"正津川地区公民館集会室等",
"Jusho":"青森県むつ市大畑町正津川平87－",
"Capacity":"764",
"la":"41.39047900000",
"ln":"141.18429400000",
"":""
},
"geometry":{
"type":"Point",
"coordinates":[
141.184294,
41.390479
]
}
},
{
"type":"Feature",
"properties":{
"Name":"石倉地区公民館集会室等",
"Jusho":"青森県むつ市川内町石倉沢75-2",
"Capacity":"24",
"la":"41.21371699910",
"ln":"141.03890700000",
"":""
},
"geometry":{
"type":"Point",
"coordinates":[
141.038907,
41.2137169991
]
}
},
{
"type":"Feature",
"properties":{
"Name":"赤川地区公民館集会室等",
"Jusho":"青森県むつ市大畑町赤川3-4",
"Capacity":"1140",
"la":"41.45473400000",
"ln":"141.11563400000",
"":""
},
"geometry":{
"type":"Point",
"coordinates":[
141.115634,
41.454734
]
}
},
{
"type":"Feature",
"properties":{
"Name":"川内公民館集会室等",
"Jusho":"青森県むつ市川内町しなの木153",
"Capacity":"409",
"la":"41.20109725250",
"ln":"141.00090008100",
"":""
},
"geometry":{
"type":"Point",
"coordinates":[
141.000900081,
41.2010972525
]
}
},
{
"type":"Feature",
"properties":{
"Name":"川内体育館体育館",
"Jusho":"青森県むつ市川内町しなの木153",
"Capacity":"4113",
"la":"41.20117800000",
"ln":"141.00177700000",
"":""
},
"geometry":{
"type":"Point",
"coordinates":[
141.001777,
41.201178
]
}
},
{
"type":"Feature",
"properties":{
"Name":"総合福祉センター集会室等",
"Jusho":"青森県むつ市大畑町観音堂25－",
"Capacity":"2016",
"la":"41.39948699910",
"ln":"141.15732000000",
"":""
},
"geometry":{
"type":"Point",
"coordinates":[
141.15732,
41.3994869991
]
}
},
{
"type":"Feature",
"properties":{
"Name":"孫次郎間地区公民館集会室等",
"Jusho":"青森県むつ市大畑町孫次郎間19-24",
"Capacity":"341",
"la":"41.41416399910",
"ln":"141.16285200000",
"":""
},
"geometry":{
"type":"Point",
"coordinates":[
141.162852,
41.4141639991
]
}
},
{
"type":"Feature",
"properties":{
"Name":"大安寺敷地内",
"Jusho":"青森県むつ市大畑町本町80-20",
"Capacity":"375",
"la":"41.39765121610",
"ln":"141.16361755200",
"":""
},
"geometry":{
"type":"Point",
"coordinates":[
141.163617552,
41.3976512161
]
}
},
{
"type":"Feature",
"properties":{
"Name":"大曲コミュニティセンター研修室等",
"Jusho":"青森県むつ市大曲二丁目1－",
"Capacity":"279",
"la":"41.26472499910",
"ln":"141.22366500000",
"":""
},
"geometry":{
"type":"Point",
"coordinates":[
141.223665,
41.2647249991
]
}
},
{
"type":"Feature",
"properties":{
"Name":"大畑コミュニティセンター集会室等",
"Jusho":"青森県むつ市大畑町湊村165-8",
"Capacity":"1731",
"la":"41.41019108600",
"ln":"141.16722981900",
"":""
},
"geometry":{
"type":"Point",
"coordinates":[
141.167229819,
41.410191086
]
}
},
{
"type":"Feature",
"properties":{
"Name":"大畑公民館講堂",
"Jusho":"青森県むつ市大畑町中島108-5",
"Capacity":"270",
"la":"41.40501434470",
"ln":"141.16836991500",
"":""
},
"geometry":{
"type":"Point",
"coordinates":[
141.168369915,
41.4050143447
]
}
},
{
"type":"Feature",
"properties":{
"Name":"大畑体育館体育館",
"Jusho":"青森県むつ市大畑町中島108-5",
"Capacity":"7434",
"la":"41.40470153430",
"ln":"141.16767663900",
"":""
},
"geometry":{
"type":"Point",
"coordinates":[
141.167676639,
41.4047015343
]
}
},
{
"type":"Feature",
"properties":{
"Name":"大畑中央保育所遊戯室等",
"Jusho":"青森県むつ市大畑町中島4-4",
"Capacity":"3593",
"la":"41.40737600000",
"ln":"141.16437600000",
"":""
},
"geometry":{
"type":"Point",
"coordinates":[
141.164376,
41.407376
]
}
},
{
"type":"Feature",
"properties":{
"Name":"大畑奉仕店会前",
"Jusho":"青森県むつ市大畑町新町130",
"Capacity":"129",
"la":"41.40330346500",
"ln":"141.16032814600",
"":""
},
"geometry":{
"type":"Point",
"coordinates":[
141.160328146,
41.403303465
]
}
},
{
"type":"Feature",
"properties":{
"Name":"大平保育園遊戯室等",
"Jusho":"青森県むつ市大平町39-6",
"Capacity":"594",
"la":"41.28285400000",
"ln":"141.16647700000",
"":""
},
"geometry":{
"type":"Point",
"coordinates":[
141.166477,
41.282854
]
}
},
{
"type":"Feature",
"properties":{
"Name":"大平緑地",
"Jusho":"青森県むつ市真砂町地先",
"Capacity":"20000",
"la":"41.28241482880",
"ln":"141.17681128600",
"":""
},
"geometry":{
"type":"Point",
"coordinates":[
141.176811286,
41.2824148288
]
}
},
{
"type":"Feature",
"properties":{
"Name":"大湊高等学校川内校舎体育館",
"Jusho":"青森県むつ市川内町家ノ上48",
"Capacity":"10969",
"la":"41.19582200000",
"ln":"140.97002400000",
"":""
},
"geometry":{
"type":"Point",
"coordinates":[
140.970024,
41.195822
]
}
},
{
"type":"Feature",
"properties":{
"Name":"大湊高等学校体育館",
"Jusho":"青森県むつ市大湊字大近川44-84",
"Capacity":"18391",
"la":"41.25124600000",
"ln":"141.12809300000",
"":""
},
"geometry":{
"type":"Point",
"coordinates":[
141.128093,
41.251246
]
}
},
{
"type":"Feature",
"properties":{
"Name":"滝山地区公民館集会室等",
"Jusho":"青森県むつ市脇野沢滝山315",
"Capacity":"2615",
"la":"41.17543500000",
"ln":"140.79823500000",
"":""
},
"geometry":{
"type":"Point",
"coordinates":[
140.798235,
41.175435
]
}
},