var st={
"type":"FeatureCollection",
"features":[
{
"type":"Feature",
"properties":{
"Name":"浦町小学校",
"Jusho":"青森県青森市中央二丁目17－3",
"Capacity":"313",
"la":"40.81906000000",
"ln":"140.74869800000"
},
"geometry":{
"type":"Point",
"coordinates":[
140.748698,
40.81906
]
}
},
{
"type":"Feature",
"properties":{
"Name":"栄山小学校",
"Jusho":"青森県青森市細越字栄山595",
"Capacity":"231",
"la":"40.79628400000",
"ln":"140.71064600000"
},
"geometry":{
"type":"Point",
"coordinates":[
140.710646,
40.796284
]
}
},
{
"type":"Feature",
"properties":{
"Name":"奥内小学校",
"Jusho":"青森県青森市清水字浜元181",
"Capacity":"327",
"la":"40.90127100000",
"ln":"140.67425600000"
},
"geometry":{
"type":"Point",
"coordinates":[
140.674256,
40.901271
]
}
},
{
"type":"Feature",
"properties":{
"Name":"横内小学校",
"Jusho":"青森県青森市野尻字野田60",
"Capacity":"366",
"la":"40.78212100000",
"ln":"140.77064100000"
},
"geometry":{
"type":"Point",
"coordinates":[
140.770641,
40.782121
]
}
},
{
"type":"Feature",
"properties":{
"Name":"王余魚沢小学校跡地",
"Jusho":"青森県青森市浪岡王余魚沢字王余魚沢1",
"Capacity":"－",
"la":"40.72427140800",
"ln":"140.66358798300"
},
"geometry":{
"type":"Point",
"coordinates":[
140.663587983,
40.724271408
]
}
},
{
"type":"Feature",
"properties":{
"Name":"沖館小学校",
"Jusho":"青森県青森市沖館五丁目3－",
"Capacity":"350",
"la":"40.83211400000",
"ln":"140.72147700000"
},
"geometry":{
"type":"Point",
"coordinates":[
140.721477,
40.832114
]
}
},
{
"type":"Feature",
"properties":{
"Name":"久栗坂小学校",
"Jusho":"青森県青森市久栗坂字山辺170",
"Capacity":"198",
"la":"40.87350199910",
"ln":"140.84896400000"
},
"geometry":{
"type":"Point",
"coordinates":[
140.848964,
40.8735019991
]
}
},
{
"type":"Feature",
"properties":{
"Name":"旧戸門小学校",
"Jusho":"青森県青森市戸門字山部99－",
"Capacity":"225",
"la":"40.80933700000",
"ln":"140.64148400000"
},
"geometry":{
"type":"Point",
"coordinates":[
140.641484,
40.809337
]
}
},
{
"type":"Feature",
"properties":{
"Name":"橋本小学校",
"Jusho":"青森県青森市橋本一丁目9－7",
"Capacity":"352",
"la":"40.82461500000",
"ln":"140.75286400000"
},
"geometry":{
"type":"Point",
"coordinates":[
140.752864,
40.824615
]
}
},
{
"type":"Feature",
"properties":{
"Name":"金沢小学校",
"Jusho":"青森県青森市金沢四丁目5－",
"Capacity":"352",
"la":"40.80931300000",
"ln":"140.72938700000"
},
"geometry":{
"type":"Point",
"coordinates":[
140.729387,
40.809313
]
}
},
{
"type":"Feature",
"properties":{
"Name":"金浜小学校",
"Jusho":"青森県青森市金浜字伊吹22－",
"Capacity":"236",
"la":"40.76323300000",
"ln":"140.73203400000"
},
"geometry":{
"type":"Point",
"coordinates":[
140.732034,
40.763233
]
}
},
{
"type":"Feature",
"properties":{
"Name":"原別小学校",
"Jusho":"青森県青森市原別字袖崎8",
"Capacity":"350",
"la":"40.83433800000",
"ln":"140.81146900000"
},
"geometry":{
"type":"Point",
"coordinates":[
140.811469,
40.834338
]
}
},
{
"type":"Feature",
"properties":{
"Name":"古川小学校",
"Jusho":"青森県青森市古川三丁目7－4",
"Capacity":"372",
"la":"40.82211500000",
"ln":"140.73397700000"
},
"geometry":{
"type":"Point",
"coordinates":[
140.733977,
40.822115
]
}
},
{
"type":"Feature",
"properties":{
"Name":"戸山西小学校",
"Jusho":"青森県青森市駒込字蛍沢17－1",
"Capacity":"289",
"la":"40.80156400000",
"ln":"140.80008300000"
},
"geometry":{
"type":"Point",
"coordinates":[
140.800083,
40.801564
]
}
},
{
"type":"Feature",
"properties":{
"Name":"後潟小学校",
"Jusho":"青森県青森市六枚橋字磯打95",
"Capacity":"198",
"la":"40.93487900000",
"ln":"140.66203300000"
},
"geometry":{
"type":"Point",
"coordinates":[
140.662033,
40.934879
]
}
},
{
"type":"Feature",
"properties":{
"Name":"幸畑小学校",
"Jusho":"青森県青森市幸畑字松元50-2",
"Capacity":"350",
"la":"40.78795400000",
"ln":"140.78314000000"
},
"geometry":{
"type":"Point",
"coordinates":[
140.78314,
40.787954
]
}
},
{
"type":"Feature",
"properties":{
"Name":"甲田小学校",
"Jusho":"青森県青森市金沢一丁目6－",
"Capacity":"350",
"la":"40.81433800000",
"ln":"140.73397700000"
},
"geometry":{
"type":"Point",
"coordinates":[
140.733977,
40.814338
]
}
},
{
"type":"Feature",
"properties":{
"Name":"荒川小学校",
"Jusho":"青森県青森市荒川字柴田92-5",
"Capacity":"317",
"la":"40.78817800000",
"ln":"140.74120400000"
},
"geometry":{
"type":"Point",
"coordinates":[
140.741204,
40.788178
]
}
},
{
"type":"Feature",
"properties":{
"Name":"高田小学校",
"Jusho":"青森県青森市高田字川瀬200-5",
"Capacity":"198",
"la":"40.77045400000",
"ln":"140.72481200000"
},
"geometry":{
"type":"Point",
"coordinates":[
140.724812,
40.770454
]
}
},
{
"type":"Feature",
"properties":{
"Name":"合浦小学校",
"Jusho":"青森県青森市茶屋町32－7",
"Capacity":"333",
"la":"40.82822600000",
"ln":"140.76730700000"
},
"geometry":{
"type":"Point",
"coordinates":[
140.767307,
40.828226
]
}
},
{
"type":"Feature",
"properties":{
"Name":"三内小学校",
"Jusho":"青森県青森市里見一丁目9－",
"Capacity":"352",
"la":"40.81742800000",
"ln":"140.71249300000"
},
"geometry":{
"type":"Point",
"coordinates":[
140.712493,
40.817428
]
}
},
{
"type":"Feature",
"properties":{
"Name":"三内西小学校",
"Jusho":"青森県青森市三内字丸山86－",
"Capacity":"356",
"la":"40.81683800000",
"ln":"140.70564500000"
},
"geometry":{
"type":"Point",
"coordinates":[
140.705645,
40.816838
]
}
},
{
"type":"Feature",
"properties":{
"Name":"篠田小学校",
"Jusho":"青森県青森市篠田三丁目16-2",
"Capacity":"315",
"la":"40.82822600000",
"ln":"140.71953300000"
},
"geometry":{
"type":"Point",
"coordinates":[
140.719533,
40.828226
]
}
},
{
"type":"Feature",
"properties":{
"Name":"女鹿沢小学校",
"Jusho":"青森県青森市浪岡下十川字扇田19-2",
"Capacity":"452",
"la":"40.69755800000",
"ln":"140.56407400000"
},
"geometry":{
"type":"Point",
"coordinates":[
140.564074,
40.697558
]
}
},
{
"type":"Feature",
"properties":{
"Name":"小柳小学校",
"Jusho":"青森県青森市小柳四丁目6－",
"Capacity":"363",
"la":"40.81878400000",
"ln":"140.79536100000"
},
"geometry":{
"type":"Point",
"coordinates":[
140.795361,
40.818784
]
}
},
{
"type":"Feature",
"properties":{
"Name":"新城小学校",
"Jusho":"青森県青森市新城字平岡266－4",
"Capacity":"292",
"la":"40.82933600000",
"ln":"140.68842300000"
},
"geometry":{
"type":"Point",
"coordinates":[
140.688423,
40.829336
]
}
},
{
"type":"Feature",
"properties":{
"Name":"新城中央小学校",
"Jusho":"青森県青森市新城字平岡141－",
"Capacity":"349",
"la":"40.82572500000",
"ln":"140.67481400000"
},
"geometry":{
"type":"Point",
"coordinates":[
140.674814,
40.825725
]
}
},
{
"type":"Feature",
"properties":{
"Name":"西田沢小学校",
"Jusho":"青森県青森市飛鳥字塩越80",
"Capacity":"160",
"la":"40.87321900000",
"ln":"140.68092400000"
},
"geometry":{
"type":"Point",
"coordinates":[
140.680924,
40.873219
]
}
},
{
"type":"Feature",
"properties":{
"Name":"千刈小学校",
"Jusho":"青森県青森市千刈一丁目10-20",
"Capacity":"350",
"la":"40.82378200000",
"ln":"140.72758800000"
},
"geometry":{
"type":"Point",
"coordinates":[
140.727588,
40.823782
]
}
},
{
"type":"Feature",
"properties":{
"Name":"泉川小学校",
"Jusho":"青森県青森市浪館字泉川1－",
"Capacity":"352",
"la":"40.80683900000",
"ln":"140.72120000000"
},
"geometry":{
"type":"Point",
"coordinates":[
140.7212,
40.806839
]
}
},
{
"type":"Feature",
"properties":{
"Name":"浅虫小学校",
"Jusho":"青森県青森市浅虫字山下132",
"Capacity":"369",
"la":"40.88655600000",
"ln":"140.86785100000"
},
"geometry":{
"type":"Point",
"coordinates":[
140.867851,
40.886556
]
}
},
{
"type":"Feature",
"properties":{
"Name":"造道小学校",
"Jusho":"青森県青森市造道三丁目4－6",
"Capacity":"360",
"la":"40.82906000000",
"ln":"140.78647200000"
},
"geometry":{
"type":"Point",
"coordinates":[
140.786472,
40.82906
]
}
},
{
"type":"Feature",
"properties":{
"Name":"大栄小学校",
"Jusho":"青森県青森市浪岡大釈迦字前田5-2",
"Capacity":"289",
"la":"40.75697100000",
"ln":"140.59009500000"
},
"geometry":{
"type":"Point",
"coordinates":[
140.590095,
40.756971
]
}
},
{
"type":"Feature",
"properties":{
"Name":"大野小学校",
"Jusho":"青森県青森市大野字若宮161-4",
"Capacity":"350",
"la":"40.80384500000",
"ln":"140.74257000000"
},
"geometry":{
"type":"Point",
"coordinates":[
140.74257,
40.803845
]
}
},
{
"type":"Feature",
"properties":{
"Name":"長島小学校",
"Jusho":"青森県青森市長島三丁目8－",
"Capacity":"356",
"la":"40.82156000000",
"ln":"140.74119800000"
},
"geometry":{
"type":"Point",
"coordinates":[
140.741198,
40.82156
]
}
},
{
"type":"Feature",
"properties":{
"Name":"佃小学校",
"Jusho":"青森県青森市佃二丁目6－",
"Capacity":"340",
"la":"40.81933900000",
"ln":"140.77869500000"
},
"geometry":{
"type":"Point",
"coordinates":[
140.778695,
40.819339
]
}
},
{
"type":"Feature",
"properties":{
"Name":"堤小学校",
"Jusho":"青森県青森市松原二丁目4-4",
"Capacity":"371",
"la":"40.81906100000",
"ln":"140.76147500000"
},
"geometry":{
"type":"Point",
"coordinates":[
140.761475,
40.819061
]
}
},
{
"type":"Feature",
"properties":{
"Name":"東陽小学校",
"Jusho":"青森県青森市宮田字玉水181－",
"Capacity":"346",
"la":"40.84072700000",
"ln":"140.82869000000"
},
"geometry":{
"type":"Point",
"coordinates":[
140.82869,
40.840727
]
}
},
{
"type":"Feature",
"properties":{
"Name":"筒井小学校",
"Jusho":"青森県青森市筒井一丁目1－",
"Capacity":"352",
"la":"40.80875000000",
"ln":"140.76454100000"
},
"geometry":{
"type":"Point",
"coordinates":[
140.764541,
40.80875
]
}
},
{
"type":"Feature",
"properties":{
"Name":"筒井南小学校",
"Jusho":"青森県青森市筒井字八ッ橋46－",
"Capacity":"349",
"la":"40.79739700000",
"ln":"140.77008600000"
},
"geometry":{
"type":"Point",
"coordinates":[
140.770086,
40.797397
]
}
},
{
"type":"Feature",
"properties":{
"Name":"浜館小学校",
"Jusho":"青森県青森市田屋敷字下り松17",
"Capacity":"245",
"la":"40.80573000000",
"ln":"140.78980600000"
},
"geometry":{
"type":"Point",
"coordinates":[
140.789806,
40.80573
]
}
},
{
"type":"Feature",
"properties":{
"Name":"浜田小学校",
"Jusho":"青森県青森市浜田字豊田36-2",
"Capacity":"352",
"la":"40.80545100000",
"ln":"140.75675300000"
},
"geometry":{
"type":"Point",
"coordinates":[
140.756753,
40.805451
]
}
},
{
"type":"Feature",
"properties":{
"Name":"本郷小学校",
"Jusho":"青森県青森市浪岡本郷字一本柳4",
"Capacity":"374",
"la":"40.69591100000",
"ln":"140.61411900000"
},
"geometry":{
"type":"Point",
"coordinates":[
140.614119,
40.695911
]
}
},
{
"type":"Feature",
"properties":{
"Name":"野沢小学校",
"Jusho":"青森県青森市野沢字沢部108",
"Capacity":"243",
"la":"40.74767800000",
"ln":"140.72342500000"
},
"geometry":{
"type":"Point",
"coordinates":[
140.723425,
40.747678
]
}
},
{
"type":"Feature",
"properties":{
"Name":"野内小学校",
"Jusho":"青森県青森市野内字菊川153",
"Capacity":"225",
"la":"40.84933700000",
"ln":"140.81896800000"
},
"geometry":{
"type":"Point",
"coordinates":[
140.818968,
40.849337
]
}
},
{
"type":"Feature",
"properties":{
"Name":"油川小学校",
"Jusho":"青森県青森市油川字船岡36",
"Capacity":"350",
"la":"40.85016700000",
"ln":"140.69203400000"
},
"geometry":{
"type":"Point",
"coordinates":[
140.692034,
40.850167
]
}
},
{
"type":"Feature",
"properties":{
"Name":"浪岡南小学校",
"Jusho":"青森県青森市浪岡北中野字北畠3",
"Capacity":"555",
"la":"40.70823500000",
"ln":"140.59815900000"
},
"geometry":{
"type":"Point",
"coordinates":[
140.598159,
40.708235
]
}
},
{
"type":"Feature",
"properties":{
"Name":"浪岡北小学校",
"Jusho":"青森県青森市浪岡浪岡字淋城29",
"Capacity":"576",
"la":"40.71934500000",
"ln":"140.59343700000"
},
"geometry":{
"type":"Point",
"coordinates":[
140.593437,
40.719345
]
}
},
{
"type":"Feature",
"properties":{
"Name":"浪岡野沢小学校",
"Jusho":"青森県青森市浪岡吉野田字平野51-2",
"Capacity":"419",
"la":"40.72156600000",
"ln":"140.55038400000"
},
"geometry":{
"type":"Point",
"coordinates":[
140.550384,
40.721566
]
}
},
{
"type":"Feature",
"properties":{
"Name":"浪館小学校",
"Jusho":"青森県青森市浪館前田三丁目23－",
"Capacity":"352",
"la":"40.81122200000",
"ln":"140.71571600000"
},
"geometry":{
"type":"Point",
"coordinates":[
140.715716,
40.811222
]
}
},
{
"type":"Feature",
"properties":{
"Name":"浪打小学校",
"Jusho":"青森県青森市浪打一丁目4－",
"Capacity":"360",
"la":"40.82378300000",
"ln":"140.77702900000"
},
"geometry":{
"type":"Point",
"coordinates":[
140.777029,
40.823783
]
}
},
{
"type":"Feature",
"properties":{
"Name":"莨町小学校",
"Jusho":"青森県青森市青柳二丁目7-25",
"Capacity":"359",
"la":"40.82739300000",
"ln":"140.75841900000"
},
"geometry":{
"type":"Point",
"coordinates":[
140.758419,
40.827393
]
}
},
{
"type":"Feature",
"properties":{
"Name":"岩木小学校",
"Jusho":"青森県弘前市五代字前田451",
"Capacity":"767",
"la":"40.61268500000",
"ln":"140.41873300000"
},
"geometry":{
"type":"Point",
"coordinates":[
140.418733,
40.612685
]
}
},
{
"type":"Feature",
"properties":{
"Name":"桔梗野小学校",
"Jusho":"青森県弘前市桔梗野二丁目21",
"Capacity":"367",
"la":"40.59213300000",
"ln":"140.46289700000"
},
"geometry":{
"type":"Point",
"coordinates":[
140.462897,
40.592133
]
}
},
{
"type":"Feature",
"properties":{
"Name":"高杉小学校",
"Jusho":"青森県弘前市高杉字神原7－",
"Capacity":"283",
"la":"40.65823600000",
"ln":"140.43484000000"
},
"geometry":{
"type":"Point",
"coordinates":[
140.43484,
40.658236
]
}
},
{
"type":"Feature",
"properties":{
"Name":"三省小学校",
"Jusho":"青森県弘前市中崎宇野脇142-2",
"Capacity":"294",
"la":"40.65545900000",
"ln":"140.45900500000"
},
"geometry":{
"type":"Point",
"coordinates":[
140.459005,
40.655459
]
}
},
{
"type":"Feature",
"properties":{
"Name":"三和小学校",
"Jusho":"青森県弘前市三和字川合251-2",
"Capacity":"364",
"la":"40.72989500000",
"ln":"140.41067300000"
},
"geometry":{
"type":"Point",
"coordinates":[
140.410673,
40.729895
]
}
},
{
"type":"Feature",
"properties":{
"Name":"時敏小学校",
"Jusho":"青森県弘前市宮園一丁目5－",
"Capacity":"600",
"la":"40.61407600000",
"ln":"140.47678400000"
},
"geometry":{
"type":"Point",
"coordinates":[
140.476784,
40.614076
]
}
},
{
"type":"Feature",
"properties":{
"Name":"自得小学校",
"Jusho":"青森県弘前市鬼沢字菖蒲沢109-4",
"Capacity":"207",
"la":"40.68596809130",
"ln":"140.41358978800"
},
"geometry":{
"type":"Point",
"coordinates":[
140.413589788,
40.6859680913
]
}
},
{
"type":"Feature",
"properties":{
"Name":"修斉小学校",
"Jusho":"青森県弘前市十面沢字赤坂1－",
"Capacity":"368",
"la":"40.74044700000",
"ln":"140.34317700000"
},
"geometry":{
"type":"Point",
"coordinates":[
140.343177,
40.740447
]
}
},
{
"type":"Feature",
"properties":{
"Name":"小沢小学校",
"Jusho":"青森県弘前市大開二丁目5－",
"Capacity":"600",
"la":"40.57407900000",
"ln":"140.44456600000"
},
"geometry":{
"type":"Point",
"coordinates":[
140.444566,
40.574079
]
}
},
{
"type":"Feature",
"properties":{
"Name":"小友小学校",
"Jusho":"青森県弘前市小友字宇田野1140",
"Capacity":"431",
"la":"40.71211900000",
"ln":"140.41206300000"
},
"geometry":{
"type":"Point",
"coordinates":[
140.412063,
40.712119
]
}
},
{
"type":"Feature",
"properties":{
"Name":"松原小学校",
"Jusho":"青森県弘前市松原東二丁目17",
"Capacity":"491",
"la":"40.57380200000",
"ln":"140.48206400000"
},
"geometry":{
"type":"Point",
"coordinates":[
140.482064,
40.573802
]
}
},
{
"type":"Feature",
"properties":{
"Name":"城西小学校",
"Jusho":"青森県弘前市新町236－",
"Capacity":"551",
"la":"40.61046400000",
"ln":"140.45817400000"
},
"geometry":{
"type":"Point",
"coordinates":[
140.458174,
40.610464
]
}
},
{
"type":"Feature",
"properties":{
"Name":"城東小学校",
"Jusho":"青森県弘前市大久保字西田105-40",
"Capacity":"549",
"la":"40.62988882900",
"ln":"140.49215057700"
},
"geometry":{
"type":"Point",
"coordinates":[
140.492150577,
40.629888829
]
}
},
{
"type":"Feature",
"properties":{
"Name":"新和小学校",
"Jusho":"青森県弘前市青女子字桜苅292-4",
"Capacity":"463",
"la":"40.69517600000",
"ln":"140.44345000000"
},
"geometry":{
"type":"Point",
"coordinates":[
140.44345,
40.695176
]
}
},
{
"type":"Feature",
"properties":{
"Name":"西小学校",
"Jusho":"青森県弘前市茜町三丁目2－",
"Capacity":"388",
"la":"40.60102100000",
"ln":"140.44484200000"
},
"geometry":{
"type":"Point",
"coordinates":[
140.444842,
40.601021
]
}
},
{
"type":"Feature",
"properties":{
"Name":"青柳小学校",
"Jusho":"青森県弘前市悪戸字村元7-2",
"Capacity":"354",
"la":"40.59102100000",
"ln":"140.42706700000"
},
"geometry":{
"type":"Point",
"coordinates":[
140.427067,
40.591021
]
}
},
{
"type":"Feature",
"properties":{
"Name":"石川小学校",
"Jusho":"青森県弘前市石川字庄司川添19－",
"Capacity":"289",
"la":"40.55147941000",
"ln":"140.54955275500"
},
"geometry":{
"type":"Point",
"coordinates":[
140.549552755,
40.55147941
]
}
},
{
"type":"Feature",
"properties":{
"Name":"千年小学校",
"Jusho":"青森県弘前市小栗山字川合119-7",
"Capacity":"342",
"la":"40.56713700000",
"ln":"140.48706400000"
},
"geometry":{
"type":"Point",
"coordinates":[
140.487064,
40.567137
]
}
},
{
"type":"Feature",
"properties":{
"Name":"船沢小学校",
"Jusho":"青森県弘前市細越字早稲田42",
"Capacity":"295",
"la":"40.64073800000",
"ln":"140.41373200000"
},
"geometry":{
"type":"Point",
"coordinates":[
140.413732,
40.640738
]
}
},
{
"type":"Feature",
"properties":{
"Name":"相馬小学校",
"Jusho":"青森県弘前市黒滝字二ノ松本2-4",
"Capacity":"596",
"la":"40.58379900000",
"ln":"140.39956900000"
},
"geometry":{
"type":"Point",
"coordinates":[
140.399569,
40.583799
]
}
},
{
"type":"Feature",
"properties":{
"Name":"草薙小学校",
"Jusho":"青森県弘前市大森字田浦12－",
"Capacity":"431",
"la":"40.71184000000",
"ln":"140.38789800000"
},
"geometry":{
"type":"Point",
"coordinates":[
140.387898,
40.71184
]
}
},
{
"type":"Feature",
"properties":{
"Name":"大成小学校",
"Jusho":"青森県弘前市御幸町13－",
"Capacity":"563",
"la":"40.59483300000",
"ln":"140.47609800000"
},
"geometry":{
"type":"Point",
"coordinates":[
140.476098,
40.594833
]
}
},
{
"type":"Feature",
"properties":{
"Name":"大和沢小学校",
"Jusho":"青森県弘前市狼森字天王12－",
"Capacity":"430",
"la":"40.55713700000",
"ln":"140.47123200000"
},
"geometry":{
"type":"Point",
"coordinates":[
140.471232,
40.557137
]
}
},
{
"type":"Feature",
"properties":{
"Name":"第三大成小学校",
"Jusho":"青森県弘前市富田町47",
"Capacity":"555",
"la":"40.58741200000",
"ln":"140.48261900000"
},
"geometry":{
"type":"Point",
"coordinates":[
140.482619,
40.587412
]
}
},
{
"type":"Feature",
"properties":{
"Name":"致遠小学校",
"Jusho":"青森県弘前市浜の町北一丁目7－",
"Capacity":"744",
"la":"40.62490700000",
"ln":"140.46039500000"
},
"geometry":{
"type":"Point",
"coordinates":[
140.460395,
40.624907
]
}
},
{
"type":"Feature",
"properties":{
"Name":"朝陽小学校",
"Jusho":"青森県弘前市在府町36",
"Capacity":"548",
"la":"40.59768800000",
"ln":"140.46150800000"
},
"geometry":{
"type":"Point",
"coordinates":[
140.461508,
40.597688
]
}
},
{
"type":"Feature",
"properties":{
"Name":"東小学校",
"Jusho":"青森県弘前市城東中央五丁目6－",
"Capacity":"497",
"la":"40.60130000000",
"ln":"140.49872800000"
},
"geometry":{
"type":"Point",
"coordinates":[
140.498728,
40.6013
]
}
},
{
"type":"Feature",
"properties":{
"Name":"東目屋小学校",
"Jusho":"青森県弘前市桜庭字清水流39",
"Capacity":"285",
"la":"40.58935200000",
"ln":"140.33596400000"
},
"geometry":{
"type":"Point",
"coordinates":[
140.335964,
40.589352
]
}
},
{
"type":"Feature",
"properties":{
"Name":"百沢小学校",
"Jusho":"青森県弘前市百沢字寺沢95",
"Capacity":"504",
"la":"40.62101500000",
"ln":"140.35123800000"
},
"geometry":{
"type":"Point",
"coordinates":[
140.351238,
40.621015
]
}
},
{
"type":"Feature",
"properties":{
"Name":"福村小学校",
"Jusho":"青森県弘前市福村一丁目1－",
"Capacity":"354",
"la":"40.60768000000",
"ln":"140.51173800000"
},
"geometry":{
"type":"Point",
"coordinates":[
140.511738,
40.60768
]
}
},
{
"type":"Feature",
"properties":{
"Name":"文京小学校",
"Jusho":"青森県弘前市中野一丁目1－",
"Capacity":"419",
"la":"40.58435700000",
"ln":"140.47373100000"
},
"geometry":{
"type":"Point",
"coordinates":[
140.473731,
40.584357
]
}
},
{
"type":"Feature",
"properties":{
"Name":"豊田小学校",
"Jusho":"青森県弘前市豊田一丁目4－",
"Capacity":"581",
"la":"40.59380100000",
"ln":"140.49817300000"
},
"geometry":{
"type":"Point",
"coordinates":[
140.498173,
40.593801
]
}
},
{
"type":"Feature",
"properties":{
"Name":"北小学校",
"Jusho":"青森県弘前市青山三丁目15－",
"Capacity":"547",
"la":"40.62324100000",
"ln":"140.47956100000"
},
"geometry":{
"type":"Point",
"coordinates":[
140.479561,
40.623241
]
}
},
{
"type":"Feature",
"properties":{
"Name":"堀越小学校",
"Jusho":"青森県弘前市門外一丁目3-3",
"Capacity":"572",
"la":"40.58130200000",
"ln":"140.49900700000"
},
"geometry":{
"type":"Point",
"coordinates":[
140.499007,
40.581302
]
}
},
{
"type":"Feature",
"properties":{
"Name":"弥生小学校",
"Jusho":"青森県弘前市弥生字弥生平580",
"Capacity":"96",
"la":"40.66017900000",
"ln":"140.37512300000"
},
"geometry":{
"type":"Point",
"coordinates":[
140.375123,
40.660179
]
}
},
{
"type":"Feature",
"properties":{
"Name":"和徳小学校",
"Jusho":"青森県弘前市代官町107-3",
"Capacity":"424",
"la":"40.60407700000",
"ln":"140.48122900000"
},
"geometry":{
"type":"Point",
"coordinates":[
140.481229,
40.604077
]
}
},
{
"type":"Feature",
"properties":{
"Name":"三条小学校",
"Jusho":"青森県八戸市大字尻内町宇三条目4-4",
"Capacity":"450",
"la":"40.51327900000",
"ln":"141.42892900000"
},
"geometry":{
"type":"Point",
"coordinates":[
141.428929,
40.513279
]
}
},
{
"type":"Feature",
"properties":{
"Name":"旭ケ丘小学校",
"Jusho":"青森県八戸市旭ケ丘一丁目1-6",
"Capacity":"620",
"la":"40.49495000000",
"ln":"141.53530800000"
},
"geometry":{
"type":"Point",
"coordinates":[
141.535308,
40.49495
]
}
},
{
"type":"Feature",
"properties":{
"Name":"下長小学校",
"Jusho":"青森県八戸市大字長苗代字太古殿1－",
"Capacity":"490",
"la":"40.52688900000",
"ln":"141.46503600000"
},
"geometry":{
"type":"Point",
"coordinates":[
141.465036,
40.526889
]
}
},
{
"type":"Feature",
"properties":{
"Name":"桔梗野小学校",
"Jusho":"青森県八戸市大字巾川町字尻引前山31-2",
"Capacity":"490",
"la":"40.55994100000",
"ln":"141.44698200000"
},
"geometry":{
"type":"Point",
"coordinates":[
141.446982,
40.559941
]
}
},
{
"type":"Feature",
"properties":{
"Name":"旧番屋小学校",
"Jusho":"青森県八戸市大字是川字番屋3-8",
"Capacity":"250",
"la":"40.45106600000",
"ln":"141.47892700000"
},
"geometry":{
"type":"Point",
"coordinates":[
141.478927,
40.451066
]
}
},
{
"type":"Feature",
"properties":{
"Name":"金浜小学校",
"Jusho":"青森県八戸市大字金浜字外ノ久保43-3",
"Capacity":"320",
"la":"40.47703700000",
"ln":"141.62043500000"
},
"geometry":{
"type":"Point",
"coordinates":[
141.620435,
40.477037
]
}
},
{
"type":"Feature",
"properties":{
"Name":"江南小学校",
"Jusho":"青森県八戸市根城九丁目22-50",
"Capacity":"490",
"la":"40.51032000000",
"ln":"141.46698200000"
},
"geometry":{
"type":"Point",
"coordinates":[
141.466982,
40.51032
]
}
},
{
"type":"Feature",
"properties":{
"Name":"江陽小学校",
"Jusho":"青森県八戸市江陽五丁目9-24",
"Capacity":"490",
"la":"40.52189100000",
"ln":"141.51086500000"
},
"geometry":{
"type":"Point",
"coordinates":[
141.510865,
40.521891
]
}
},
{
"type":"Feature",
"properties":{
"Name":"高館小学校",
"Jusho":"青森県八戸市大字河原木字小田56－6",
"Capacity":"540",
"la":"40.54188800000",
"ln":"141.46642500000"
},
"geometry":{
"type":"Point",
"coordinates":[
141.466425,
40.541888
]
}
},
{
"type":"Feature",
"properties":{
"Name":"轟木小学校",
"Jusho":"青森県八戸市大字市川町宇和野22-4",
"Capacity":"410",
"la":"40.57604900000",
"ln":"141.43198300000"
},
"geometry":{
"type":"Point",
"coordinates":[
141.431983,
40.576049
]
}
},
{
"type":"Feature",
"properties":{
"Name":"根岸小学校",
"Jusho":"青森県八戸市大字河原木字根岸1-2",
"Capacity":"650",
"la":"40.54216600000",
"ln":"141.48531200000"
},
"geometry":{
"type":"Point",
"coordinates":[
141.485312,
40.542166
]
}
},
{
"type":"Feature",
"properties":{
"Name":"根城小学校",
"Jusho":"青森県八戸市根城四丁目22-27",
"Capacity":"620",
"la":"40.50744800000",
"ln":"141.47309200000"
},
"geometry":{
"type":"Point",
"coordinates":[
141.473092,
40.507448
]
}
},
{
"type":"Feature",
"properties":{
"Name":"鮫小学校",
"Jusho":"青森県八戸市大字鮫町字上手代森19",
"Capacity":"430",
"la":"40.52994600000",
"ln":"141.56113700000"
},
"geometry":{
"type":"Point",
"coordinates":[
141.561137,
40.529946
]
}
},
{
"type":"Feature",
"properties":{
"Name":"市野沢小学校",
"Jusho":"青森県八戸市南郷区大字市野沢宇石窪32－0",
"Capacity":"440",
"la":"40.40351800000",
"ln":"141.43993800000"
},
"geometry":{
"type":"Point",
"coordinates":[
141.439938,
40.403518
]
}
},
{
"type":"Feature",
"properties":{
"Name":"種差小学校",
"Jusho":"青森県八戸市大字鮫町字赤コウ55-59",
"Capacity":"410",
"la":"40.51328300000",
"ln":"141.60418900000"
},
"geometry":{
"type":"Point",
"coordinates":[
141.604189,
40.513283
]
}
},
{
"type":"Feature",
"properties":{
"Name":"小中野小学校",
"Jusho":"青森県八戸市小中野五丁目2－7",
"Capacity":"490",
"la":"40.52050200000",
"ln":"141.51419800000"
},
"geometry":{
"type":"Point",
"coordinates":[
141.514198,
40.520502
]
}
},
{
"type":"Feature",
"properties":{
"Name":"松館小学校",
"Jusho":"青森県八戸市大字松館宇門前6-2",
"Capacity":"350",
"la":"40.46662100000",
"ln":"141.53503100000"
},
"geometry":{
"type":"Point",
"coordinates":[
141.535031,
40.466621
]
}
},
{
"type":"Feature",
"properties":{
"Name":"城下小学校",
"Jusho":"青森県八戸市城下回丁目3-42",
"Capacity":"410",
"la":"40.52216800000",
"ln":"141.48975600000"
},
"geometry":{
"type":"Point",
"coordinates":[
141.489756,
40.522168
]
}
},
{
"type":"Feature",
"properties":{
"Name":"城北小学校",
"Jusho":"青森県八戸市石堂一丁目22-6",
"Capacity":"490",
"la":"40.53105600000",
"ln":"141.47725700000"
},
"geometry":{
"type":"Point",
"coordinates":[
141.477257,
40.531056
]
}
},
{
"type":"Feature",
"properties":{
"Name":"新井田小学校",
"Jusho":"青森県八戸市大字新井田宇館平20",
"Capacity":"600",
"la":"40.49083600000",
"ln":"141.52093300000"
},
"geometry":{
"type":"Point",
"coordinates":[
141.520933,
40.490836
]
}
},
{
"type":"Feature",
"properties":{
"Name":"図南小学校",
"Jusho":"青森県八戸市大字糠塚字大開4－",
"Capacity":"490",
"la":"40.48627900000",
"ln":"141.48065400000"
},
"geometry":{
"type":"Point",
"coordinates":[
141.480654,
40.486279
]
}
},
{
"type":"Feature",
"properties":{
"Name":"吹上小学校",
"Jusho":"青森県八戸市吹上一丁目14-36",
"Capacity":"580",
"la":"40.50328200000",
"ln":"141.49808900000"
},
"geometry":{
"type":"Point",
"coordinates":[
141.498089,
40.503282
]
}
},
{
"type":"Feature",
"properties":{
"Name":"是川小学校",
"Jusho":"青森県八戸市是川四丁目1",
"Capacity":"590",
"la":"40.46753100000",
"ln":"141.50096500000"
},
"geometry":{
"type":"Point",
"coordinates":[
141.500965,
40.467531
]
}
},
{
"type":"Feature",
"properties":{
"Name":"是川東小学校",
"Jusho":"青森県八戸市大字是川字街道端1-4",
"Capacity":"210",
"la":"40.43940200000",
"ln":"141.52086700000"
},
"geometry":{
"type":"Point",
"coordinates":[
141.520867,
40.439402
]
}
},
{
"type":"Feature",
"properties":{
"Name":"西園小学校",
"Jusho":"青森県八戸市大字尻内町字嶋田24－",
"Capacity":"540",
"la":"40.50966900000",
"ln":"141.44476100000"
},
"geometry":{
"type":"Point",
"coordinates":[
141.444761,
40.509669
]
}
},
{
"type":"Feature",
"properties":{
"Name":"青潮小学校",
"Jusho":"青森県八戸市大字湊町字鮫ノロ23-4",
"Capacity":"620",
"la":"40.51411500000",
"ln":"141.52947400000"
},
"geometry":{
"type":"Point",
"coordinates":[
141.529474,
40.514115
]
}
},
{
"type":"Feature",
"properties":{
"Name":"多賀小学校",
"Jusho":"青森県八戸市大字市川町宇古館30－",
"Capacity":"350",
"la":"40.58487700000",
"ln":"141.46161000000"
},
"geometry":{
"type":"Point",
"coordinates":[
141.46161,
40.584877
]
}
},
{
"type":"Feature",
"properties":{
"Name":"多賀台小学校",
"Jusho":"青森県八戸市多賀台コ丁目9",
"Capacity":"350",
"la":"40.58771400000",
"ln":"141.44198200000"
},
"geometry":{
"type":"Point",
"coordinates":[
141.441982,
40.587714
]
}
},
{
"type":"Feature",
"properties":{
"Name":"大久喜小学校",
"Jusho":"青森県八戸市大字鮫町字大作平44-29",
"Capacity":"410",
"la":"40.49411800000",
"ln":"141.62807700000"
},
"geometry":{
"type":"Point",
"coordinates":[
141.628077,
40.494118
]
}
},
{
"type":"Feature",
"properties":{
"Name":"中居林小学校",
"Jusho":"青森県八戸市大字石手洗宇一本木29",
"Capacity":"350",
"la":"40.48495100000",
"ln":"141.49614600000"
},
"geometry":{
"type":"Point",
"coordinates":[
141.496146,
40.484951
]
}
},
{
"type":"Feature",
"properties":{
"Name":"中野小学校",
"Jusho":"青森県八戸市南郷区大宇中野宇八ツ役5－",
"Capacity":"390",
"la":"40.40764100000",
"ln":"141.41567200000"
},
"geometry":{
"type":"Point",
"coordinates":[
141.415672,
40.407641
]
}
},
{
"type":"Feature",
"properties":{
"Name":"町畑小学校",
"Jusho":"青森県八戸市大字大久保字下町畑29-2",
"Capacity":"490",
"la":"40.49300600000",
"ln":"141.55113900000"
},
"geometry":{
"type":"Point",
"coordinates":[
141.551139,
40.493006
]
}
},
{
"type":"Feature",
"properties":{
"Name":"長者小学校",
"Jusho":"青森県八戸市長者三丁目21",
"Capacity":"620",
"la":"40.50189300000",
"ln":"141.48420200000"
},
"geometry":{
"type":"Point",
"coordinates":[
141.484202,
40.501893
]
}
},
{
"type":"Feature",
"properties":{
"Name":"田面木小学校",
"Jusho":"青森県八戸市大宇田面木宇山道下タ13-2",
"Capacity":"490",
"la":"40.49717100000",
"ln":"141.44809500000"
},
"geometry":{
"type":"Point",
"coordinates":[
141.448095,
40.497171
]
}
},
{
"type":"Feature",
"properties":{
"Name":"島守小学校",
"Jusho":"青森県八戸市南郷区大字島守字小平15－",
"Capacity":"430",
"la":"40.41606200000",
"ln":"141.49208100000"
},
"geometry":{
"type":"Point",
"coordinates":[
141.492081,
40.416062
]
}
},
{
"type":"Feature",
"properties":{
"Name":"日計ヶ丘小学校",
"Jusho":"青森県八戸市大字河原木字日計上11－",
"Capacity":"530",
"la":"40.54577600000",
"ln":"141.47725700000"
},
"geometry":{
"type":"Point",
"coordinates":[
141.477257,
40.545776
]
}
},
{
"type":"Feature",
"properties":{
"Name":"柏崎小学校",
"Jusho":"青森県八戸市青葉二丁目71",
"Capacity":"690",
"la":"40.51253831990",
"ln":"141.51092352900"
},
"geometry":{
"type":"Point",
"coordinates":[
141.510923529,
40.5125383199
]
}
},
{
"type":"Feature",
"properties":{
"Name":"白鴎小学校",
"Jusho":"青森県八戸市大字白銀町宇中平13-3",
"Capacity":"620",
"la":"40.52105800000",
"ln":"141.55030500000"
},
"geometry":{
"type":"Point",
"coordinates":[
141.550305,
40.521058
]
}
},
{
"type":"Feature",
"properties":{
"Name":"白銀小学校",
"Jusho":"青森県八戸市大字白銀町字大久保道1－",
"Capacity":"610",
"la":"40.52050300000",
"ln":"141.54613900000"
},
"geometry":{
"type":"Point",
"coordinates":[
141.546139,
40.520503
]
}
},
{
"type":"Feature",
"properties":{
"Name":"白銀南小学校",
"Jusho":"青森県八戸市大字大久保字鷹待場38-2",
"Capacity":"620",
"la":"40.51189300000",
"ln":"141.55586000000"
},
"geometry":{
"type":"Point",
"coordinates":[
141.55586,
40.511893
]
}
},
{
"type":"Feature",
"properties":{
"Name":"白山台小学校",
"Jusho":"青森県八戸市東白山台二丁目31－",
"Capacity":"530",
"la":"40.48458600000",
"ln":"141.46791100000"
},
"geometry":{
"type":"Point",
"coordinates":[
141.467911,
40.484586
]
}
},
{
"type":"Feature",
"properties":{
"Name":"八戸小学校",
"Jusho":"青森県八戸市大字売市字小待150",
"Capacity":"410",
"la":"40.51605800000",
"ln":"141.47753500000"
},
"geometry":{
"type":"Point",
"coordinates":[
141.477535,
40.516058
]
}
},
{
"type":"Feature",
"properties":{
"Name":"鳩田小学校",
"Jusho":"青森県八戸市南郷区大字大森字鳩田向14",
"Capacity":"407",
"la":"40.38290500000",
"ln":"141.40791000000"
},
"geometry":{
"type":"Point",
"coordinates":[
141.40791,
40.382905
]
}
},
{
"type":"Feature",
"properties":{
"Name":"美保野小学校",
"Jusho":"青森県八戸市大宇美保野2",
"Capacity":"－",
"la":"40.48388708330",
"ln":"141.58518543300"
},
"geometry":{
"type":"Point",
"coordinates":[
141.585185433,
40.4838870833
]
}
},
{
"type":"Feature",
"properties":{
"Name":"豊崎小学校",
"Jusho":"青森県八戸市大字豊崎町字下永福寺12-3",
"Capacity":"310",
"la":"40.51494500000",
"ln":"141.38282200000"
},
"geometry":{
"type":"Point",
"coordinates":[
141.382822,
40.514945
]
}
},
{
"type":"Feature",
"properties":{
"Name":"湊小学校",
"Jusho":"青森県八戸市大字湊町宇中道7－",
"Capacity":"600",
"la":"40.52133600000",
"ln":"141.52975200000"
},
"geometry":{
"type":"Point",
"coordinates":[
141.529752,
40.521336
]
}
},
{
"type":"Feature",
"properties":{
"Name":"明治小学校",
"Jusho":"青森県八戸市大字八幡字館ノ下12-2",
"Capacity":"340",
"la":"40.48666800000",
"ln":"141.43158600000"
},
"geometry":{
"type":"Point",
"coordinates":[
141.431586,
40.486668
]
}
},
{
"type":"Feature",
"properties":{
"Name":"牡丹平小学校",
"Jusho":"青森県黒石市牡丹平字諏訪野平9",
"Capacity":"360",
"la":"40.63213400000",
"ln":"140.62816000000"
},
"geometry":{
"type":"Point",
"coordinates":[
140.62816,
40.632134
]
}
},
{
"type":"Feature",
"properties":{
"Name":"旧大川原小学校沖揚平分校グラウンド",
"Jusho":"青森県黒石市大川原字蛭貝沢257－",
"Capacity":"－",
"la":"40.64406167370",
"ln":"140.80337357700"
},
"geometry":{
"type":"Point",
"coordinates":[
140.803373577,
40.6440616737
]
}
},
{
"type":"Feature",
"properties":{
"Name":"黒石小学校",
"Jusho":"青森県黒石市黒石字砂森76",
"Capacity":"435",
"la":"40.64935300000",
"ln":"140.58260700000"
},
"geometry":{
"type":"Point",
"coordinates":[
140.582607,
40.649353
]
}
},
{
"type":"Feature",
"properties":{
"Name":"黒石東小学校",
"Jusho":"青森県黒石市春日町70",
"Capacity":"456",
"la":"40.64463200000",
"ln":"140.60510500000"
},
"geometry":{
"type":"Point",
"coordinates":[
140.605105,
40.644632
]
}
},
{
"type":"Feature",
"properties":{
"Name":"上十川小学校",
"Jusho":"青森県黒石市上十川字留岡一番15－",
"Capacity":"404",
"la":"40.65845800000",
"ln":"140.61607300000"
},
"geometry":{
"type":"Point",
"coordinates":[
140.616073,
40.658458
]
}
},
{
"type":"Feature",
"properties":{
"Name":"浅瀬石小学校",
"Jusho":"青森県黒石市浅瀬石字村上160",
"Capacity":"400",
"la":"40.62880100000",
"ln":"140.61093900000"
},
"geometry":{
"type":"Point",
"coordinates":[
140.610939,
40.628801
]
}
},
{
"type":"Feature",
"properties":{
"Name":"中郷小学校",
"Jusho":"青森県黒石市ぐみの木二丁目77",
"Capacity":"421",
"la":"40.64963100000",
"ln":"140.59871700000"
},
"geometry":{
"type":"Point",
"coordinates":[
140.598717,
40.649631
]
}
},
{
"type":"Feature",
"properties":{
"Name":"追子野木小学校",
"Jusho":"青森県黒石市追子野木三丁目145－",
"Capacity":"428",
"la":"40.63713200000",
"ln":"140.58844000000"
},
"geometry":{
"type":"Point",
"coordinates":[
140.58844,
40.637132
]
}
},
{
"type":"Feature",
"properties":{
"Name":"東英小学校",
"Jusho":"青森県黒石市上山形字築館9－",
"Capacity":"428",
"la":"40.61115700000",
"ln":"140.66372800000"
},
"geometry":{
"type":"Point",
"coordinates":[
140.663728,
40.611157
]
}
},
{
"type":"Feature",
"properties":{
"Name":"北陽小学校",
"Jusho":"青森県黒石市小屋敷字馬場尻道添12-2",
"Capacity":"412",
"la":"40.67712700000",
"ln":"140.59482700000"
},
"geometry":{
"type":"Point",
"coordinates":[
140.594827,
40.677127
]
}
},
{
"type":"Feature",
"properties":{
"Name":"六郷小学校",
"Jusho":"青森県黒石市三島字宮元380－",
"Capacity":"439",
"la":"40.67156500000",
"ln":"140.62012500000"
},
"geometry":{
"type":"Point",
"coordinates":[
140.620125,
40.671565
]
}
},
{
"type":"Feature",
"properties":{
"Name":"一野坪小学校",
"Jusho":"青森県五所川原市一野坪字早蕨7",
"Capacity":"156",
"la":"40.82377500000",
"ln":"140.46344200000"
},
"geometry":{
"type":"Point",
"coordinates":[
140.463442,
40.823775
]
}
},
{
"type":"Feature",
"properties":{
"Name":"栄小学校",
"Jusho":"青森県五所川原市姥萢字船橋156-2",
"Capacity":"683",
"la":"40.78933500000",
"ln":"140.45677800000"
},
"geometry":{
"type":"Point",
"coordinates":[
140.456778,
40.789335
]
}
},
{
"type":"Feature",
"properties":{
"Name":"沖飯詰小学校",
"Jusho":"青森県五所川原市沖飯詰字帯刀28",
"Capacity":"221",
"la":"40.83616900000",
"ln":"140.45382300000"
},
"geometry":{
"type":"Point",
"coordinates":[
140.453823,
40.836169
]
}
},
{
"type":"Feature",
"properties":{
"Name":"嘉瀬小学校",
"Jusho":"青森県五所川原市金木町嘉瀬端山崎269",
"Capacity":"1524",
"la":"40.88147700000",
"ln":"140.47042100000"
},
"geometry":{
"type":"Point",
"coordinates":[
140.470421,
40.881477
]
}
},
{
"type":"Feature",
"properties":{
"Name":"喜良市小学校",
"Jusho":"青森県五所川原市金木町喜良市千苅148",
"Capacity":"1333",
"la":"40.89423700000",
"ln":"140.48682600000"
},
"geometry":{
"type":"Point",
"coordinates":[
140.486826,
40.894237
]
}
},
{
"type":"Feature",
"properties":{
"Name":"金木小学校",
"Jusho":"青森県五所川原市金木町芦野84-54",
"Capacity":"1740",
"la":"40.90946900000",
"ln":"140.45230600000"
},
"geometry":{
"type":"Point",
"coordinates":[
140.452306,
40.909469
]
}
},
{
"type":"Feature",
"properties":{
"Name":"五所川原小学校",
"Jusho":"青森県五所川原市新宮字岡田161",
"Capacity":"672",
"la":"40.82210800000",
"ln":"140.43900000000"
},
"geometry":{
"type":"Point",
"coordinates":[
140.439,
40.822108
]
}
},
{
"type":"Feature",
"properties":{
"Name":"三好小学校",
"Jusho":"青森県五所川原市鶴ヶ岡字唐橋25-2",
"Capacity":"206",
"la":"40.84871000000",
"ln":"140.40988100000"
},
"geometry":{
"type":"Point",
"coordinates":[
140.409881,
40.84871
]
}
},
{
"type":"Feature",
"properties":{
"Name":"三輪小学校",
"Jusho":"青森県五所川原市七ツ館字虫流6-5",
"Capacity":"612",
"la":"40.77970900000",
"ln":"140.47394100000"
},
"geometry":{
"type":"Point",
"coordinates":[
140.473941,
40.779709
]
}
},
{
"type":"Feature",
"properties":{
"Name":"市浦小学校",
"Jusho":"青森県五所川原市相内岩井85",
"Capacity":"405",
"la":"41.05463300000",
"ln":"140.35465200000"
},
"geometry":{
"type":"Point",
"coordinates":[
140.354652,
41.054633
]
}
},
{
"type":"Feature",
"properties":{
"Name":"松島小学校",
"Jusho":"青森県五所川原市米田字八ツ橋8",
"Capacity":"435",
"la":"40.80475000000",
"ln":"140.47433000000"
},
"geometry":{
"type":"Point",
"coordinates":[
140.47433,
40.80475
]
}
},
{
"type":"Feature",
"properties":{
"Name":"中央小学校",
"Jusho":"青森県五所川原市松島町2丁目94",
"Capacity":"286",
"la":"40.80683300000",
"ln":"140.45622200000"
},
"geometry":{
"type":"Point",
"coordinates":[
140.456222,
40.806833
]
}
},
{
"type":"Feature",
"properties":{
"Name":"東峰小学校",
"Jusho":"青森県五所川原市神山字山越1-26",
"Capacity":"438",
"la":"40.78794700000",
"ln":"140.51705100000"
},
"geometry":{
"type":"Point",
"coordinates":[
140.517051,
40.787947
]
}
},
{
"type":"Feature",
"properties":{
"Name":"南小学校",
"Jusho":"青森県五所川原市蓮沼2",
"Capacity":"622",
"la":"40.80211100000",
"ln":"140.44344500000"
},
"geometry":{
"type":"Point",
"coordinates":[
140.443445,
40.802111
]
}
},
{
"type":"Feature",
"properties":{
"Name":"飯詰小学校",
"Jusho":"青森県五所川原市飯詰字石田184",
"Capacity":"438",
"la":"40.83525639900",
"ln":"140.49197399700"
},
"geometry":{
"type":"Point",
"coordinates":[
140.491973997,
40.835256399
]
}
},
{
"type":"Feature",
"properties":{
"Name":"毘沙門小学校",
"Jusho":"青森県五所川原市毘沙門字中熊石178",
"Capacity":"184",
"la":"40.85238300000",
"ln":"140.46177500000"
},
"geometry":{
"type":"Point",
"coordinates":[
140.461775,
40.852383
]
}
},
{
"type":"Feature",
"properties":{
"Name":"ちとせ小学校",
"Jusho":"青森県十和田市元町西6-2－",
"Capacity":"－",
"la":"40.62603800000",
"ln":"141.19894700000"
},
"geometry":{
"type":"Point",
"coordinates":[
141.198947,
40.626038
]
}
},
{
"type":"Feature",
"properties":{
"Name":"奥入瀬小学校",
"Jusho":"青森県十和田市法量尻貝下37",
"Capacity":"－",
"la":"40.59659300000",
"ln":"141.02812900000"
},
"geometry":{
"type":"Point",
"coordinates":[
141.028129,
40.596593
]
}
},
{
"type":"Feature",
"properties":{
"Name":"下切田小学校",
"Jusho":"青森県十和田市大字切田字下切田10番地1",
"Capacity":"－",
"la":"40.58076500000",
"ln":"141.20505800000"
},
"geometry":{
"type":"Point",
"coordinates":[
141.205058,
40.580765
]
}
},
{
"type":"Feature",
"properties":{
"Name":"甲東小学校",
"Jusho":"青森県十和田市深持南平330",
"Capacity":"－",
"la":"40.61576000000",
"ln":"141.17089300000"
},
"geometry":{
"type":"Point",
"coordinates":[
141.170893,
40.61576
]
}
},
{
"type":"Feature",
"properties":{
"Name":"高清水小学校",
"Jusho":"青森県十和田市相坂高清水900",
"Capacity":"－",
"la":"40.63798200000",
"ln":"141.25838500000"
},
"geometry":{
"type":"Point",
"coordinates":[
141.258385,
40.637982
]
}
},
{
"type":"Feature",
"properties":{
"Name":"三本木小学校",
"Jusho":"青森県十和田市東三番町36－",
"Capacity":"－",
"la":"40.61437200000",
"ln":"141.22172200000"
},
"geometry":{
"type":"Point",
"coordinates":[
141.221722,
40.614372
]
}
},
{
"type":"Feature",
"properties":{
"Name":"十和田湖小学校",
"Jusho":"青森県十和田市奥瀬十和田16",
"Capacity":"－",
"la":"40.42883200000",
"ln":"140.89731300000"
},
"geometry":{
"type":"Point",
"coordinates":[
140.897313,
40.428832
]
}
},
{
"type":"Feature",
"properties":{
"Name":"松陽小学校",
"Jusho":"青森県十和田市八斗沢砂土路14－61",
"Capacity":"－",
"la":"40.68020000000",
"ln":"141.24671800000"
},
"geometry":{
"type":"Point",
"coordinates":[
141.246718,
40.6802
]
}
},
{
"type":"Feature",
"properties":{
"Name":"上切田小学校",
"Jusho":"青森県十和田市切田上後平43",
"Capacity":"－",
"la":"40.57687600000",
"ln":"141.17450600000"
},
"geometry":{
"type":"Point",
"coordinates":[
141.174506,
40.576876
]
}
},
{
"type":"Feature",
"properties":{
"Name":"深持小学校",
"Jusho":"青森県十和田市深持林12-3",
"Capacity":"－",
"la":"40.61909300000",
"ln":"141.14561800000"
},
"geometry":{
"type":"Point",
"coordinates":[
141.145618,
40.619093
]
}
},
{
"type":"Feature",
"properties":{
"Name":"西小学校",
"Jusho":"青森県十和田市三本木西金崎6-2",
"Capacity":"－",
"la":"40.60881600000",
"ln":"141.17811500000"
},
"geometry":{
"type":"Point",
"coordinates":[
141.178115,
40.608816
]
}
},
{
"type":"Feature",
"properties":{
"Name":"大不動小学校",
"Jusho":"青森県十和田市大不動漆久保24-28",
"Capacity":"－",
"la":"40.53577000000",
"ln":"141.16950800000"
},
"geometry":{
"type":"Point",
"coordinates":[
141.169508,
40.53577
]
}
},
{
"type":"Feature",
"properties":{
"Name":"滝沢小学校",
"Jusho":"青森県十和田市滝沢館45",
"Capacity":"－",
"la":"40.50438600000",
"ln":"141.19145200000"
},
"geometry":{
"type":"Point",
"coordinates":[
141.191452,
40.504386
]
}
},
{
"type":"Feature",
"properties":{
"Name":"沢田小学校",
"Jusho":"青森県十和田市沢田田屋29",
"Capacity":"－",
"la":"40.58437500000",
"ln":"141.15228600000"
},
"geometry":{
"type":"Point",
"coordinates":[
141.152286,
40.584375
]
}
},
{
"type":"Feature",
"properties":{
"Name":"伝法寺小学校",
"Jusho":"青森県十和田市伝法寺盲沼3-8",
"Capacity":"－",
"la":"40.56438000000",
"ln":"141.27060900000"
},
"geometry":{
"type":"Point",
"coordinates":[
141.270609,
40.56438
]
}
},
{
"type":"Feature",
"properties":{
"Name":"東小学校",
"Jusho":"青森県十和田市一本木沢1－－",
"Capacity":"－",
"la":"40.62818200000",
"ln":"141.22813300000"
},
"geometry":{
"type":"Point",
"coordinates":[
141.228133,
40.628182
]
}
},
{
"type":"Feature",
"properties":{
"Name":"藤坂小学校",
"Jusho":"青森県十和田市相坂小林355－",
"Capacity":"－",
"la":"40.59409700000",
"ln":"141.23811000000"
},
"geometry":{
"type":"Point",
"coordinates":[
141.23811,
40.594097
]
}
},
{
"type":"Feature",
"properties":{
"Name":"洞内小学校",
"Jusho":"青森県十和田市洞内長根32",
"Capacity":"－",
"la":"40.65964500000",
"ln":"141.19255700000"
},
"geometry":{
"type":"Point",
"coordinates":[
141.192557,
40.659645
]
}
},
{
"type":"Feature",
"properties":{
"Name":"南小学校",
"Jusho":"青森県十和田市西十五番町3－",
"Capacity":"－",
"la":"40.60270600000",
"ln":"141.21339000000"
},
"geometry":{
"type":"Point",
"coordinates":[
141.21339,
40.602706
]
}
},
{
"type":"Feature",
"properties":{
"Name":"米田小学校",
"Jusho":"青森県十和田市米田向町19",
"Capacity":"－",
"la":"40.54771400000",
"ln":"141.22922400000"
},
"geometry":{
"type":"Point",
"coordinates":[
141.229224,
40.547714
]
}
},
{
"type":"Feature",
"properties":{
"Name":"法奥小学校",
"Jusho":"青森県十和田市奥瀬下川目102-2",
"Capacity":"－",
"la":"40.58631800000",
"ln":"141.09729100000"
},
"geometry":{
"type":"Point",
"coordinates":[
141.097291,
40.586318
]
}
},
{
"type":"Feature",
"properties":{
"Name":"北園小学校",
"Jusho":"青森県十和田市西十一番町50－8",
"Capacity":"－",
"la":"40.61464900000",
"ln":"141.20033600000"
},
"geometry":{
"type":"Point",
"coordinates":[
141.200336,
40.614649
]
}
},
{
"type":"Feature",
"properties":{
"Name":"おおぞら小学校",
"Jusho":"青森県三沢市庭構1084-33",
"Capacity":"9636",
"la":"40.78131400000",
"ln":"141.40013200000"
},
"geometry":{
"type":"Point",
"coordinates":[
141.400132,
40.781314
]
}
},
{
"type":"Feature",
"properties":{
"Name":"岡三沢小学校",
"Jusho":"青森県三沢市岡三沢三丁目1－",
"Capacity":"4566",
"la":"40.68772900000",
"ln":"141.37313700000"
},
"geometry":{
"type":"Point",
"coordinates":[
141.373137,
40.687729
]
}
},
{
"type":"Feature",
"properties":{
"Name":"古間木小学校",
"Jusho":"青森県三沢市古間木一丁目152－39",
"Capacity":"6801",
"la":"40.67159200000",
"ln":"141.34698600000"
},
"geometry":{
"type":"Point",
"coordinates":[
141.346986,
40.671592
]
}
},
{
"type":"Feature",
"properties":{
"Name":"三川目小学校",
"Jusho":"青森県三沢市鹿中二丁目145-459",
"Capacity":"4551",
"la":"40.68187100000",
"ln":"141.42753400000"
},
"geometry":{
"type":"Point",
"coordinates":[
141.427534,
40.681871
]
}
},
{
"type":"Feature",
"properties":{
"Name":"三沢小学校",
"Jusho":"青森県三沢市園沢93-2",
"Capacity":"7718",
"la":"40.68356300000",
"ln":"141.40047800000"
},
"geometry":{
"type":"Point",
"coordinates":[
141.400478,
40.683563
]
}
},
{
"type":"Feature",
"properties":{
"Name":"上久保小学校",
"Jusho":"青森県三沢市大町一丁目3-9",
"Capacity":"6894",
"la":"40.67825900000",
"ln":"141.35809700000"
},
"geometry":{
"type":"Point",
"coordinates":[
141.358097,
40.678259
]
}
},
{
"type":"Feature",
"properties":{
"Name":"木崎野小学校",
"Jusho":"青森県三沢市東町四丁目2",
"Capacity":"6106",
"la":"40.67696600000",
"ln":"141.37704300000"
},
"geometry":{
"type":"Point",
"coordinates":[
141.377043,
40.676966
]
}
},
{
"type":"Feature",
"properties":{
"Name":"淋代小学校",
"Jusho":"青森県三沢市淋代三丁目354",
"Capacity":"4004",
"la":"40.73075500000",
"ln":"141.41531100000"
},
"geometry":{
"type":"Point",
"coordinates":[
141.415311,
40.730755
]
}
},
{
"type":"Feature",
"properties":{
"Name":"奥内小学校体育館",
"Jusho":"青森県むつ市奥内字中野40",
"Capacity":"7361",
"la":"41.20597600000",
"ln":"141.27336200000"
},
"geometry":{
"type":"Point",
"coordinates":[
141.273362,
41.205976
]
}
},
{
"type":"Feature",
"properties":{
"Name":"関根小学校体育館",
"Jusho":"青森県むつ市関根字北関根100－",
"Capacity":"3919",
"la":"41.35595900000",
"ln":"141.20335900000"
},
"geometry":{
"type":"Point",
"coordinates":[
141.203359,
41.355959
]
}
},
{
"type":"Feature",
"properties":{
"Name":"旧烏沢小学校体育館",
"Jusho":"青森県むつ市関根字安畑49－",
"Capacity":"2297",
"la":"41.38179000000",
"ln":"141.19780300000"
},
"geometry":{
"type":"Point",
"coordinates":[
141.197803,
41.38179
]
}
},
{
"type":"Feature",
"properties":{
"Name":"旧蛎崎小学校体育館",
"Jusho":"青森県むつ市川内町蛎崎合野74－",
"Capacity":"4200",
"la":"41.16522500000",
"ln":"140.89190600000"
},
"geometry":{
"type":"Point",
"coordinates":[
140.891906,
41.165225
]
}
},
{
"type":"Feature",
"properties":{
"Name":"旧関根橋小学校体育館",
"Jusho":"青森県むつ市大畑町正津川大畑道31-4",
"Capacity":"1094",
"la":"41.38092000000",
"ln":"141.14793200000"
},
"geometry":{
"type":"Point",
"coordinates":[
141.147932,
41.38092
]
}
},
{
"type":"Feature",
"properties":{
"Name":"旧金谷沢小学校体育館",
"Jusho":"青森県むつ市奥内字金谷沢1-28",
"Capacity":"2711",
"la":"41.22882475040",
"ln":"141.25221459800"
},
"geometry":{
"type":"Point",
"coordinates":[
141.252214598,
41.2288247504
]
}
},
{
"type":"Feature",
"properties":{
"Name":"旧佐助川小学校体育館",
"Jusho":"青森県むつ市大畑町佐助川22-2",
"Capacity":"1052",
"la":"41.44604628940",
"ln":"141.12307521800"
},
"geometry":{
"type":"Point",
"coordinates":[
141.123075218,
41.4460462894
]
}
},
{
"type":"Feature",
"properties":{
"Name":"旧宿野部小学校体育館",
"Jusho":"青森県むつ市川内町宿野部?木平56－3",
"Capacity":"11750",
"la":"41.17677000000",
"ln":"140.94092500000"
},
"geometry":{
"type":"Point",
"coordinates":[
140.940925,
41.17677
]
}
},
{
"type":"Feature",
"properties":{
"Name":"旧小目名小学校体育館",
"Jusho":"青森県むつ市大畑町小目名家ノ下1",
"Capacity":"2527",
"la":"41.38920800000",
"ln":"141.12190800000"
},
"geometry":{
"type":"Point",
"coordinates":[
141.121908,
41.389208
]
}
},
{
"type":"Feature",
"properties":{
"Name":"旧中野沢小学校体育館",
"Jusho":"青森県むつ市中野沢字上山道8-25",
"Capacity":"13252",
"la":"41.18049905810",
"ln":"141.28552134800"
},
"geometry":{
"type":"Point",
"coordinates":[
141.285521348,
41.1804990581
]
}
},
{
"type":"Feature",
"properties":{
"Name":"旧湯野川小学校体育館",
"Jusho":"青森県むつ市川内町湯野川3-3",
"Capacity":"3736",
"la":"41.31398051240",
"ln":"140.95763345500"
},
"geometry":{
"type":"Point",
"coordinates":[
140.957633455,
41.3139805124
]
}
},
{
"type":"Feature",
"properties":{
"Name":"旧畑小学校集会室等",
"Jusho":"青森県むつ市川内町家ノ辺100-87",
"Capacity":"3906",
"la":"41.30166214720",
"ln":"140.95587036000"
},
"geometry":{
"type":"Point",
"coordinates":[
140.95587036,
41.3016621472
]
}
},
{
"type":"Feature",
"properties":{
"Name":"旧桧川小学校体育館",
"Jusho":"青森県むつ市川内町川代225－",
"Capacity":"4760",
"la":"41.19334800000",
"ln":"140.96421400000"
},
"geometry":{
"type":"Point",
"coordinates":[
140.964214,
41.193348
]
}
},
{
"type":"Feature",
"properties":{
"Name":"城ヶ沢小学校体育館",
"Jusho":"青森県むつ市城ヶ沢字畑下丁塚1",
"Capacity":"4489",
"la":"41.22736000000",
"ln":"141.13142700000"
},
"geometry":{
"type":"Point",
"coordinates":[
141.131427,
41.22736
]
}
},
{
"type":"Feature",
"properties":{
"Name":"正津川小学校体育館",
"Jusho":"青森県むつ市大畑町正津川平114-20",
"Capacity":"3613",
"la":"41.39355000000",
"ln":"141.18186400000"
},
"geometry":{
"type":"Point",
"coordinates":[
141.181864,
41.39355
]
}
},
{
"type":"Feature",
"properties":{
"Name":"大畑小学校体育館",
"Jusho":"青森県むつ市大畑町伊勢堂1－",
"Capacity":"4996",
"la":"41.40396500000",
"ln":"141.16868100000"
},
"geometry":{
"type":"Point",
"coordinates":[
141.168681,
41.403965
]
}
},
{
"type":"Feature",
"properties":{
"Name":"大平小学校体育館",
"Jusho":"青森県むつ市大平町8-6",
"Capacity":"5541",
"la":"41.28457600000",
"ln":"141.17086500000"
},
"geometry":{
"type":"Point",
"coordinates":[
141.170865,
41.284576
]
}
},
{
"type":"Feature",
"properties":{
"Name":"大湊小学校体育館",
"Jusho":"青森県むつ市大湊上町43-32",
"Capacity":"6975",
"la":"41.26846700000",
"ln":"141.15309000000"
},
"geometry":{
"type":"Point",
"coordinates":[
141.15309,
41.268467
]
}
},
{
"type":"Feature",
"properties":{
"Name":"第一川内小学校体育館",
"Jusho":"青森県むつ市川内町熊ケ平1-3",
"Capacity":"3273",
"la":"41.19951200000",
"ln":"141.00869300000"
},
"geometry":{
"type":"Point",
"coordinates":[
141.008693,
41.199512
]
}
},
{
"type":"Feature",
"properties":{
"Name":"第一田名部小学校体育館",
"Jusho":"青森県むつ市柳町二丁目7－",
"Capacity":"8205",
"la":"41.30096500000",
"ln":"141.21252800000"
},
"geometry":{
"type":"Point",
"coordinates":[
141.212528,
41.300965
]
}
},
{
"type":"Feature",
"properties":{
"Name":"第三田名部小学校体育館",
"Jusho":"青森県むつ市金曲二丁目11－2",
"Capacity":"6541",
"la":"41.27143237170",
"ln":"141.22164988200"
},
"geometry":{
"type":"Point",
"coordinates":[
141.221649882,
41.2714323717
]
}
},
{
"type":"Feature",
"properties":{
"Name":"第二川内小学校体育館",
"Jusho":"青森県むつ市川内町立越4－7",
"Capacity":"3737",
"la":"41.23462000000",
"ln":"140.98955200000"
},
"geometry":{
"type":"Point",
"coordinates":[
140.989552,
41.23462
]
}
},
{
"type":"Feature",
"properties":{
"Name":"第二田名部小学校体育館",
"Jusho":"青森県むつ市小川町一丁目18－0",
"Capacity":"9239",
"la":"41.29763200000",
"ln":"141.20086300000"
},
"geometry":{
"type":"Point",
"coordinates":[
141.200863,
41.297632
]
}
},
{
"type":"Feature",
"properties":{
"Name":"苫生小学校体育館",
"Jusho":"青森県むつ市金曲一丁目5－0",
"Capacity":"8544",
"la":"41.28374400000",
"ln":"141.20947400000"
},
"geometry":{
"type":"Point",
"coordinates":[
141.209474,
41.283744
]
}
},
{
"type":"Feature",
"properties":{
"Name":"二枚橋小学校体育館",
"Jusho":"青森県むつ市大畑町釣屋浜22-72",
"Capacity":"3889",
"la":"41.41950200000",
"ln":"141.15125000000"
},
"geometry":{
"type":"Point",
"coordinates":[
141.15125,
41.419502
]
}
},
{
"type":"Feature",
"properties":{
"Name":"脇野沢小学校体育館",
"Jusho":"青森県むつ市脇野沢桂沢71－",
"Capacity":"5648",
"la":"41.14586700000",
"ln":"140.82140500000"
},
"geometry":{
"type":"Point",
"coordinates":[
140.821405,
41.145867
]
}
},
{
"type":"Feature",
"properties":{
"Name":"育成小学校",
"Jusho":"青森県つがる市森田町上相野明石68",
"Capacity":"－",
"la":"40.79198900000",
"ln":"140.38561800000"
},
"geometry":{
"type":"Point",
"coordinates":[
140.385618,
40.791989
]
}
},
{
"type":"Feature",
"properties":{
"Name":"稲垣小学校",
"Jusho":"青森県つがる市稲垣町豊川宮藤27番地",
"Capacity":"－",
"la":"40.88195300000",
"ln":"140.40245800000"
},
"geometry":{
"type":"Point",
"coordinates":[
140.402458,
40.881953
]
}
},
{
"type":"Feature",
"properties":{
"Name":"稲垣西小学校",
"Jusho":"青森県つがる市稲垣町吉出鴨泊22－",
"Capacity":"－",
"la":"40.87492200000",
"ln":"140.37326200000"
},
"geometry":{
"type":"Point",
"coordinates":[
140.373262,
40.874922
]
}
},
{
"type":"Feature",
"properties":{
"Name":"牛潟小学校",
"Jusho":"青森県つがる市牛潟町大田光66-30",
"Capacity":"－",
"la":"40.92934100000",
"ln":"140.35553700000"
},
"geometry":{
"type":"Point",
"coordinates":[
140.355537,
40.929341
]
}
},
{
"type":"Feature",
"properties":{
"Name":"向陽小学校",
"Jusho":"青森県つがる市木造日向62－",
"Capacity":"－",
"la":"40.81147500000",
"ln":"140.39001100000"
},
"geometry":{
"type":"Point",
"coordinates":[
140.390011,
40.811475
]
}
},
{
"type":"Feature",
"properties":{
"Name":"車力小学校",
"Jusho":"青森県つがる市車力町屏風山1-270",
"Capacity":"－",
"la":"40.94913100000",
"ln":"140.35338800000"
},
"geometry":{
"type":"Point",
"coordinates":[
140.353388,
40.949131
]
}
},
{
"type":"Feature",
"properties":{
"Name":"森田小学校",
"Jusho":"青森県つがる市森田町屏風山2-2",
"Capacity":"－",
"la":"40.77783900000",
"ln":"140.33655000000"
},
"geometry":{
"type":"Point",
"coordinates":[
140.33655,
40.777839
]
}
},
{
"type":"Feature",
"properties":{
"Name":"瑞穂小学校",
"Jusho":"青森県つがる市木造座八1",
"Capacity":"－",
"la":"40.83890300000",
"ln":"140.35830300000"
},
"geometry":{
"type":"Point",
"coordinates":[
140.358303,
40.838903
]
}
},
{
"type":"Feature",
"properties":{
"Name":"柏小学校",
"Jusho":"青森県つがる市柏広須福島126-2",
"Capacity":"－",
"la":"40.79116500000",
"ln":"140.40851600000"
},
"geometry":{
"type":"Point",
"coordinates":[
140.408516,
40.791165
]
}
},
{
"type":"Feature",
"properties":{
"Name":"富萢小学校",
"Jusho":"青森県つがる市富萢町泉川2-3",
"Capacity":"－",
"la":"40.97608200000",
"ln":"140.37272100000"
},
"geometry":{
"type":"Point",
"coordinates":[
140.372721,
40.976082
]
}
},
{
"type":"Feature",
"properties":{
"Name":"穂波小学校",
"Jusho":"青森県つがる市木造菊川喜久野43",
"Capacity":"－",
"la":"40.81099600000",
"ln":"140.34113800000"
},
"geometry":{
"type":"Point",
"coordinates":[
140.341138,
40.810996
]
}
},
{
"type":"Feature",
"properties":{
"Name":"平川市立猿賀小学校",
"Jusho":"青森県平川市猿賀明堂136番地2",
"Capacity":"410",
"la":"40.61685600000",
"ln":"140.54983300000"
},
"geometry":{
"type":"Point",
"coordinates":[
140.549833,
40.616856
]
}
},
{
"type":"Feature",
"properties":{
"Name":"平川市立金田小学校",
"Jusho":"青森県平川市南田中北原120番地1",
"Capacity":"5060",
"la":"40.61435800000",
"ln":"140.59066400000"
},
"geometry":{
"type":"Point",
"coordinates":[
140.590664,
40.614358
]
}
},
{
"type":"Feature",
"properties":{
"Name":"平川市立広船小学校",
"Jusho":"青森県平川市広船福田354番地",
"Capacity":"1600",
"la":"40.57380800000",
"ln":"140.61233100000"
},
"geometry":{
"type":"Point",
"coordinates":[
140.612331,
40.573808
]
}
},
{
"type":"Feature",
"properties":{
"Name":"平川市立小和森小学校",
"Jusho":"青森県平川市大光寺二村井166番地",
"Capacity":"5600",
"la":"40.59241500000",
"ln":"140.55955600000"
},
"geometry":{
"type":"Point",
"coordinates":[
140.559556,
40.592415
]
}
},
{
"type":"Feature",
"properties":{
"Name":"平川市立松崎小学校",
"Jusho":"青森県平川市館山上亀岡5番地1",
"Capacity":"3600",
"la":"40.59602500000",
"ln":"140.53900200000"
},
"geometry":{
"type":"Point",
"coordinates":[
140.539002,
40.596025
]
}
},
{
"type":"Feature",
"properties":{
"Name":"平川市立大坊小学校",
"Jusho":"青森県平川市岩館下り松72番地2",
"Capacity":"2700",
"la":"40.56571600000",
"ln":"140.54381800000"
},
"geometry":{
"type":"Point",
"coordinates":[
140.543818,
40.565716
]
}
},
{
"type":"Feature",
"properties":{
"Name":"平川市立竹館小学校",
"Jusho":"青森県平川市沖館永田34番地3",
"Capacity":"4700",
"la":"40.56825200000",
"ln":"140.59094300000"
},
"geometry":{
"type":"Point",
"coordinates":[
140.590943,
40.568252
]
}
},
{
"type":"Feature",
"properties":{
"Name":"平川市立碇ヶ関小学校",
"Jusho":"青森県平川市碇ヶ関三笠山127番地23",
"Capacity":"3300",
"la":"40.47835160240",
"ln":"140.62982251200"
},
"geometry":{
"type":"Point",
"coordinates":[
140.629822512,
40.4783516024
]
}
},
{
"type":"Feature",
"properties":{
"Name":"平川市立柏木小学校",
"Jusho":"青森県平川市柏木町柳田8番地2",
"Capacity":"3600",
"la":"40.57491700000",
"ln":"140.56539000000"
},
"geometry":{
"type":"Point",
"coordinates":[
140.56539,
40.574917
]
}
},
{
"type":"Feature",
"properties":{
"Name":"平川市立平賀東小学校",
"Jusho":"青森県平川市尾崎川合69番地",
"Capacity":"6850",
"la":"40.58658300000",
"ln":"140.59288700000"
},
"geometry":{
"type":"Point",
"coordinates":[
140.592887,
40.586583
]
}
},
{
"type":"Feature",
"properties":{
"Name":"旧浦田小学校屋内",
"Jusho":"青森県東津軽郡平内町大字茂浦字後萢6-2",
"Capacity":"1724",
"la":"40.96532284210",
"ln":"140.86207934300"
},
"geometry":{
"type":"Point",
"coordinates":[
140.862079343,
40.9653228421
]
}
},
{
"type":"Feature",
"properties":{
"Name":"旧狩場沢小学校屋内",
"Jusho":"青森県東津軽郡平内町大字狩場沢字白畑40-2",
"Capacity":"1922",
"la":"40.89684000000",
"ln":"141.07644700000"
},
"geometry":{
"type":"Point",
"coordinates":[
141.076447,
40.89684
]
}
},
{
"type":"Feature",
"properties":{
"Name":"旧狩場沢小学校助白井分校屋内",
"Jusho":"青森県東津軽郡平内町大字狩場沢字堀差94-5",
"Capacity":"522",
"la":"40.89170080950",
"ln":"141.04871657300"
},
"geometry":{
"type":"Point",
"coordinates":[
141.048716573,
40.8917008095
]
}
},
{
"type":"Feature",
"properties":{
"Name":"旧土屋小学校屋内",
"Jusho":"青森県東津軽郡平内町大字土屋字カヌカ沢9-2",
"Capacity":"1071",
"la":"40.91353637080",
"ln":"140.87108422700"
},
"geometry":{
"type":"Point",
"coordinates":[
140.871084227,
40.9135363708
]
}
},
{
"type":"Feature",
"properties":{
"Name":"山口小学校屋内",
"Jusho":"青森県東津軽郡平内町大字山口字小沢20－",
"Capacity":"4773",
"la":"40.91544300000",
"ln":"140.90729100000"
},
"geometry":{
"type":"Point",
"coordinates":[
140.907291,
40.915443
]
}
},
{
"type":"Feature",
"properties":{
"Name":"小湊小学校屋内",
"Jusho":"青森県東津軽郡平内町大字小湊字後萢15",
"Capacity":"6811",
"la":"40.92655500000",
"ln":"140.95089800000"
},
"geometry":{
"type":"Point",
"coordinates":[
140.950898,
40.926555
]
}
},
{
"type":"Feature",
"properties":{
"Name":"浅所小学校屋内",
"Jusho":"青森県東津軽郡平内町大字福館字雷電林1-50",
"Capacity":"6941",
"la":"40.94044300000",
"ln":"140.97034000000"
},
"geometry":{
"type":"Point",
"coordinates":[
140.97034,
40.940443
]
}
},
{
"type":"Feature",
"properties":{
"Name":"東栄小学校屋内",
"Jusho":"青森県東津軽郡平内町大字外童子字葛派平8-3",
"Capacity":"5310",
"la":"40.89239400000",
"ln":"140.99172900000"
},
"geometry":{
"type":"Point",
"coordinates":[
140.991729,
40.892394
]
}
},
{
"type":"Feature",
"properties":{
"Name":"東小学校屋内",
"Jusho":"青森県東津軽郡平内町大字口広字水須3-9",
"Capacity":"4507",
"la":"40.91794800000",
"ln":"141.02839200000"
},
"geometry":{
"type":"Point",
"coordinates":[
141.028392,
40.917948
]
}
},
{
"type":"Feature",
"properties":{
"Name":"東田沢小学校屋内",
"Jusho":"青森県東津軽郡平内町大字東田沢字無沢2－",
"Capacity":"3138",
"la":"40.99293600000",
"ln":"140.91534200000"
},
"geometry":{
"type":"Point",
"coordinates":[
140.915342,
40.992936
]
}
},
{
"type":"Feature",
"properties":{
"Name":"茂浦小学校屋内",
"Jusho":"青森県東津軽郡平内町大字茂浦字向田24－",
"Capacity":"3662",
"la":"40.94766100000",
"ln":"140.86951400000"
},
"geometry":{
"type":"Point",
"coordinates":[
140.869514,
40.947661
]
}
},
{
"type":"Feature",
"properties":{
"Name":"旧大川平小学校",
"Jusho":"青森県東津軽郡今別町熊沢67",
"Capacity":"414",
"la":"41.15985018400",
"ln":"140.50605347500"
},
"geometry":{
"type":"Point",
"coordinates":[
140.506053475,
41.159850184
]
}
},
{
"type":"Feature",
"properties":{
"Name":"旧二股小学校",
"Jusho":"青森県東津軽郡今別町二股1－",
"Capacity":"320",
"la":"41.13796044970",
"ln":"140.51386247400"
},
"geometry":{
"type":"Point",
"coordinates":[
140.513862474,
41.1379604497
]
}
},
{
"type":"Feature",
"properties":{
"Name":"今別小学校",
"Jusho":"青森県東津軽郡今別町中沢205",
"Capacity":"481",
"la":"41.18040400000",
"ln":"140.48370400000"
},
"geometry":{
"type":"Point",
"coordinates":[
140.483704,
41.180404
]
}
},
{
"type":"Feature",
"properties":{
"Name":"蓬田小学校",
"Jusho":"青森県東津軽郡蓬田村阿弥陀川字汐干198番地148",
"Capacity":"－",
"la":"40.96904200000",
"ln":"140.64814400000"
},
"geometry":{
"type":"Point",
"coordinates":[
140.648144,
40.969042
]
}
},
{
"type":"Feature",
"properties":{
"Name":"蟹田小学校",
"Jusho":"青森県東津軽郡外ヶ浜町鰐ヶ淵24-2",
"Capacity":"－",
"la":"41.04279300000",
"ln":"140.63461100000"
},
"geometry":{
"type":"Point",
"coordinates":[
140.634611,
41.042793
]
}
},
{
"type":"Feature",
"properties":{
"Name":"三厩小学校",
"Jusho":"青森県東津軽郡外ヶ浜町三厩桃ヶ丘1",
"Capacity":"－",
"la":"41.19364000000",
"ln":"140.43354600000"
},
"geometry":{
"type":"Point",
"coordinates":[
140.433546,
41.19364
]
}
},
{
"type":"Feature",
"properties":{
"Name":"平舘小学校体育館",
"Jusho":"青森県東津軽郡外ヶ浜町平舘根岸小川251",
"Capacity":"－",
"la":"41.14603700000",
"ln":"140.63519200000"
},
"geometry":{
"type":"Point",
"coordinates":[
140.635192,
41.146037
]
}
},
{
"type":"Feature",
"properties":{
"Name":"（旧）芦萢小学校グランド",
"Jusho":"青森県西津軽郡鰺ヶ沢町芦萢町字響滝60-9",
"Capacity":"－",
"la":"40.70135662920",
"ln":"140.22749003100"
},
"geometry":{
"type":"Point",
"coordinates":[
140.227490031,
40.7013566292
]
}
},
{
"type":"Feature",
"properties":{
"Name":"（旧）一ッ森小学校",
"Jusho":"青森県西津軽郡鰺ヶ沢町一ッ森町字上禿88-2",
"Capacity":"50",
"la":"40.68995300000",
"ln":"140.15063600000"
},
"geometry":{
"type":"Point",
"coordinates":[
140.150636,
40.689953
]
}
},
{
"type":"Feature",
"properties":{
"Name":"（旧）建石小学校",
"Jusho":"青森県西津軽郡鰺ヶ沢町建石町字島田146",
"Capacity":"500",
"la":"40.76211100000",
"ln":"140.31290200000"
},
"geometry":{
"type":"Point",
"coordinates":[
140.312902,
40.762111
]
}
},
{
"type":"Feature",
"properties":{
"Name":"（旧）深谷小学校",
"Jusho":"青森県西津軽郡鰺ヶ沢町深谷町字細ヶ平野山104",
"Capacity":"50",
"la":"40.69803900000",
"ln":"140.20589400000"
},
"geometry":{
"type":"Point",
"coordinates":[
140.205894,
40.698039
]
}
},
{
"type":"Feature",
"properties":{
"Name":"（旧）赤石小学校",
"Jusho":"青森県西津軽郡鰺ヶ沢町赤石町家岸87",
"Capacity":"300",
"la":"40.75433000000",
"ln":"140.17624500000"
},
"geometry":{
"type":"Point",
"coordinates":[
140.176245,
40.75433
]
}
},
{
"type":"Feature",
"properties":{
"Name":"（旧）中村小学校",
"Jusho":"青森県西津軽郡鰺ヶ沢町中村町字中山ノ井62",
"Capacity":"250",
"la":"40.75211000000",
"ln":"140.22929800000"
},
"geometry":{
"type":"Point",
"coordinates":[
140.229298,
40.75211
]
}
},
{
"type":"Feature",
"properties":{
"Name":"（旧）長平小学校グランド",
"Jusho":"青森県西津軽郡鰺ヶ沢町長平町字甲音羽山64-213",
"Capacity":"－",
"la":"40.71597800000",
"ln":"140.27670200000"
},
"geometry":{
"type":"Point",
"coordinates":[
140.276702,
40.715978
]
}
},
{
"type":"Feature",
"properties":{
"Name":"（旧）南金沢小学校",
"Jusho":"青森県西津軽郡鰺ヶ沢町南金沢町字晴間7-4",
"Capacity":"300",
"la":"40.72266600000",
"ln":"140.18402400000"
},
"geometry":{
"type":"Point",
"coordinates":[
140.184024,
40.722666
]
}
},
{
"type":"Feature",
"properties":{
"Name":"（旧）鳴沢小学校",
"Jusho":"青森県西津軽郡鰺ヶ沢町北浮田町字外馬屋51-3",
"Capacity":"500",
"la":"40.77933100000",
"ln":"140.27290500000"
},
"geometry":{
"type":"Point",
"coordinates":[
140.272905,
40.779331
]
}
},
{
"type":"Feature",
"properties":{
"Name":"西海小学校",
"Jusho":"青森県西津軽郡鰺ヶ沢町舞戸町字小夜190",
"Capacity":"600",
"la":"40.77794000000",
"ln":"140.20707500000"
},
"geometry":{
"type":"Point",
"coordinates":[
140.207075,
40.77794
]
}
},
{
"type":"Feature",
"properties":{
"Name":"舞戸小学校",
"Jusho":"青森県西津軽郡鰺ヶ沢町舞戸町字久富27",
"Capacity":"500",
"la":"40.77627400000",
"ln":"140.22457400000"
},
"geometry":{
"type":"Point",
"coordinates":[
140.224574,
40.776274
]
}
},
{
"type":"Feature",
"properties":{
"Name":"旧いわさき小学校グラウンド",
"Jusho":"青森県西津軽郡深浦町大宇岩崎宇松原113",
"Capacity":"776",
"la":"40.58572900000",
"ln":"139.92294400000"
},
"geometry":{
"type":"Point",
"coordinates":[
139.922944,
40.585729
]
}
},
{
"type":"Feature",
"properties":{
"Name":"旧岩崎南小学校グラウンド",
"Jusho":"青森県西津軽郡深浦町大字黒崎字小浜158-4",
"Capacity":"1856",
"la":"40.51476400000",
"ln":"139.94809600000"
},
"geometry":{
"type":"Point",
"coordinates":[
139.948096,
40.514764
]
}
},
{
"type":"Feature",
"properties":{
"Name":"旧風合瀬小学校グラウンド",
"Jusho":"青森県西津軽郡深浦町大字風合瀬字上砂子川159-26",
"Capacity":"2319",
"la":"40.73016000000",
"ln":"140.01043000000"
},
"geometry":{
"type":"Point",
"coordinates":[
140.01043,
40.73016
]
}
},
{
"type":"Feature",
"properties":{
"Name":"旧明道小学校グラウンド",
"Jusho":"青森県西津軽郡深浦町大字追良瀬字塩見山平85-2",
"Capacity":"2430",
"la":"40.69071800000",
"ln":"139.97404600000"
},
"geometry":{
"type":"Point",
"coordinates":[
139.974046,
40.690718
]
}
},
{
"type":"Feature",
"properties":{
"Name":"修道小学校体育館",
"Jusho":"青森県西津軽郡深浦町大宇関宇栃沢85－",
"Capacity":"1384",
"la":"40.74543900000",
"ln":"140.09680900000"
},
"geometry":{
"type":"Point",
"coordinates":[
140.096809,
40.745439
]
}
},
{
"type":"Feature",
"properties":{
"Name":"深浦小学校体育館",
"Jusho":"青森県西津軽郡深浦町大宇深浦宇寅平62-6",
"Capacity":"1278",
"la":"40.64044500000",
"ln":"139.92766400000"
},
"geometry":{
"type":"Point",
"coordinates":[
139.927664,
40.640445
]
}
},
{
"type":"Feature",
"properties":{
"Name":"常盤小学校",
"Jusho":"青森県南津軽郡藤崎町大字常盤字三西田23",
"Capacity":"950",
"la":"40.67351500000",
"ln":"140.54122100000"
},
"geometry":{
"type":"Point",
"coordinates":[
140.541221,
40.673515
]
}
},
{
"type":"Feature",
"properties":{
"Name":"藤崎小学校",
"Jusho":"青森県南津軽郡藤崎町大字藤崎字西村井5－",
"Capacity":"1000",
"la":"40.65462600000",
"ln":"140.49594700000"
},
"geometry":{
"type":"Point",
"coordinates":[
140.495947,
40.654626
]
}
},
{
"type":"Feature",
"properties":{
"Name":"藤崎中央小学校",
"Jusho":"青森県南津軽郡藤崎町大字水沼字浅田11",
"Capacity":"1000",
"la":"40.66573700000",
"ln":"140.50427900000"
},
"geometry":{
"type":"Point",
"coordinates":[
140.504279,
40.665737
]
}
},
{
"type":"Feature",
"properties":{
"Name":"蔵館小学校",
"Jusho":"青森県南津軽郡大鰐町蔵館字古館80－",
"Capacity":"2140",
"la":"40.52408900000",
"ln":"140.57872300000"
},
"geometry":{
"type":"Point",
"coordinates":[
140.578723,
40.524089
]
}
},
{
"type":"Feature",
"properties":{
"Name":"大鰐小学校",
"Jusho":"青森県南津軽郡大鰐町大鰐字羽黒館54",
"Capacity":"5772",
"la":"40.51741500000",
"ln":"140.56657100000"
},
"geometry":{
"type":"Point",
"coordinates":[
140.566571,
40.517415
]
}
},
{
"type":"Feature",
"properties":{
"Name":"大鰐第二小学校",
"Jusho":"青森県南津軽郡大鰐町三ツ目内字大堰口3-2",
"Capacity":"2773",
"la":"40.50964600000",
"ln":"140.53733900000"
},
"geometry":{
"type":"Point",
"coordinates":[
140.537339,
40.509646
]
}
},
{
"type":"Feature",
"properties":{
"Name":"長峰小学校",
"Jusho":"青森県南津軽郡大鰐町長峰字沢田1",
"Capacity":"2395",
"la":"40.51359700000",
"ln":"140.60221200000"
},
"geometry":{
"type":"Point",
"coordinates":[
140.602212,
40.513597
]
}
},
{
"type":"Feature",
"properties":{
"Name":"旧光田寺小学校屋内",
"Jusho":"青森県南津軽郡田舎館村大字東光寺字村井66番地1",
"Capacity":"2957",
"la":"40.65546200000",
"ln":"140.55538700000"
},
"geometry":{
"type":"Point",
"coordinates":[
140.555387,
40.655462
]
}
},
{
"type":"Feature",
"properties":{
"Name":"旧田舎館小学校グラウンド",
"Jusho":"青森県南津軽郡田舎館村畑中藤巻180",
"Capacity":"1813",
"la":"40.63463200000",
"ln":"140.55511000000"
},
"geometry":{
"type":"Point",
"coordinates":[
140.55511,
40.634632
]
}
},
{
"type":"Feature",
"properties":{
"Name":"田舎館小学校屋内",
"Jusho":"青森県南津軽郡田舎館村大根子字牧ヶ袋80",
"Capacity":"4058",
"la":"40.64074000000",
"ln":"140.51844600000"
},
"geometry":{
"type":"Point",
"coordinates":[
140.518446,
40.64074
]
}
},
{
"type":"Feature",
"properties":{
"Name":"旧水元小学校",
"Jusho":"青森県北津軽郡鶴田町大字廻堰字下桂井6番地3",
"Capacity":"－",
"la":"40.75794396080",
"ln":"140.39900061100"
},
"geometry":{
"type":"Point",
"coordinates":[
140.399000611,
40.7579439608
]
}
},
{
"type":"Feature",
"properties":{
"Name":"胡桃舘小学校",
"Jusho":"青森県北津軽郡鶴田町胡桃舘北田171",
"Capacity":"－",
"la":"40.74128400000",
"ln":"140.45428100000"
},
"geometry":{
"type":"Point",
"coordinates":[
140.454281,
40.741284
]
}
},
{
"type":"Feature",
"properties":{
"Name":"菖蒲川小学校",
"Jusho":"青森県北津軽郡鶴田町菖蒲川一本柳71－",
"Capacity":"－",
"la":"40.73350600000",
"ln":"140.42539400000"
},
"geometry":{
"type":"Point",
"coordinates":[
140.425394,
40.733506
]
}
},
{
"type":"Feature",
"properties":{
"Name":"水元中央小学校",
"Jusho":"青森県北津軽郡鶴田町妙堂崎杉元75",
"Capacity":"－",
"la":"40.76768600000",
"ln":"140.38874300000"
},
"geometry":{
"type":"Point",
"coordinates":[
140.388743,
40.767686
]
}
},
{
"type":"Feature",
"properties":{
"Name":"鶴田小学校",
"Jusho":"青森県北津軽郡鶴田町鶴田鷹ノ尾11-2",
"Capacity":"－",
"la":"40.76239200000",
"ln":"140.43011500000"
},
"geometry":{
"type":"Point",
"coordinates":[
140.430115,
40.762392
]
}
},
{
"type":"Feature",
"properties":{
"Name":"梅沢小学校",
"Jusho":"青森県北津軽郡鶴田町横萢松倉16－",
"Capacity":"－",
"la":"40.75584000000",
"ln":"140.47223300000"
},
"geometry":{
"type":"Point",
"coordinates":[
140.472233,
40.75584
]
}
},
{
"type":"Feature",
"properties":{
"Name":"富士見小学校",
"Jusho":"青森県北津軽郡鶴田町野木西鶴見90",
"Capacity":"－",
"la":"40.74933700000",
"ln":"140.41150600000"
},
"geometry":{
"type":"Point",
"coordinates":[
140.411506,
40.749337
]
}
},
{
"type":"Feature",
"properties":{
"Name":"旧下前小学校",
"Jusho":"青森県北津軽郡中泊町大字小泊字漆流36－",
"Capacity":"－",
"la":"41.12283200000",
"ln":"140.27292900000"
},
"geometry":{
"type":"Point",
"coordinates":[
140.272929,
41.122832
]
}
},
{
"type":"Feature",
"properties":{
"Name":"旧今泉小学校体育館",
"Jusho":"青森県北津軽郡中泊町大字今泉字布引115番地1",
"Capacity":"－",
"la":"41.03016100000",
"ln":"140.41891000000"
},
"geometry":{
"type":"Point",
"coordinates":[
140.41891,
41.030161
]
}
},
{
"type":"Feature",
"properties":{
"Name":"小泊小学校",
"Jusho":"青森県北津軽郡中泊町小泊砂山1076－",
"Capacity":"－",
"la":"41.12901700000",
"ln":"140.31016900000"
},
"geometry":{
"type":"Point",
"coordinates":[
140.310169,
41.129017
]
}
},
{
"type":"Feature",
"properties":{
"Name":"中里小学校",
"Jusho":"青森県北津軽郡中泊町中里亀山251－",
"Capacity":"－",
"la":"40.96459200000",
"ln":"140.44482800000"
},
"geometry":{
"type":"Point",
"coordinates":[
140.444828,
40.964592
]
}
},
{
"type":"Feature",
"properties":{
"Name":"薄市小学校",
"Jusho":"青森県北津軽郡中泊町薄市飛石田野沢187-8",
"Capacity":"－",
"la":"41.00804454620",
"ln":"140.42514899000"
},
"geometry":{
"type":"Point",
"coordinates":[
140.42514899,
41.0080445462
]
}
},
{
"type":"Feature",
"properties":{
"Name":"武田小学校",
"Jusho":"青森県北津軽郡中泊町富野千歳305－",
"Capacity":"－",
"la":"40.93459400000",
"ln":"140.41455400000"
},
"geometry":{
"type":"Point",
"coordinates":[
140.414554,
40.934594
]
}
},
{
"type":"Feature",
"properties":{
"Name":"若葉小学校",
"Jusho":"青森県上北郡野辺地町字石神裏16",
"Capacity":"－",
"la":"40.87017700000",
"ln":"141.13366600000"
},
"geometry":{
"type":"Point",
"coordinates":[
141.133666,
40.870177
]
}
},
{
"type":"Feature",
"properties":{
"Name":"馬門小学校",
"Jusho":"青森県上北郡野辺地町字家ノ上6-6",
"Capacity":"－",
"la":"40.87600900000",
"ln":"141.09477900000"
},
"geometry":{
"type":"Point",
"coordinates":[
141.094779,
40.876009
]
}
},
{
"type":"Feature",
"properties":{
"Name":"野辺地小学校",
"Jusho":"青森県上北郡野辺地町字寺ノ沢42-4",
"Capacity":"－",
"la":"40.86323300000",
"ln":"141.13088800000"
},
"geometry":{
"type":"Point",
"coordinates":[
141.130888,
40.863233
]
}
},
{
"type":"Feature",
"properties":{
"Name":"七戸町立七戸小学校",
"Jusho":"青森県上北郡七戸町字上町野130番地",
"Capacity":"－",
"la":"40.70602900000",
"ln":"141.15311500000"
},
"geometry":{
"type":"Point",
"coordinates":[
141.153115,
40.706029
]
}
},
{
"type":"Feature",
"properties":{
"Name":"七戸町立城南小学校",
"Jusho":"青森県上北郡七戸町字舘野32番地58",
"Capacity":"－",
"la":"40.68686400000",
"ln":"141.15755900000"
},
"geometry":{
"type":"Point",
"coordinates":[
141.157559,
40.686864
]
}
},
{
"type":"Feature",
"properties":{
"Name":"七戸町立天間西小学校",
"Jusho":"青森県上北郡七戸町字森ノ上180番地1",
"Capacity":"－",
"la":"40.74713500000",
"ln":"141.16144500000"
},
"geometry":{
"type":"Point",
"coordinates":[
141.161445,
40.747135
]
}
},
{
"type":"Feature",
"properties":{
"Name":"七戸町立天間東小学校",
"Jusho":"青森県上北郡七戸町字鉢森平181番地26",
"Capacity":"－",
"la":"40.74852500000",
"ln":"141.21977400000"
},
"geometry":{
"type":"Point",
"coordinates":[
141.219774,
40.748525
]
}
},
{
"type":"Feature",
"properties":{
"Name":"開知小学校",
"Jusho":"青森県上北郡六戸町犬落瀬権現沢14－59",
"Capacity":"－",
"la":"40.64242700000",
"ln":"141.29976900000"
},
"geometry":{
"type":"Point",
"coordinates":[
141.299769,
40.642427
]
}
},
{
"type":"Feature",
"properties":{
"Name":"旧長谷小学校",
"Jusho":"青森県上北郡六戸町大字下吉田字下沼田111－",
"Capacity":"－",
"la":"40.59002359550",
"ln":"141.35274631700"
},
"geometry":{
"type":"Point",
"coordinates":[
141.352746317,
40.5900235955
]
}
},
{
"type":"Feature",
"properties":{
"Name":"旧柳町小学校",
"Jusho":"青森県上北郡六戸町大字柳町字百役31番地1",
"Capacity":"－",
"la":"40.59241650820",
"ln":"141.29377248400"
},
"geometry":{
"type":"Point",
"coordinates":[
141.293772484,
40.5924165082
]
}
},
{
"type":"Feature",
"properties":{
"Name":"横浜小学校",
"Jusho":"青森県上北郡横浜町浜懸40",
"Capacity":"760",
"la":"41.08098800000",
"ln":"141.24364600000"
},
"geometry":{
"type":"Point",
"coordinates":[
141.243646,
41.080988
]
}
},
{
"type":"Feature",
"properties":{
"Name":"大豆田小学校",
"Jusho":"青森県上北郡横浜町家ノ前川目30-3",
"Capacity":"560",
"la":"41.11293000000",
"ln":"141.25475600000"
},
"geometry":{
"type":"Point",
"coordinates":[
141.254756,
41.11293
]
}
},
{
"type":"Feature",
"properties":{
"Name":"南部小学校",
"Jusho":"青森県上北郡横浜町吹越82－",
"Capacity":"390",
"la":"41.03154800000",
"ln":"141.24587100000"
},
"geometry":{
"type":"Point",
"coordinates":[
141.245871,
41.031548
]
}
},
{
"type":"Feature",
"properties":{
"Name":"有畑小学校",
"Jusho":"青森県上北郡横浜町苗代川目14",
"Capacity":"720",
"la":"41.13181800000",
"ln":"141.27475400000"
},
"geometry":{
"type":"Point",
"coordinates":[
141.274754,
41.131818
]
}
},
{
"type":"Feature",
"properties":{
"Name":"甲地小学校",
"Jusho":"青森県上北郡東北町字往来ノ下50",
"Capacity":"－",
"la":"40.77435700000",
"ln":"141.28504400000"
},
"geometry":{
"type":"Point",
"coordinates":[
141.285044,
40.774357
]
}
},
{
"type":"Feature",
"properties":{
"Name":"小川原小学校",
"Jusho":"青森県上北郡東北町大浦字舘野41-3",
"Capacity":"－",
"la":"40.70964300000",
"ln":"141.29393500000"
},
"geometry":{
"type":"Point",
"coordinates":[
141.293935,
40.709643
]
}
},
{
"type":"Feature",
"properties":{
"Name":"上北小学校",
"Jusho":"青森県上北郡東北町上野字堤向22",
"Capacity":"－",
"la":"40.72027400000",
"ln":"141.25718000000"
},
"geometry":{
"type":"Point",
"coordinates":[
141.25718,
40.720274
]
}
},
{
"type":"Feature",
"properties":{
"Name":"水喰小学校",
"Jusho":"青森県上北郡東北町字切左坂道ノ上38",
"Capacity":"－",
"la":"40.82740600000",
"ln":"141.27032200000"
},
"geometry":{
"type":"Point",
"coordinates":[
141.270322,
40.827406
]
}
},
{
"type":"Feature",
"properties":{
"Name":"蛯沢小学校",
"Jusho":"青森県上北郡東北町字塔ノ沢山1-485",
"Capacity":"－",
"la":"40.78157700000",
"ln":"141.22477200000"
},
"geometry":{
"type":"Point",
"coordinates":[
141.224772,
40.781577
]
}
},
{
"type":"Feature",
"properties":{
"Name":"泊小学校",
"Jusho":"青森県上北郡六ヶ所村大字泊川原75－7",
"Capacity":"－",
"la":"41.08898500000",
"ln":"141.38879800000"
},
"geometry":{
"type":"Point",
"coordinates":[
141.388798,
41.088985
]
}
},
{
"type":"Feature",
"properties":{
"Name":"下田小学校",
"Jusho":"青森県上北郡おいらせ町舘越38",
"Capacity":"890",
"la":"40.59743400000",
"ln":"141.37365400000"
},
"geometry":{
"type":"Point",
"coordinates":[
141.373654,
40.597434
]
}
},
{
"type":"Feature",
"properties":{
"Name":"甲洋小学校",
"Jusho":"青森県上北郡おいらせ町一川目四丁目6－0",
"Capacity":"1400",
"la":"40.64548600000",
"ln":"141.43864600000"
},
"geometry":{
"type":"Point",
"coordinates":[
141.438646,
40.645486
]
}
},
{
"type":"Feature",
"properties":{
"Name":"百石小学校",
"Jusho":"青森県上北郡おいらせ町牛込平20-2",
"Capacity":"1700",
"la":"40.60104500000",
"ln":"141.43670500000"
},
"geometry":{
"type":"Point",
"coordinates":[
141.436705,
40.601045
]
}
},
{
"type":"Feature",
"properties":{
"Name":"木ノ下小学校",
"Jusho":"青森県上北郡おいらせ町青葉六丁目50－84",
"Capacity":"2260",
"la":"40.65287900000",
"ln":"141.36903700000"
},
"geometry":{
"type":"Point",
"coordinates":[
141.369037,
40.652879
]
}
},
{
"type":"Feature",
"properties":{
"Name":"木内々小学校",
"Jusho":"青森県上北郡おいらせ町染屋101-7",
"Capacity":"1210",
"la":"40.60104500000",
"ln":"141.40781800000"
},
"geometry":{
"type":"Point",
"coordinates":[
141.407818,
40.601045
]
}
},
{
"type":"Feature",
"properties":{
"Name":"大間町立奥戸小学校",
"Jusho":"青森県下北郡大間町大字奥戸字館の上96-69",
"Capacity":"－",
"la":"41.48906399910",
"ln":"140.90639800000"
},
"geometry":{
"type":"Point",
"coordinates":[
140.906398,
41.4890639991
]
}
},
{
"type":"Feature",
"properties":{
"Name":"大間町立大間小学校",
"Jusho":"青森県下北郡大間町大字大間字狼丁37-2",
"Capacity":"－",
"la":"41.52787800000",
"ln":"140.91282400000"
},
"geometry":{
"type":"Point",
"coordinates":[
140.912824,
41.527878
]
}
},
{
"type":"Feature",
"properties":{
"Name":"東通小学校",
"Jusho":"青森県下北郡東通村大字砂子又字沢内9-4",
"Capacity":"－",
"la":"41.27620500000",
"ln":"141.33366700000"
},
"geometry":{
"type":"Point",
"coordinates":[
141.333667,
41.276205
]
}
},
{
"type":"Feature",
"properties":{
"Name":"佐井小学校",
"Jusho":"青森県下北郡佐井村糠森103-3",
"Capacity":"－",
"la":"41.43177700000",
"ln":"140.85838400000"
},
"geometry":{
"type":"Point",
"coordinates":[
140.858384,
41.431777
]
}
},
{
"type":"Feature",
"properties":{
"Name":"三戸小学校",
"Jusho":"青森県三戸郡三戸町梅内字権現林1",
"Capacity":"－",
"la":"40.37690400000",
"ln":"141.26839400000"
},
"geometry":{
"type":"Point",
"coordinates":[
141.268394,
40.376904
]
}
},
{
"type":"Feature",
"properties":{
"Name":"斗川小学校",
"Jusho":"青森県三戸郡三戸町斗内字清水田50",
"Capacity":"－",
"la":"40.35773800000",
"ln":"141.20673400000"
},
"geometry":{
"type":"Point",
"coordinates":[
141.206734,
40.357738
]
}
},
{
"type":"Feature",
"properties":{
"Name":"五戸小学校",
"Jusho":"青森県三戸郡五戸町天満後21",
"Capacity":"1007",
"la":"40.52633000000",
"ln":"141.30338500000"
},
"geometry":{
"type":"Point",
"coordinates":[
141.303385,
40.52633
]
}
},
{
"type":"Feature",
"properties":{
"Name":"上市川小学校",
"Jusho":"青森県三戸郡五戸町上市川御兵糧3",
"Capacity":"523",
"la":"40.56355000000",
"ln":"141.39837500000"
},
"geometry":{
"type":"Point",
"coordinates":[
141.398375,
40.56355
]
}
},
{
"type":"Feature",
"properties":{
"Name":"石沢小学校",
"Jusho":"青森県三戸郡五戸町石沢72",
"Capacity":"303",
"la":"40.51443900000",
"ln":"141.28233100000"
},
"geometry":{
"type":"Point",
"coordinates":[
141.282331,
40.514439
]
}
},
{
"type":"Feature",
"properties":{
"Name":"切谷内小学校",
"Jusho":"青森県三戸郡五戸町切谷内高田川原24－",
"Capacity":"519",
"la":"40.55021700000",
"ln":"141.35699000000"
},
"geometry":{
"type":"Point",
"coordinates":[
141.35699,
40.550217
]
}
},
{
"type":"Feature",
"properties":{
"Name":"中市小学校",
"Jusho":"青森県三戸郡五戸町田茂平40",
"Capacity":"381",
"la":"40.50614900000",
"ln":"141.25460000000"
},
"geometry":{
"type":"Point",
"coordinates":[
141.2546,
40.506149
]
}
},
{
"type":"Feature",
"properties":{
"Name":"南小学校",
"Jusho":"青森県三戸郡五戸町大字浅水字十海塚35番地",
"Capacity":"551",
"la":"40.48439100000",
"ln":"141.30894100000"
},
"geometry":{
"type":"Point",
"coordinates":[
141.308941,
40.484391
]
}
},
{
"type":"Feature",
"properties":{
"Name":"豊間内小学校",
"Jusho":"青森県三戸郡五戸町豊間内五ヶ久保1-3",
"Capacity":"517",
"la":"40.50327900000",
"ln":"141.34643700000"
},
"geometry":{
"type":"Point",
"coordinates":[
141.346437,
40.503279
]
}
},
{
"type":"Feature",
"properties":{
"Name":"豊川小学校跡地",
"Jusho":"青森県三戸郡五戸町",
"Capacity":"－",
"la":"40.47570952640",
"ln":"141.26338240900"
},
"geometry":{
"type":"Point",
"coordinates":[
141.263382409,
40.4757095264
]
}
},
{
"type":"Feature",
"properties":{
"Name":"又重小学校",
"Jusho":"青森県三戸郡五戸町上川原110－",
"Capacity":"360",
"la":"40.48184600000",
"ln":"141.21539500000"
},
"geometry":{
"type":"Point",
"coordinates":[
141.215395,
40.481846
]
}
},
{
"type":"Feature",
"properties":{
"Name":"蛯川小学校",
"Jusho":"青森県三戸郡五戸町熊野林32",
"Capacity":"448",
"la":"40.54077300000",
"ln":"141.32199400000"
},
"geometry":{
"type":"Point",
"coordinates":[
141.321994,
40.540773
]
}
},
{
"type":"Feature",
"properties":{
"Name":"町立田子小学校",
"Jusho":"青森県三戸郡田子町大字田子字野-上平4",
"Capacity":"－",
"la":"40.34190500000",
"ln":"141.14368400000"
},
"geometry":{
"type":"Point",
"coordinates":[
141.143684,
40.341905
]
}
},
{
"type":"Feature",
"properties":{
"Name":"剣吉小学校",
"Jusho":"青森県三戸郡南部町剣吉字大館10－",
"Capacity":"－",
"la":"40.44578600000",
"ln":"141.34067700000"
},
"geometry":{
"type":"Point",
"coordinates":[
141.340677,
40.445786
]
}
},
{
"type":"Feature",
"properties":{
"Name":"向小学校",
"Jusho":"青森県三戸郡南部町大向字飛鳥20-2",
"Capacity":"－",
"la":"40.40217800000",
"ln":"141.27228100000"
},
"geometry":{
"type":"Point",
"coordinates":[
141.272281,
40.402178
]
}
},
{
"type":"Feature",
"properties":{
"Name":"杉沢小学校",
"Jusho":"青森県三戸郡南部町杉沢字杉沢6-4",
"Capacity":"－",
"la":"40.45217500000",
"ln":"141.41587700000"
},
"geometry":{
"type":"Point",
"coordinates":[
141.415877,
40.452175
]
}
},
{
"type":"Feature",
"properties":{
"Name":"南部小学校",
"Jusho":"青森県三戸郡南部町沖田面字久保10－",
"Capacity":"－",
"la":"40.41475500000",
"ln":"141.28599600000"
},
"geometry":{
"type":"Point",
"coordinates":[
141.285996,
40.414755
]
}
},
{
"type":"Feature",
"properties":{
"Name":"福地小学校",
"Jusho":"青森県三戸郡南部町苫米地字寺ノ後15－",
"Capacity":"－",
"la":"40.47078400000",
"ln":"141.37631800000"
},
"geometry":{
"type":"Point",
"coordinates":[
141.376318,
40.470784
]
}
},
{
"type":"Feature",
"properties":{
"Name":"福田小学校",
"Jusho":"青森県三戸郡南部町福田字源次郎平7－",
"Capacity":"－",
"la":"40.46078500000",
"ln":"141.38199000000"
},
"geometry":{
"type":"Point",
"coordinates":[
141.38199,
40.460785
]
}
},
{
"type":"Feature",
"properties":{
"Name":"名久井小学校",
"Jusho":"青森県三戸郡南部町平字広場8",
"Capacity":"－",
"la":"40.42301100000",
"ln":"141.33199600000"
},
"geometry":{
"type":"Point",
"coordinates":[
141.331996,
40.423011
]
}
},
{
"type":"Feature",
"properties":{
"Name":"名川南小学校",
"Jusho":"青森県三戸郡南部町鳥谷字太田3",
"Capacity":"－",
"la":"40.37752300000",
"ln":"141.36308900000"
},
"geometry":{
"type":"Point",
"coordinates":[
141.363089,
40.377523
]
}
},
{
"type":"Feature",
"properties":{
"Name":"階上小学校",
"Jusho":"青森県三戸郡階上町鳥屋部大鶴音1-2",
"Capacity":"－",
"la":"40.43634800000",
"ln":"141.57725000000"
},
"geometry":{
"type":"Point",
"coordinates":[
141.57725,
40.436348
]
}
},
{
"type":"Feature",
"properties":{
"Name":"金山沢小学校",
"Jusho":"青森県三戸郡階上町金山沢大畑16",
"Capacity":"－",
"la":"40.43889000000",
"ln":"141.53909700000"
},
"geometry":{
"type":"Point",
"coordinates":[
141.539097,
40.43889
]
}
},
{
"type":"Feature",
"properties":{
"Name":"小船渡小学校",
"Jusho":"青森県三戸郡階上町道仏廿一2－",
"Capacity":"－",
"la":"40.45134800000",
"ln":"141.68029400000"
},
"geometry":{
"type":"Point",
"coordinates":[
141.680294,
40.451348
]
}
},
{
"type":"Feature",
"properties":{
"Name":"石鉢小学校",
"Jusho":"青森県三戸郡階上町角柄折字石鉢14-2",
"Capacity":"－",
"la":"40.46023300000",
"ln":"141.57724900000"
},
"geometry":{
"type":"Point",
"coordinates":[
141.577249,
40.460233
]
}
},
{
"type":"Feature",
"properties":{
"Name":"赤保内小学校",
"Jusho":"青森県三戸郡階上町赤保内耳ヶ吠6－",
"Capacity":"－",
"la":"40.45051300000",
"ln":"141.61335800000"
},
"geometry":{
"type":"Point",
"coordinates":[
141.613358,
40.450513
]
}
},
{
"type":"Feature",
"properties":{
"Name":"大蛇小学校",
"Jusho":"青森県三戸郡階上町道仏大蛇30－",
"Capacity":"－",
"la":"40.46822800000",
"ln":"141.65134000000"
},
"geometry":{
"type":"Point",
"coordinates":[
141.65134,
40.468228
]
}
},
{
"type":"Feature",
"properties":{
"Name":"登切小学校",
"Jusho":"青森県三戸郡階上町平内上道1－",
"Capacity":"－",
"la":"40.41385000000",
"ln":"141.54892100000"
},
"geometry":{
"type":"Point",
"coordinates":[
141.548921,
40.41385
]
}
},
{
"type":"Feature",
"properties":{
"Name":"道仏小学校",
"Jusho":"青森県三戸郡階上町道仏外窪21－",
"Capacity":"－",
"la":"40.44791900000",
"ln":"141.65270800000"
},
"geometry":{
"type":"Point",
"coordinates":[
141.652708,
40.447919
]
}
},
{
"type":"Feature",
"properties":{
"Name":"板柳北小学校",
"Jusho":"青森県北津軽郡板柳町大字赤田字田川13",
"Capacity":"1072",
"la":"40.71295300000",
"ln":"140.45400400000"
},
"geometry":{
"type":"Point",
"coordinates":[
140.454004,
40.712953
]
}
},
{
"type":"Feature",
"properties":{
"Name":"板柳南小学校",
"Jusho":"青森県北津軽郡板柳町大字辻字岸田75－",
"Capacity":"1072",
"la":"40.69212200000",
"ln":"140.46872600000"
},
"geometry":{
"type":"Point",
"coordinates":[
140.468726,
40.692122
]
}
},
{
"type":"Feature",
"properties":{
"Name":"小阿弥小学校",
"Jusho":"青森県北津軽郡板柳町大字大俵字富永39-2",
"Capacity":"1072",
"la":"40.72489700000",
"ln":"140.48511200000"
},
"geometry":{
"type":"Point",
"coordinates":[
140.485112,
40.724897
]
}
},
{
"type":"Feature",
"properties":{
"Name":"板柳東小学校",
"Jusho":"青森県北津軽郡板柳町大字常海橋字稲葉197-21",
"Capacity":"500",
"la":"40.72507200000",
"ln":"140.51153800000"
},
"geometry":{
"type":"Point",
"coordinates":[
140.511538,
40.725072
]
}
},
{
"type":"Feature",
"properties":{
"Name":"蛇浦小学校",
"Jusho":"青森県下北郡風間浦村大字蛇浦字古釜谷平126",
"Capacity":"180",
"la":"41.50899300000",
"ln":"140.96254300000"
},
"geometry":{
"type":"Point",
"coordinates":[
140.962543,
41.508993
]
}
},
{
"type":"Feature",
"properties":{
"Name":"易国間小学校",
"Jusho":"青森県下北郡風間浦村大字易国間字大川目",
"Capacity":"240",
"la":"41.48649600000",
"ln":"140.99392900000"
},
"geometry":{
"type":"Point",
"coordinates":[
140.993929,
41.486496
]
}
},
{
"type":"Feature",
"properties":{
"Name":"下風呂小学校",
"Jusho":"青森県下北郡風間浦村大字下風呂字甲平ノ上18－",
"Capacity":"438",
"la":"41.45789100000",
"ln":"141.10502800000"
},
"geometry":{
"type":"Point",
"coordinates":[
141.105028,
41.457891
]
}
},
{
"type":"Feature",
"properties":{
"Name":"戸来小学校",
"Jusho":"青森県三戸郡新郷村大字戸来字大久保88番地",
"Capacity":"－",
"la":"40.46550100000",
"ln":"141.16923300000"
},
"geometry":{
"type":"Point",
"coordinates":[
141.169233,
40.465501
]
}
},
{
"type":"Feature",
"properties":{
"Name":"西越小学校",
"Jusho":"青森県三戸郡新郷村大字西越字佐野平57番地",
"Capacity":"－",
"la":"40.43883800000",
"ln":"141.20339700000"
},
"geometry":{
"type":"Point",
"coordinates":[
141.203397,
40.438838
]
}
},
{
"type":"Feature",
"properties":{
"Name":"川代小学校体育館",
"Jusho":"青森県三戸郡新郷村大字戸来字後川原23-2",
"Capacity":"－",
"la":"40.46577700000",
"ln":"141.12729200000"
},
"geometry":{
"type":"Point",
"coordinates":[
141.127292,
40.465777
]
}
},
{
"type":"Feature",
"properties":{
"Name":"浦町中学校",
"Jusho":"青森県青森市勝田二丁目25－2",
"Capacity":"455",
"la":"40.81656100000",
"ln":"140.75980900000"
},
"geometry":{
"type":"Point",
"coordinates":[
140.759809,
40.816561
]
}
},
{
"type":"Feature",
"properties":{
"Name":"横内中学校",
"Jusho":"青森県青森市四ツ石字里見64-6",
"Capacity":"422",
"la":"40.77823200000",
"ln":"140.77175300000"
},
"geometry":{
"type":"Point",
"coordinates":[
140.771753,
40.778232
]
}
},
{
"type":"Feature",
"properties":{
"Name":"沖館中学校",
"Jusho":"青森県青森市沖館五丁目19－",
"Capacity":"422",
"la":"40.83665400000",
"ln":"140.71718000000"
},
"geometry":{
"type":"Point",
"coordinates":[
140.71718,
40.836654
]
}
},
{
"type":"Feature",
"properties":{
"Name":"古川中学校",
"Jusho":"青森県青森市久須志二丁目9－",
"Capacity":"424",
"la":"40.81989300000",
"ln":"140.72897700000"
},
"geometry":{
"type":"Point",
"coordinates":[
140.728977,
40.819893
]
}
},
{
"type":"Feature",
"properties":{
"Name":"戸山中学校",
"Jusho":"青森県青森市戸山字赤坂78-3",
"Capacity":"422",
"la":"40.80156400000",
"ln":"140.80591600000"
},
"geometry":{
"type":"Point",
"coordinates":[
140.805916,
40.801564
]
}
},
{
"type":"Feature",
"properties":{
"Name":"甲田中学校",
"Jusho":"青森県青森市金沢三丁目11－",
"Capacity":"789",
"la":"40.80896600000",
"ln":"140.73324500000"
},
"geometry":{
"type":"Point",
"coordinates":[
140.733245,
40.808966
]
}
},
{
"type":"Feature",
"properties":{
"Name":"荒川中学校",
"Jusho":"青森県青森市金浜字稲田107",
"Capacity":"238",
"la":"40.77989800000",
"ln":"140.74008900000"
},
"geometry":{
"type":"Point",
"coordinates":[
140.740089,
40.779898
]
}
},
{
"type":"Feature",
"properties":{
"Name":"高田中学校",
"Jusho":"青森県青森市高田字川瀬122",
"Capacity":"232",
"la":"40.76239900000",
"ln":"140.72286900000"
},
"geometry":{
"type":"Point",
"coordinates":[
140.722869,
40.762399
]
}
},
{
"type":"Feature",
"properties":{
"Name":"三内中学校",
"Jusho":"青森県青森市三内字丸山108-4",
"Capacity":"424",
"la":"40.81572700000",
"ln":"140.70397800000"
},
"geometry":{
"type":"Point",
"coordinates":[
140.703978,
40.815727
]
}
},
{
"type":"Feature",
"properties":{
"Name":"新城中学校",
"Jusho":"青森県青森市新城字平岡160",
"Capacity":"439",
"la":"40.82183700000",
"ln":"140.68009100000"
},
"geometry":{
"type":"Point",
"coordinates":[
140.680091,
40.821837
]
}
},
{
"type":"Feature",
"properties":{
"Name":"西中学校",
"Jusho":"青森県青森市浪館字志田36",
"Capacity":"429",
"la":"40.80809800000",
"ln":"140.71942700000"
},
"geometry":{
"type":"Point",
"coordinates":[
140.719427,
40.808098
]
}
},
{
"type":"Feature",
"properties":{
"Name":"浅虫中学校",
"Jusho":"青森県青森市久栗坂字浜田129-5",
"Capacity":"422",
"la":"40.87072400000",
"ln":"140.85313100000"
},
"geometry":{
"type":"Point",
"coordinates":[
140.853131,
40.870724
]
}
},
{
"type":"Feature",
"properties":{
"Name":"造道中学校",
"Jusho":"青森県青森市岡造道二丁目14－",
"Capacity":"774",
"la":"40.82580500000",
"ln":"140.78875700000"
},
"geometry":{
"type":"Point",
"coordinates":[
140.788757,
40.825805
]
}
},
{
"type":"Feature",
"properties":{
"Name":"佃中学校",
"Jusho":"青森県青森市中佃二丁目7－",
"Capacity":"500",
"la":"40.81628400000",
"ln":"140.78036200000"
},
"geometry":{
"type":"Point",
"coordinates":[
140.780362,
40.816284
]
}
},
{
"type":"Feature",
"properties":{
"Name":"東中学校",
"Jusho":"青森県青森市八幡林字熊谷28",
"Capacity":"429",
"la":"40.83489400000",
"ln":"140.81813500000"
},
"geometry":{
"type":"Point",
"coordinates":[
140.818135,
40.834894
]
}
},
{
"type":"Feature",
"properties":{
"Name":"筒井中学校",
"Jusho":"青森県青森市桜川八丁目15－",
"Capacity":"500",
"la":"40.80795100000",
"ln":"140.77064100000"
},
"geometry":{
"type":"Point",
"coordinates":[
140.770641,
40.807951
]
}
},
{
"type":"Feature",
"properties":{
"Name":"南中学校",
"Jusho":"青森県青森市緑二丁目6－",
"Capacity":"424",
"la":"40.80711700000",
"ln":"140.74592100000"
},
"geometry":{
"type":"Point",
"coordinates":[
140.745921,
40.807117
]
}
},
{
"type":"Feature",
"properties":{
"Name":"北中学校",
"Jusho":"青森県青森市清水字浜元135－",
"Capacity":"421",
"la":"40.90460400000",
"ln":"140.66897800000"
},
"geometry":{
"type":"Point",
"coordinates":[
140.668978,
40.904604
]
}
},
{
"type":"Feature",
"properties":{
"Name":"油川中学校",
"Jusho":"青森県青森市羽白字沢田471",
"Capacity":"432",
"la":"40.85433300000",
"ln":"140.68759000000"
},
"geometry":{
"type":"Point",
"coordinates":[
140.68759,
40.854333
]
}
},
{
"type":"Feature",
"properties":{
"Name":"浪岡中学校",
"Jusho":"青森県青森市浪岡浪岡字稲盛1",
"Capacity":"538",
"la":"40.70511000000",
"ln":"140.58892500000"
},
"geometry":{
"type":"Point",
"coordinates":[
140.588925,
40.70511
]
}
},
{
"type":"Feature",
"properties":{
"Name":"浪打中学校",
"Jusho":"青森県青森市合浦一丁目11－0",
"Capacity":"453",
"la":"40.82850400000",
"ln":"140.77202900000"
},
"geometry":{
"type":"Point",
"coordinates":[
140.772029,
40.828504
]
}
},
{
"type":"Feature",
"properties":{
"Name":"弘前大学附属中学校",
"Jusho":"青森県弘前市学園町1－",
"Capacity":"555",
"la":"40.58046800000",
"ln":"140.48261900000"
},
"geometry":{
"type":"Point",
"coordinates":[
140.482619,
40.580468
]
}
},
{
"type":"Feature",
"properties":{
"Name":"常盤野小中学校",
"Jusho":"青森県弘前市常盤野字湯の沢45-4",
"Capacity":"451",
"la":"40.62867699910",
"ln":"140.26463800000"
},
"geometry":{
"type":"Point",
"coordinates":[
140.264638,
40.6286769991
]
}
},
{
"type":"Feature",
"properties":{
"Name":"新和中学校",
"Jusho":"青森県弘前市種市字小島57-2",
"Capacity":"355",
"la":"40.70656400000",
"ln":"140.42983900000"
},
"geometry":{
"type":"Point",
"coordinates":[
140.429839,
40.706564
]
}
},
{
"type":"Feature",
"properties":{
"Name":"裾野中学校",
"Jusho":"青森県弘前市十面沢字湯ケ森40",
"Capacity":"368",
"la":"40.71989400000",
"ln":"140.36067700000"
},
"geometry":{
"type":"Point",
"coordinates":[
140.360677,
40.719894
]
}
},
{
"type":"Feature",
"properties":{
"Name":"石川中学校",
"Jusho":"青森県弘前市石川字庄司川添19－",
"Capacity":"370",
"la":"40.55019700000",
"ln":"140.55039200000"
},
"geometry":{
"type":"Point",
"coordinates":[
140.550392,
40.550197
]
}
},
{
"type":"Feature",
"properties":{
"Name":"船沢中学校",
"Jusho":"青森県弘前市富栄字浅井名1",
"Capacity":"347",
"la":"40.64240400000",
"ln":"140.41484300000"
},
"geometry":{
"type":"Point",
"coordinates":[
140.414843,
40.642404
]
}
},
{
"type":"Feature",
"properties":{
"Name":"相馬中学校",
"Jusho":"青森県弘前市紙漉沢字山越48",
"Capacity":"630",
"la":"40.58033500000",
"ln":"140.38963000000"
},
"geometry":{
"type":"Point",
"coordinates":[
140.38963,
40.580335
]
}
},
{
"type":"Feature",
"properties":{
"Name":"第一中学校",
"Jusho":"青森県弘前市和徳町363－3",
"Capacity":"773",
"la":"40.60852100000",
"ln":"140.47706200000"
},
"geometry":{
"type":"Point",
"coordinates":[
140.477062,
40.608521
]
}
},
{
"type":"Feature",
"properties":{
"Name":"第五中学校",
"Jusho":"青森県弘前市川先二丁目4－",
"Capacity":"640",
"la":"40.58685700000",
"ln":"140.49372900000"
},
"geometry":{
"type":"Point",
"coordinates":[
140.493729,
40.586857
]
}
},
{
"type":"Feature",
"properties":{
"Name":"第三中学校",
"Jusho":"青森県弘前市豊原一丁目3-3",
"Capacity":"757",
"la":"40.58324600000",
"ln":"140.47678600000"
},
"geometry":{
"type":"Point",
"coordinates":[
140.476786,
40.583246
]
}
},
{
"type":"Feature",
"properties":{
"Name":"第四中学校",
"Jusho":"青森県弘前市樹木五丁目2-6",
"Capacity":"785",
"la":"40.58852200000",
"ln":"140.45873100000"
},
"geometry":{
"type":"Point",
"coordinates":[
140.458731,
40.588522
]
}
},
{
"type":"Feature",
"properties":{
"Name":"第二中学校",
"Jusho":"青森県弘前市平岡町72",
"Capacity":"763",
"la":"40.60879800000",
"ln":"140.45428600000"
},
"geometry":{
"type":"Point",
"coordinates":[
140.454286,
40.608798
]
}
},
{
"type":"Feature",
"properties":{
"Name":"津軽中学校",
"Jusho":"青森県弘前市五代字早稲田478",
"Capacity":"1281",
"la":"40.61824000000",
"ln":"140.41428900000"
},
"geometry":{
"type":"Point",
"coordinates":[
140.414289,
40.61824
]
}
},
{
"type":"Feature",
"properties":{
"Name":"東中学校",
"Jusho":"青森県弘前市末広三丁目2－",
"Capacity":"649",
"la":"40.60296700000",
"ln":"140.50345000000"
},
"geometry":{
"type":"Point",
"coordinates":[
140.50345,
40.602967
]
}
},
{
"type":"Feature",
"properties":{
"Name":"東目屋中学校",
"Jusho":"青森県弘前市桜庭字清水流63-3",
"Capacity":"357",
"la":"40.58935200000",
"ln":"140.33790800000"
},
"geometry":{
"type":"Point",
"coordinates":[
140.337908,
40.589352
]
}
},
{
"type":"Feature",
"properties":{
"Name":"南中学校",
"Jusho":"青森県弘前市原ヶ平字山中20－3",
"Capacity":"660",
"la":"40.56769200000",
"ln":"140.46678700000"
},
"geometry":{
"type":"Point",
"coordinates":[
140.466787,
40.567692
]
}
},
{
"type":"Feature",
"properties":{
"Name":"北辰中学校",
"Jusho":"青森県弘前市高杉字五反田191",
"Capacity":"349",
"la":"40.66268000000",
"ln":"140.43567300000"
},
"geometry":{
"type":"Point",
"coordinates":[
140.435673,
40.66268
]
}
},
{
"type":"Feature",
"properties":{
"Name":"三条中学校",
"Jusho":"青森県八戸市大字尻内町宇中根市2",
"Capacity":"440",
"la":"40.51383500000",
"ln":"141.42504100000"
},
"geometry":{
"type":"Point",
"coordinates":[
141.425041,
40.513835
]
}
},
{
"type":"Feature",
"properties":{
"Name":"下長中学校",
"Jusho":"青森県八戸市大字河原木宇河原木後77-2",
"Capacity":"670",
"la":"40.53077800000",
"ln":"141.46587000000"
},
"geometry":{
"type":"Point",
"coordinates":[
141.46587,
40.530778
]
}
},
{
"type":"Feature",
"properties":{
"Name":"江陽中学校",
"Jusho":"青森県八戸市江陽一丁目1-33",
"Capacity":"610",
"la":"40.51772500000",
"ln":"141.50003300000"
},
"geometry":{
"type":"Point",
"coordinates":[
141.500033,
40.517725
]
}
},
{
"type":"Feature",
"properties":{
"Name":"根城中学校",
"Jusho":"青森県八戸市根城五丁目11-42",
"Capacity":"650",
"la":"40.50689200000",
"ln":"141.46837000000"
},
"geometry":{
"type":"Point",
"coordinates":[
141.46837,
40.506892
]
}
},
{
"type":"Feature",
"properties":{
"Name":"鮫中学校",
"Jusho":"青森県八戸市大字鮫町宇古馬屋23-5",
"Capacity":"500",
"la":"40.53133500000",
"ln":"141.56669200000"
},
"geometry":{
"type":"Point",
"coordinates":[
141.566692,
40.531335
]
}
},
{
"type":"Feature",
"properties":{
"Name":"市川中学校",
"Jusho":"青森県八戸市大字市川町字赤畑34-2",
"Capacity":"650",
"la":"40.57882700000",
"ln":"141.44420400000"
},
"geometry":{
"type":"Point",
"coordinates":[
141.444204,
40.578827
]
}
},
{
"type":"Feature",
"properties":{
"Name":"小中野中学校",
"Jusho":"青森県八戸市小中野コ丁目9-26",
"Capacity":"610",
"la":"40.51633600000",
"ln":"141.51169800000"
},
"geometry":{
"type":"Point",
"coordinates":[
141.511698,
40.516336
]
}
},
{
"type":"Feature",
"properties":{
"Name":"是川中学校",
"Jusho":"青森県八戸市大字是川字細越河原3－",
"Capacity":"510",
"la":"40.45884300000",
"ln":"141.49309200000"
},
"geometry":{
"type":"Point",
"coordinates":[
141.493092,
40.458843
]
}
},
{
"type":"Feature",
"properties":{
"Name":"大館中学校",
"Jusho":"青森県八戸市大字新井田字市子林17－",
"Capacity":"650",
"la":"40.49050600000",
"ln":"141.52364300000"
},
"geometry":{
"type":"Point",
"coordinates":[
141.523643,
40.490506
]
}
},
{
"type":"Feature",
"properties":{
"Name":"第一中学校",
"Jusho":"青森県八戸市吹上一丁目17－",
"Capacity":"720",
"la":"40.50078200000",
"ln":"141.50058900000"
},
"geometry":{
"type":"Point",
"coordinates":[
141.500589,
40.500782
]
}
},
{
"type":"Feature",
"properties":{
"Name":"第三中学校",
"Jusho":"青森県八戸市青葉二丁目13-36",
"Capacity":"380",
"la":"40.50994800000",
"ln":"141.50864300000"
},
"geometry":{
"type":"Point",
"coordinates":[
141.508643,
40.509948
]
}
},
{
"type":"Feature",
"properties":{
"Name":"第二中学校",
"Jusho":"青森県八戸市大字売市字小待62",
"Capacity":"610",
"la":"40.51661300000",
"ln":"141.47920200000"
},
"geometry":{
"type":"Point",
"coordinates":[
141.479202,
40.516613
]
}
},
{
"type":"Feature",
"properties":{
"Name":"中沢中学校",
"Jusho":"青森県八戸市南郷区大字市野沢宇黄葉7",
"Capacity":"420",
"la":"40.39913500000",
"ln":"141.43671600000"
},
"geometry":{
"type":"Point",
"coordinates":[
141.436716,
40.399135
]
}
},
{
"type":"Feature",
"properties":{
"Name":"長者中学校",
"Jusho":"青森県八戸市大宇沢里字休場28－",
"Capacity":"690",
"la":"40.49245000000",
"ln":"141.47809200000"
},
"geometry":{
"type":"Point",
"coordinates":[
141.478092,
40.49245
]
}
},
{
"type":"Feature",
"properties":{
"Name":"田代小・中学校（組合立）",
"Jusho":"青森県八戸市南郷区大字島守字赤羽6-25",
"Capacity":"450",
"la":"40.39413000000",
"ln":"141.52725700000"
},
"geometry":{
"type":"Point",
"coordinates":[
141.527257,
40.39413
]
}
},
{
"type":"Feature",
"properties":{
"Name":"島守中学校",
"Jusho":"青森県八戸市南郷区大字島守字馬場37",
"Capacity":"440",
"la":"40.41827500000",
"ln":"141.48978600000"
},
"geometry":{
"type":"Point",
"coordinates":[
141.489786,
40.418275
]
}
},
{
"type":"Feature",
"properties":{
"Name":"東中学校",
"Jusho":"青森県八戸市湊向台二丁目14-8",
"Capacity":"670",
"la":"40.50439400000",
"ln":"141.53975100000"
},
"geometry":{
"type":"Point",
"coordinates":[
141.539751,
40.504394
]
}
},
{
"type":"Feature",
"properties":{
"Name":"南浜中学校",
"Jusho":"青森県八戸市大字鮫町字子猪越15-2",
"Capacity":"350",
"la":"40.49634000000",
"ln":"141.62335500000"
},
"geometry":{
"type":"Point",
"coordinates":[
141.623355,
40.49634
]
}
},
{
"type":"Feature",
"properties":{
"Name":"白銀中学校",
"Jusho":"青森県八戸市大字白銀町字栗沢道38",
"Capacity":"500",
"la":"40.51828100000",
"ln":"141.55780400000"
},
"geometry":{
"type":"Point",
"coordinates":[
141.557804,
40.518281
]
}
},
{
"type":"Feature",
"properties":{
"Name":"白銀南中学校",
"Jusho":"青森県八戸市大字大久保字生平ｌ",
"Capacity":"610",
"la":"40.51133800000",
"ln":"141.55724900000"
},
"geometry":{
"type":"Point",
"coordinates":[
141.557249,
40.511338
]
}
},
{
"type":"Feature",
"properties":{
"Name":"白山台中学校",
"Jusho":"青森県八戸市西白山台三丁目24－",
"Capacity":"510",
"la":"40.48043604520",
"ln":"141.45568953200"
},
"geometry":{
"type":"Point",
"coordinates":[
141.455689532,
40.4804360452
]
}
},
{
"type":"Feature",
"properties":{
"Name":"美保野中学校",
"Jusho":"青森県八戸市大宇美保野2",
"Capacity":"250",
"la":"40.48328600000",
"ln":"141.58502500000"
},
"geometry":{
"type":"Point",
"coordinates":[
141.585025,
40.483286
]
}
},
{
"type":"Feature",
"properties":{
"Name":"豊崎中学校",
"Jusho":"青森県八戸市大字豊崎町字上七崎1－",
"Capacity":"380",
"la":"40.51272300000",
"ln":"141.36643500000"
},
"geometry":{
"type":"Point",
"coordinates":[
141.366435,
40.512723
]
}
},
{
"type":"Feature",
"properties":{
"Name":"北稜中学校",
"Jusho":"青森県八戸市大字河原木字八太郎山10－39",
"Capacity":"510",
"la":"40.54605400000",
"ln":"141.48586700000"
},
"geometry":{
"type":"Point",
"coordinates":[
141.485867,
40.546054
]
}
},
{
"type":"Feature",
"properties":{
"Name":"湊中学校",
"Jusho":"青森県八戸市大字白銀町字右新井田道13-2",
"Capacity":"650",
"la":"40.51578100000",
"ln":"141.53391800000"
},
"geometry":{
"type":"Point",
"coordinates":[
141.533918,
40.515781
]
}
},
{
"type":"Feature",
"properties":{
"Name":"明治中学校",
"Jusho":"青森県八戸市大字八幡字上ミ沢23－",
"Capacity":"300",
"la":"40.48441100000",
"ln":"141.43734700000"
},
"geometry":{
"type":"Point",
"coordinates":[
141.437347,
40.484411
]
}
},
{
"type":"Feature",
"properties":{
"Name":"旧厚目内小中学校体育館",
"Jusho":"青森県黒石市沖浦字大巻前46",
"Capacity":"250",
"la":"40.54242500000",
"ln":"140.72537700000"
},
"geometry":{
"type":"Point",
"coordinates":[
140.725377,
40.542425
]
}
},
{
"type":"Feature",
"properties":{
"Name":"黒石中学校",
"Jusho":"青森県黒石市柵ノ木四丁目1",
"Capacity":"876",
"la":"40.63991000000",
"ln":"140.61149400000"
},
"geometry":{
"type":"Point",
"coordinates":[
140.611494,
40.63991
]
}
},
{
"type":"Feature",
"properties":{
"Name":"中郷中学校",
"Jusho":"青森県黒石市株梗木字中渡1－",
"Capacity":"804",
"la":"40.65546300000",
"ln":"140.59010600000"
},
"geometry":{
"type":"Point",
"coordinates":[
140.590106,
40.655463
]
}
},
{
"type":"Feature",
"properties":{
"Name":"東英中学校",
"Jusho":"青森県黒石市上山形字境沢口28",
"Capacity":"559",
"la":"40.61324800000",
"ln":"140.66288000000"
},
"geometry":{
"type":"Point",
"coordinates":[
140.66288,
40.613248
]
}
},
{
"type":"Feature",
"properties":{
"Name":"六郷中学校",
"Jusho":"青森県黒石市上十川字村元一番60",
"Capacity":"521",
"la":"40.66353600000",
"ln":"140.61514500000"
},
"geometry":{
"type":"Point",
"coordinates":[
140.615145,
40.663536
]
}
},
{
"type":"Feature",
"properties":{
"Name":"金木中学校",
"Jusho":"青森県五所川原市金木町芦野84-9",
"Capacity":"2690",
"la":"40.90573700000",
"ln":"140.46216900000"
},
"geometry":{
"type":"Point",
"coordinates":[
140.462169,
40.905737
]
}
},
{
"type":"Feature",
"properties":{
"Name":"金木南中学校",
"Jusho":"青森県五所川原市金木町嘉瀬上端山崎89-2",
"Capacity":"2172",
"la":"40.88360400000",
"ln":"140.47086100000"
},
"geometry":{
"type":"Point",
"coordinates":[
140.470861,
40.883604
]
}
},
{
"type":"Feature",
"properties":{
"Name":"市浦中学校",
"Jusho":"青森県五所川原市相内岩井81",
"Capacity":"425",
"la":"41.06041300000",
"ln":"140.34927600000"
},
"geometry":{
"type":"Point",
"coordinates":[
140.349276,
41.060413
]
}
},
{
"type":"Feature",
"properties":{
"Name":"第一中学校",
"Jusho":"青森県五所川原市松島町3丁目1",
"Capacity":"913",
"la":"40.80794400000",
"ln":"140.45677700000"
},
"geometry":{
"type":"Point",
"coordinates":[
140.456777,
40.807944
]
}
},
{
"type":"Feature",
"properties":{
"Name":"第三中学校",
"Jusho":"青森県五所川原市広田字藤浦105－",
"Capacity":"668",
"la":"40.78211300000",
"ln":"140.46372200000"
},
"geometry":{
"type":"Point",
"coordinates":[
140.463722,
40.782113
]
}
},
{
"type":"Feature",
"properties":{
"Name":"第四中学校",
"Jusho":"青森県五所川原市沖飯詰字男鹿274－",
"Capacity":"600",
"la":"40.83321900000",
"ln":"140.46927500000"
},
"geometry":{
"type":"Point",
"coordinates":[
140.469275,
40.833219
]
}
},
{
"type":"Feature",
"properties":{
"Name":"第二中学校",
"Jusho":"青森県五所川原市豊成字田子ノ浦70－",
"Capacity":"413",
"la":"40.77600400000",
"ln":"140.51955100000"
},
"geometry":{
"type":"Point",
"coordinates":[
140.519551,
40.776004
]
}
},
{
"type":"Feature",
"properties":{
"Name":"三本木中学校",
"Jusho":"青森県十和田市西十三番町5-24",
"Capacity":"－",
"la":"40.60909400000",
"ln":"141.20339100000"
},
"geometry":{
"type":"Point",
"coordinates":[
141.203391,
40.609094
]
}
},
{
"type":"Feature",
"properties":{
"Name":"四和中学校",
"Jusho":"青森県十和田市米田高谷140",
"Capacity":"－",
"la":"40.54827000000",
"ln":"141.23394500000"
},
"geometry":{
"type":"Point",
"coordinates":[
141.233945,
40.54827
]
}
},
{
"type":"Feature",
"properties":{
"Name":"十和田湖中学校",
"Jusho":"青森県十和田市奥瀬十和田420",
"Capacity":"－",
"la":"40.44133100000",
"ln":"140.93369800000"
},
"geometry":{
"type":"Point",
"coordinates":[
140.933698,
40.441331
]
}
},
{
"type":"Feature",
"properties":{
"Name":"十和田中学校",
"Jusho":"青森県十和田市東十六番町27－",
"Capacity":"－",
"la":"40.60298500000",
"ln":"141.23283200000"
},
"geometry":{
"type":"Point",
"coordinates":[
141.232832,
40.602985
]
}
},
{
"type":"Feature",
"properties":{
"Name":"切田中学校",
"Jusho":"青森県十和田市切田平林387",
"Capacity":"－",
"la":"40.58020900000",
"ln":"141.18617200000"
},
"geometry":{
"type":"Point",
"coordinates":[
141.186172,
40.580209
]
}
},
{
"type":"Feature",
"properties":{
"Name":"大深内中学校",
"Jusho":"青森県十和田市洞内千刈田24-6",
"Capacity":"－",
"la":"40.66908900000",
"ln":"141.21561000000"
},
"geometry":{
"type":"Point",
"coordinates":[
141.21561,
40.669089
]
}
},
{
"type":"Feature",
"properties":{
"Name":"第一中学校",
"Jusho":"青森県十和田市奥瀬生内32-6",
"Capacity":"－",
"la":"40.57801200000",
"ln":"141.10588100000"
},
"geometry":{
"type":"Point",
"coordinates":[
141.105881,
40.578012
]
}
},
{
"type":"Feature",
"properties":{
"Name":"東中学校",
"Jusho":"青森県十和田市東二十二番町29－",
"Capacity":"－",
"la":"40.62687200000",
"ln":"141.23810900000"
},
"geometry":{
"type":"Point",
"coordinates":[
141.238109,
40.626872
]
}
},
{
"type":"Feature",
"properties":{
"Name":"第一中学校",
"Jusho":"青森県三沢市松園町二丁目1-34",
"Capacity":"12471",
"la":"40.67964800000",
"ln":"141.36642900000"
},
"geometry":{
"type":"Point",
"coordinates":[
141.366429,
40.679648
]
}
},
{
"type":"Feature",
"properties":{
"Name":"第五中学校",
"Jusho":"青森県三沢市古間木山141－11",
"Capacity":"9905",
"la":"40.67075900000",
"ln":"141.35865200000"
},
"geometry":{
"type":"Point",
"coordinates":[
141.358652,
40.670759
]
}
},
{
"type":"Feature",
"properties":{
"Name":"第三中学校",
"Jusho":"青森県三沢市六川目八丁目34－6",
"Capacity":"12890",
"la":"40.77797100000",
"ln":"141.40031000000"
},